venue_name,address,city,state,zip_code,phone,website,sports_supported,latitude,longitude,approved_at,photo_review_status,admin_status,country,origin_type,community_source,community_source_id,community_seed_batch,community_seeded_at,community_curated_by,community_provenance,place_type
The Union Bar,,,,,,,,51.5004234,-0.1777428,2026-05-24T23:21:02.413484+00:00,approved,active,United Kingdom,community,osm_venues_uk_v4,uk_00001,uk_venues_batch_v4,2026-05-24T23:21:02.413484+00:00,osm_import_terminal_v4,{},venue
The Polish Bar (Na Zdrowie),6 Little Turnstile,London,,WC1V 7DX,,,,51.5173465,-0.1189566,2026-05-24T23:21:02.413484+00:00,approved,active,United Kingdom,community,osm_venues_uk_v4,uk_00002,uk_venues_batch_v4,2026-05-24T23:21:02.413484+00:00,osm_import_terminal_v4,{},venue
All Bar One,58 Kingsway,London,,WC2B 6DX,+44 20 7269 5171,http://www.allbarone.co.uk/all-bar-one-kingsway/,,51.5163376,-0.119321,2026-05-24T23:21:02.413484+00:00,approved,active,United Kingdom,community,osm_venues_uk_v4,uk_00003,uk_venues_batch_v4,2026-05-24T23:21:02.413484+00:00,osm_import_terminal_v4,{},venue
Bold Food & Bar,126 Dartmouth Park Hill,London,,N19 5HS,+447585 957 145,https://www.thehouselondon.co.uk/,,51.5649774,-0.140689,2026-05-24T23:21:02.413484+00:00,approved,active,United Kingdom,community,osm_venues_uk_v4,uk_00004,uk_venues_batch_v4,2026-05-24T23:21:02.413484+00:00,osm_import_terminal_v4,{},venue
Aces and Eights Saloon Bar,156-158 Fortess Road,London,,NW5 2HP,,https://www.acesandeightssaloonbar.com/,,51.5566538,-0.1383959,2026-05-24T23:21:02.413484+00:00,approved,active,United Kingdom,community,osm_venues_uk_v4,uk_00005,uk_venues_batch_v4,2026-05-24T23:21:02.413484+00:00,osm_import_terminal_v4,{},venue
Canalside Bar,"38 Middle Yard, Camden Lock Place",London,,NW1 8AF,,,,51.5411992,-0.1458705,2026-05-24T23:21:02.413484+00:00,approved,active,United Kingdom,community,osm_venues_uk_v4,uk_00006,uk_venues_batch_v4,2026-05-24T23:21:02.413484+00:00,osm_import_terminal_v4,{},venue
Barlow Croft,,Manchester,,M20 5PG,,https://www.greeneking.co.uk/pubs/greater-manchester/barlow-croft,,53.4107971,-2.2184809,2026-05-24T23:21:02.413484+00:00,approved,active,United Kingdom,community,osm_venues_uk_v4,uk_00007,uk_venues_batch_v4,2026-05-24T23:21:02.413484+00:00,osm_import_terminal_v4,{},venue
Kro Bar,325 Oxford Road,,,,+44 161 274 3100,,,53.4648954,-2.2319363,2026-05-24T23:21:02.413484+00:00,approved,active,United Kingdom,community,osm_venues_uk_v4,uk_00008,uk_venues_batch_v4,2026-05-24T23:21:02.413484+00:00,osm_import_terminal_v4,{},venue
Bar Story,Blenheim Grove,London,,SE15 4QL,,,,51.4695231,-0.0698846,2026-05-24T23:21:02.413484+00:00,approved,active,United Kingdom,community,osm_venues_uk_v4,uk_00009,uk_venues_batch_v4,2026-05-24T23:21:02.413484+00:00,osm_import_terminal_v4,{},venue
The Baring Arms,55 Baring Street,London,,N1 3DS,,,,51.537057,-0.0884773,2026-05-24T23:21:02.413484+00:00,approved,active,United Kingdom,community,osm_venues_uk_v4,uk_00010,uk_venues_batch_v4,2026-05-24T23:21:02.413484+00:00,osm_import_terminal_v4,{},venue
135 bar & lounge,135 Cambridge Heath Road,London,,E1 5RN,,,,51.5229869,-0.0552609,2026-05-24T23:21:02.413484+00:00,approved,active,United Kingdom,community,osm_venues_uk_v4,uk_00011,uk_venues_batch_v4,2026-05-24T23:21:02.413484+00:00,osm_import_terminal_v4,{},venue
Bank Restaurant & Bar,45 Buckingham Gate,London,,SW1E 6BS,+44 20 7630 6644,https://www.individualrestaurants.com/,,51.4986304,-0.1372558,2026-05-24T23:21:02.413484+00:00,approved,active,United Kingdom,community,osm_venues_uk_v4,uk_00012,uk_venues_batch_v4,2026-05-24T23:21:02.413484+00:00,osm_import_terminal_v4,{},venue
Hen and Chickens theatre & bar,,,,,,,,51.5460243,-0.1019468,2026-05-24T23:21:02.413484+00:00,approved,active,United Kingdom,community,osm_venues_uk_v4,uk_00013,uk_venues_batch_v4,2026-05-24T23:21:02.413484+00:00,osm_import_terminal_v4,{},venue
Sandbar,120 Grosvenor Street,Manchester,,M1 7HL,,https://sandbarmanchester.co.uk/,,53.4706825,-2.2359568,2026-05-24T23:21:02.413484+00:00,approved,active,United Kingdom,community,osm_venues_uk_v4,uk_00014,uk_venues_batch_v4,2026-05-24T23:21:02.413484+00:00,osm_import_terminal_v4,{},venue
Sports Bar & Grill,174-180 Old Street,London,,EC1V 9BP,,,,51.525197,-0.0900377,2026-05-24T23:21:02.413484+00:00,approved,active,United Kingdom,community,osm_venues_uk_v4,uk_00015,uk_venues_batch_v4,2026-05-24T23:21:02.413484+00:00,osm_import_terminal_v4,{},venue
Tia Maria Bar & Kitchen,126 South Lambeth Road,London,,SW8 1RB,+44 20 7622 3602,,,51.4808939,-0.12483,2026-05-24T23:21:02.413484+00:00,approved,active,United Kingdom,community,osm_venues_uk_v4,uk_00016,uk_venues_batch_v4,2026-05-24T23:21:02.413484+00:00,osm_import_terminal_v4,{},venue
The Bowery Bar,,,,,,,,51.5171827,-0.1255515,2026-05-24T23:21:02.413484+00:00,approved,active,United Kingdom,community,osm_venues_uk_v4,uk_00017,uk_venues_batch_v4,2026-05-24T23:21:02.413484+00:00,osm_import_terminal_v4,{},venue
Neds Noodle Bar,21 Pitfield Street,London,,N1 6HB,,,,51.5270245,-0.0837537,2026-05-24T23:21:02.413484+00:00,approved,active,United Kingdom,community,osm_venues_uk_v4,uk_00018,uk_venues_batch_v4,2026-05-24T23:21:02.413484+00:00,osm_import_terminal_v4,{},venue
All Bar One Butlers Warf,Shat Thames,London,,SE1 2YG,,,,51.5033816,-0.0727542,2026-05-24T23:21:02.413484+00:00,approved,active,United Kingdom,community,osm_venues_uk_v4,uk_00019,uk_venues_batch_v4,2026-05-24T23:21:02.413484+00:00,osm_import_terminal_v4,{},venue
Jono's Bar,,,,,,,,51.5101535,-0.2869312,2026-05-24T23:21:02.413484+00:00,approved,active,United Kingdom,community,osm_venues_uk_v4,uk_00020,uk_venues_batch_v4,2026-05-24T23:21:02.413484+00:00,osm_import_terminal_v4,{},venue
Icebar,29-33 Heddon Street,London,,W1B 4BN,,https://www.belowzeroicebar.com/,,51.5113103,-0.1398884,2026-05-24T23:21:02.413484+00:00,approved,active,United Kingdom,community,osm_venues_uk_v4,uk_00021,uk_venues_batch_v4,2026-05-24T23:21:02.413484+00:00,osm_import_terminal_v4,{},venue
012 Bar & Grill Restaurant,108-110 The Grove,London,,E15 1NS,,,,51.542752,0.0032106,2026-05-24T23:21:02.413484+00:00,approved,active,United Kingdom,community,osm_venues_uk_v4,uk_00022,uk_venues_batch_v4,2026-05-24T23:21:02.413484+00:00,osm_import_terminal_v4,{},venue
The Sportsman,78-102 Broadway,London,,E15 1NG,,https://www.greatukpubs.co.uk/sportsman-stratford,,51.5424567,0.0028343,2026-05-24T23:21:02.413484+00:00,approved,active,United Kingdom,community,osm_venues_uk_v4,uk_00023,uk_venues_batch_v4,2026-05-24T23:21:02.413484+00:00,osm_import_terminal_v4,{},venue
Satay Bar,447 Coldharbour Lane,London,,SW9 8LP,+44 20 7326 5001,https://www.sataybar.co.uk/,,51.4614013,-0.11448,2026-05-24T23:21:02.413484+00:00,approved,active,United Kingdom,community,osm_venues_uk_v4,uk_00024,uk_venues_batch_v4,2026-05-24T23:21:02.413484+00:00,osm_import_terminal_v4,{},venue
The Scotia Bar,"112,114 Stockwell Street",Glasgow,,G1 4LW,+44 141 552 8681,https://www.belhaven.co.uk/pubs/lanarkshire/scotia-bar/,,55.8553917,-4.2503001,2026-05-24T23:21:02.413484+00:00,approved,active,United Kingdom,community,osm_venues_uk_v4,uk_00025,uk_venues_batch_v4,2026-05-24T23:21:02.413484+00:00,osm_import_terminal_v4,{},venue
Republic Bier Halle,9 Gordon Street,Glasgow,,G1 3PL,,,,55.8602836,-4.2547902,2026-05-24T23:21:02.413484+00:00,approved,active,United Kingdom,community,osm_venues_uk_v4,uk_00026,uk_venues_batch_v4,2026-05-24T23:21:02.413484+00:00,osm_import_terminal_v4,{},venue
The Brookmill Pub,65 Cranbrook Road,London,,SE8 4EJ,,,,51.4708059,-0.0218807,2026-05-24T23:21:02.413484+00:00,approved,active,United Kingdom,community,osm_venues_uk_v4,uk_00027,uk_venues_batch_v4,2026-05-24T23:21:02.413484+00:00,osm_import_terminal_v4,{},venue
So! Restaurant Bar,Royal Victoria Place,London,,E16 1UQ,,,,51.5054491,0.0261464,2026-05-24T23:21:02.413484+00:00,approved,active,United Kingdom,community,osm_venues_uk_v4,uk_00028,uk_venues_batch_v4,2026-05-24T23:21:02.413484+00:00,osm_import_terminal_v4,{},venue
The Coach House Bar,,,,,,,,51.504463,-0.0897602,2026-05-24T23:21:02.413484+00:00,approved,active,United Kingdom,community,osm_venues_uk_v4,uk_00029,uk_venues_batch_v4,2026-05-24T23:21:02.413484+00:00,osm_import_terminal_v4,{},venue
Twists Sandwich Bar,,,,,,,,51.5005539,-0.0914286,2026-05-24T23:21:02.413484+00:00,approved,active,United Kingdom,community,osm_venues_uk_v4,uk_00030,uk_venues_batch_v4,2026-05-24T23:21:02.413484+00:00,osm_import_terminal_v4,{},venue
Escape Sports Bar & Restaurant,2 Lidlington Place,London,,NW1 2JU,+44 207 387 2988,https://www.escapemornington.co.uk/,,51.5327738,-0.1373878,2026-05-24T23:21:02.413484+00:00,approved,active,United Kingdom,community,osm_venues_uk_v4,uk_00031,uk_venues_batch_v4,2026-05-24T23:21:02.413484+00:00,osm_import_terminal_v4,{},venue
Bbar,43 Buckingham Palace Road,London,,SW1W 0PP,,https://www.bbarlondon.com/,,51.4981242,-0.1434293,2026-05-24T23:21:02.413484+00:00,approved,active,United Kingdom,community,osm_venues_uk_v4,uk_00032,uk_venues_batch_v4,2026-05-24T23:21:02.413484+00:00,osm_import_terminal_v4,{},venue
Globe Bar,,,,,,,,51.4924342,-0.2785884,2026-05-24T23:21:02.413484+00:00,approved,active,United Kingdom,community,osm_venues_uk_v4,uk_00033,uk_venues_batch_v4,2026-05-24T23:21:02.413484+00:00,osm_import_terminal_v4,{},venue
Willy's Wine Bar,107 Fenchurch Street,London,,EC3M 5JF,,,,51.5126466,-0.079319,2026-05-24T23:21:02.413484+00:00,approved,active,United Kingdom,community,osm_venues_uk_v4,uk_00034,uk_venues_batch_v4,2026-05-24T23:21:02.413484+00:00,osm_import_terminal_v4,{},venue
Simmons Bar,43 Essex Road,London,,N1 2SF,+44 20 3909 5272,https://www.simmonsbar.co.uk/venues/angel/,,51.5373115,-0.1008285,2026-05-24T23:21:02.413484+00:00,approved,active,United Kingdom,community,osm_venues_uk_v4,uk_00035,uk_venues_batch_v4,2026-05-24T23:21:02.413484+00:00,osm_import_terminal_v4,{},venue
The Retro Bar,2 George Court,London,,WC2N 6HH,+44 20 7839 8760,https://www.retrobarlondon.co.uk/london,,51.5091024,-0.1235665,2026-05-24T23:21:02.413484+00:00,approved,active,United Kingdom,community,osm_venues_uk_v4,uk_00036,uk_venues_batch_v4,2026-05-24T23:21:02.413484+00:00,osm_import_terminal_v4,{},venue
Dean's Bar,,,,,,,,51.5209322,-0.1231994,2026-05-24T23:21:02.413484+00:00,approved,active,United Kingdom,community,osm_venues_uk_v4,uk_00037,uk_venues_batch_v4,2026-05-24T23:21:02.413484+00:00,osm_import_terminal_v4,{},venue
The 1 Bar,18-20 Appold Street,London,,EC2A 2AS,,,,51.519968,-0.0831839,2026-05-24T23:21:02.413484+00:00,approved,active,United Kingdom,community,osm_venues_uk_v4,uk_00038,uk_venues_batch_v4,2026-05-24T23:21:02.413484+00:00,osm_import_terminal_v4,{},venue
Caffé Pronto Grill Bar,51 Sutton Ground,London,,SW1P 2HY,,,,51.4966438,-0.1335105,2026-05-24T23:21:02.413484+00:00,approved,active,United Kingdom,community,osm_venues_uk_v4,uk_00039,uk_venues_batch_v4,2026-05-24T23:21:02.413484+00:00,osm_import_terminal_v4,{},venue
Federal Cafe Bar,194 Deansgate,Manchester,,M3 3ND,,,,53.4786625,-2.2495294,2026-05-24T23:21:02.413484+00:00,approved,active,United Kingdom,community,osm_venues_uk_v4,uk_00040,uk_venues_batch_v4,2026-05-24T23:21:02.413484+00:00,osm_import_terminal_v4,{},venue
Red's True Barbecue,18-22 Lloyd Street,Manchester,,M2 5WA,,https://truebarbecue.com/,,53.4789629,-2.2463227,2026-05-24T23:21:02.413484+00:00,approved,active,United Kingdom,community,osm_venues_uk_v4,uk_00041,uk_venues_batch_v4,2026-05-24T23:21:02.413484+00:00,osm_import_terminal_v4,{},venue
La Piazza Sandwich Bar,,,,,,,,53.4785424,-2.2502961,2026-05-24T23:21:02.413484+00:00,approved,active,United Kingdom,community,osm_venues_uk_v4,uk_00042,uk_venues_batch_v4,2026-05-24T23:21:02.413484+00:00,osm_import_terminal_v4,{},venue
Highbury Barn Tavern,,,,,,,,51.55382,-0.0980505,2026-05-24T23:21:02.413484+00:00,approved,active,United Kingdom,community,osm_venues_uk_v4,uk_00043,uk_venues_batch_v4,2026-05-24T23:21:02.413484+00:00,osm_import_terminal_v4,{},venue
The Drayton Park Public House,66 Drayton Park,London,,N5 1ND,+44 20 7359 3915,,,51.5534482,-0.1046613,2026-05-24T23:21:02.413484+00:00,approved,active,United Kingdom,community,osm_venues_uk_v4,uk_00044,uk_venues_batch_v4,2026-05-24T23:21:02.413484+00:00,osm_import_terminal_v4,{},venue
Nº 1 Bar,,,,,,,,51.5060052,-0.08685,2026-05-24T23:21:02.413484+00:00,approved,active,United Kingdom,community,osm_venues_uk_v4,uk_00045,uk_venues_batch_v4,2026-05-24T23:21:02.413484+00:00,osm_import_terminal_v4,{},venue
The Ladybird Bar,70 Upper Street,London,,N1 0NY,+44 781 239 0482,https://ladybirdbar.co.uk,,51.5360577,-0.1038735,2026-05-24T23:21:02.413484+00:00,approved,active,United Kingdom,community,osm_venues_uk_v4,uk_00046,uk_venues_batch_v4,2026-05-24T23:21:02.413484+00:00,osm_import_terminal_v4,{},venue
Sambal Shiok Laksa Bar,171 Holloway Road,London,,,+44 20 7619 9888,https://www.sambalshiok.co.uk/,,51.5498868,-0.1089817,2026-05-24T23:21:02.413484+00:00,approved,active,United Kingdom,community,osm_venues_uk_v4,uk_00047,uk_venues_batch_v4,2026-05-24T23:21:02.413484+00:00,osm_import_terminal_v4,{},venue
The Sporting Pages,6 Camera Place,London,,,+44 20 7349 0455,https://thesportingpage.co.uk/,,51.4845997,-0.1794648,2026-05-24T23:21:02.413484+00:00,approved,active,United Kingdom,community,osm_venues_uk_v4,uk_00048,uk_venues_batch_v4,2026-05-24T23:21:02.413484+00:00,osm_import_terminal_v4,{},venue
The Sterling Bar & Kitchen,30 St. Mary Axe,London,,EC3A 8BF,+44 20 7929 3641,https://www.thesterlingbar.co.uk/,,51.51452,-0.0800751,2026-05-24T23:21:02.413484+00:00,approved,active,United Kingdom,community,osm_venues_uk_v4,uk_00049,uk_venues_batch_v4,2026-05-24T23:21:02.413484+00:00,osm_import_terminal_v4,{},venue
The Fishery Fish Bar,90 Stoke Newington High Street,London,,N16 7NY,,,,51.5594639,-0.0739318,2026-05-24T23:21:02.413484+00:00,approved,active,United Kingdom,community,osm_venues_uk_v4,uk_00050,uk_venues_batch_v4,2026-05-24T23:21:02.413484+00:00,osm_import_terminal_v4,{},venue
McCafferty's Bar,128 Tottenham Lane,London,,N8 7EL,+44 2083 413 182,https://crouchend.mccaffertysbars.com/,,51.5838486,-0.1165681,2026-05-24T23:21:02.413484+00:00,approved,active,United Kingdom,community,osm_venues_uk_v4,uk_00051,uk_venues_batch_v4,2026-05-24T23:21:02.413484+00:00,osm_import_terminal_v4,{},venue
Bar Italia,22 Frith Street,London,,W1D 4RP,,http://www.baritaliasoho.co.uk,,51.513421,-0.1312352,2026-05-24T23:21:02.413484+00:00,approved,active,United Kingdom,community,osm_venues_uk_v4,uk_00052,uk_venues_batch_v4,2026-05-24T23:21:02.413484+00:00,osm_import_terminal_v4,{},venue
Aquarium Snack Bar,415 Wandsworth Road,,,,,,,51.4736108,-0.1331057,2026-05-24T23:21:02.413484+00:00,approved,active,United Kingdom,community,osm_venues_uk_v4,uk_00053,uk_venues_batch_v4,2026-05-24T23:21:02.413484+00:00,osm_import_terminal_v4,{},venue
Orit Ethiopian Restaurant & Bar,,,,,,,,51.4708688,-0.1381623,2026-05-24T23:21:02.413484+00:00,approved,active,United Kingdom,community,osm_venues_uk_v4,uk_00054,uk_venues_batch_v4,2026-05-24T23:21:02.413484+00:00,osm_import_terminal_v4,{},venue
Bradley's Spanish Bar,42-44 Hanway Street,London,,,+44 20 7636 0359,https://www.bradleysspanishbar.com/,,51.5165329,-0.1326779,2026-05-24T23:21:02.413484+00:00,approved,active,United Kingdom,community,osm_venues_uk_v4,uk_00055,uk_venues_batch_v4,2026-05-24T23:21:02.413484+00:00,osm_import_terminal_v4,{},venue
Troy Bar,10 Hoxton Street,London,,N1 6NG,,,,51.5276711,-0.0800098,2026-05-24T23:21:02.413484+00:00,approved,active,United Kingdom,community,osm_venues_uk_v4,uk_00056,uk_venues_batch_v4,2026-05-24T23:21:02.413484+00:00,osm_import_terminal_v4,{},venue
All Bar One,,,,,,,,51.5167167,-0.1289335,2026-05-24T23:21:02.413484+00:00,approved,active,United Kingdom,community,osm_venues_uk_v4,uk_00057,uk_venues_batch_v4,2026-05-24T23:21:02.413484+00:00,osm_import_terminal_v4,{},venue
Barbican Kitchen,Silk Street,London,,EC2Y 8DS,,,,51.5195292,-0.093295,2026-05-24T23:21:02.413484+00:00,approved,active,United Kingdom,community,osm_venues_uk_v4,uk_00058,uk_venues_batch_v4,2026-05-24T23:21:02.413484+00:00,osm_import_terminal_v4,{},venue
Brunello Bar and Restaurant,60 Hyde Park Gate,,,,,,,51.5017242,-0.1848227,2026-05-24T23:21:02.413484+00:00,approved,active,United Kingdom,community,osm_venues_uk_v4,uk_00059,uk_venues_batch_v4,2026-05-24T23:21:02.413484+00:00,osm_import_terminal_v4,{},venue
Snack Bar & Café,106 Charing Cross Road,London,,,,,,51.5143608,-0.1294674,2026-05-24T23:21:02.413484+00:00,approved,active,United Kingdom,community,osm_venues_uk_v4,uk_00060,uk_venues_batch_v4,2026-05-24T23:21:02.413484+00:00,osm_import_terminal_v4,{},venue
19 Cafe Bar,19 Lever Street,Manchester,,M1 1BY,,,,53.4817641,-2.2352622,2026-05-24T23:21:02.413484+00:00,approved,active,United Kingdom,community,osm_venues_uk_v4,uk_00061,uk_venues_batch_v4,2026-05-24T23:21:02.413484+00:00,osm_import_terminal_v4,{},venue
Bar + Block,York Way,London,,,,,,51.5317695,-0.1223238,2026-05-24T23:21:02.413484+00:00,approved,active,United Kingdom,community,osm_venues_uk_v4,uk_00062,uk_venues_batch_v4,2026-05-24T23:21:02.413484+00:00,osm_import_terminal_v4,{},venue
All Bar One,107 Houndsditch,London,,EC3A 7BD,,,,51.5158403,-0.0792759,2026-05-24T23:21:02.413484+00:00,approved,active,United Kingdom,community,osm_venues_uk_v4,uk_00063,uk_venues_batch_v4,2026-05-24T23:21:02.413484+00:00,osm_import_terminal_v4,{},venue
S'mug Coffee Bar,167 Great George Street,Glasgow,,G12 8AQ,+44 141 334 6671,,,55.8754252,-4.2924418,2026-05-24T23:21:02.413484+00:00,approved,active,United Kingdom,community,osm_venues_uk_v4,uk_00064,uk_venues_batch_v4,2026-05-24T23:21:02.413484+00:00,osm_import_terminal_v4,{},venue
Saatchi Gallery Bar & Brasserie,90 Duke of York Square,London,,SW3 4LY,+44 20 3973 5980,https://searcys.co.uk/venues/saatchi-gallery/saatchi-gallery-bar-brasserie/,,51.4910887,-0.1593097,2026-05-24T23:21:02.413484+00:00,approved,active,United Kingdom,community,osm_venues_uk_v4,uk_00065,uk_venues_batch_v4,2026-05-24T23:21:02.413484+00:00,osm_import_terminal_v4,{},venue
Polo Bar,39 Conduit Street,London,,W1S 2YG,,,,51.5115358,-0.1425515,2026-05-24T23:21:02.413484+00:00,approved,active,United Kingdom,community,osm_venues_uk_v4,uk_00066,uk_venues_batch_v4,2026-05-24T23:21:02.413484+00:00,osm_import_terminal_v4,{},venue
Barley Mow,82 Duke Street,London,,,,,,51.5129113,-0.1509087,2026-05-24T23:21:02.413484+00:00,approved,active,United Kingdom,community,osm_venues_uk_v4,uk_00067,uk_venues_batch_v4,2026-05-24T23:21:02.413484+00:00,osm_import_terminal_v4,{},venue
The Salt Point Bar,,,,,,,,51.519894,-0.0800515,2026-05-24T23:21:02.413484+00:00,approved,active,United Kingdom,community,osm_venues_uk_v4,uk_00068,uk_venues_batch_v4,2026-05-24T23:21:02.413484+00:00,osm_import_terminal_v4,{},venue
Mascara Bar,72 Stamford Hill,London,,N16 6XS,,,,51.5668762,-0.0726457,2026-05-24T23:21:02.413484+00:00,approved,active,United Kingdom,community,osm_venues_uk_v4,uk_00069,uk_venues_batch_v4,2026-05-24T23:21:02.413484+00:00,osm_import_terminal_v4,{},venue
Baraka Eatery,38-40 Whitechapel Road,London,,E1 1JX,,,,51.5173147,-0.0663867,2026-05-24T23:21:02.413484+00:00,approved,active,United Kingdom,community,osm_venues_uk_v4,uk_00070,uk_venues_batch_v4,2026-05-24T23:21:02.413484+00:00,osm_import_terminal_v4,{},venue
Nordic Bar,25 Newman Street,London,,W1T 1PN,+44 20 7631 3174,https://www.nordicbar.com/,,51.5178561,-0.135695,2026-05-24T23:21:02.413484+00:00,approved,active,United Kingdom,community,osm_venues_uk_v4,uk_00071,uk_venues_batch_v4,2026-05-24T23:21:02.413484+00:00,osm_import_terminal_v4,{},venue
Homeboy Bar,108 Essex Road,London,,,,,,51.5389804,-0.0982697,2026-05-24T23:21:02.413484+00:00,approved,active,United Kingdom,community,osm_venues_uk_v4,uk_00072,uk_venues_batch_v4,2026-05-24T23:21:02.413484+00:00,osm_import_terminal_v4,{},venue
The Rem Bar,33 Sackville Street,Manchester,,M1 3LZ,,https://www.therembrandtmanchester.com/rem-bar,,53.4771149,-2.2369106,2026-05-24T23:21:02.413484+00:00,approved,active,United Kingdom,community,osm_venues_uk_v4,uk_00073,uk_venues_batch_v4,2026-05-24T23:21:02.413484+00:00,osm_import_terminal_v4,{},venue
BarPop,10 Canal Street,Manchester,,M1 3EZ,,,,53.4773587,-2.2365099,2026-05-24T23:21:02.413484+00:00,approved,active,United Kingdom,community,osm_venues_uk_v4,uk_00074,uk_venues_batch_v4,2026-05-24T23:21:02.413484+00:00,osm_import_terminal_v4,{},venue
The Boot And Flogger Wine Bar,10-20 Redcross Way,London,,SE1 1TA,,,,51.5041995,-0.0935508,2026-05-24T23:21:02.413484+00:00,approved,active,United Kingdom,community,osm_venues_uk_v4,uk_00075,uk_venues_batch_v4,2026-05-24T23:21:02.413484+00:00,osm_import_terminal_v4,{},venue
Guanabara,,,,,,,,51.5153397,-0.1224929,2026-05-24T23:21:02.413484+00:00,approved,active,United Kingdom,community,osm_venues_uk_v4,uk_00076,uk_venues_batch_v4,2026-05-24T23:21:02.413484+00:00,osm_import_terminal_v4,{},venue
Baron,210 Preston Road,Wembley,,HA9 8PB,+44 20 8385 2002,,,51.5709117,-0.2946193,2026-05-24T23:21:02.413484+00:00,approved,active,United Kingdom,community,osm_venues_uk_v4,uk_00077,uk_venues_batch_v4,2026-05-24T23:21:02.413484+00:00,osm_import_terminal_v4,{},venue
All Bar One,1 Chicheley Street,London,,SE1 7PY,,https://www.allbarone.co.uk/,,51.5026748,-0.1171122,2026-05-24T23:21:02.413484+00:00,approved,active,United Kingdom,community,osm_venues_uk_v4,uk_00078,uk_venues_batch_v4,2026-05-24T23:21:02.413484+00:00,osm_import_terminal_v4,{},venue
Sista Barista,141 Westminster Bridge Road,London,,SE1 7HR,,,,51.499562,-0.1141846,2026-05-24T23:21:02.413484+00:00,approved,active,United Kingdom,community,osm_venues_uk_v4,uk_00079,uk_venues_batch_v4,2026-05-24T23:21:02.413484+00:00,osm_import_terminal_v4,{},venue
Sinuhe persian Tapas Bar,13 Hereford Road,London,,W2 4AB,+44 20 7229 4422,,,51.5141021,-0.1937919,2026-05-24T23:21:02.413484+00:00,approved,active,United Kingdom,community,osm_venues_uk_v4,uk_00080,uk_venues_batch_v4,2026-05-24T23:21:02.413484+00:00,osm_import_terminal_v4,{},venue
Durbar,24 Hereford Road,London,,,+44 20 7727 1947,https://durbaronline.com/,,51.5148542,-0.1937242,2026-05-24T23:21:02.413484+00:00,approved,active,United Kingdom,community,osm_venues_uk_v4,uk_00081,uk_venues_batch_v4,2026-05-24T23:21:02.413484+00:00,osm_import_terminal_v4,{},venue
La Barca,80-81 Lower Marsh,London,,SE1 7AB,,,,51.501757,-0.1109812,2026-05-24T23:21:02.413484+00:00,approved,active,United Kingdom,community,osm_venues_uk_v4,uk_00082,uk_venues_batch_v4,2026-05-24T23:21:02.413484+00:00,osm_import_terminal_v4,{},venue
Pit Bar,103 The Cut,London,,SE1 8NB,,,,51.5020714,-0.1095042,2026-05-24T23:21:02.413484+00:00,approved,active,United Kingdom,community,osm_venues_uk_v4,uk_00083,uk_venues_batch_v4,2026-05-24T23:21:02.413484+00:00,osm_import_terminal_v4,{},venue
Miraflores Bar & Lounge,60 Southwark Street,London,,SE1 1UN,,http://mirafloreslondon.co.uk/,,51.5050176,-0.0954041,2026-05-24T23:21:02.413484+00:00,approved,active,United Kingdom,community,osm_venues_uk_v4,uk_00084,uk_venues_batch_v4,2026-05-24T23:21:02.413484+00:00,osm_import_terminal_v4,{},venue
Clinks Bar,,,,,,,,51.5053968,-0.0952802,2026-05-24T23:21:02.413484+00:00,approved,active,United Kingdom,community,osm_venues_uk_v4,uk_00085,uk_venues_batch_v4,2026-05-24T23:21:02.413484+00:00,osm_import_terminal_v4,{},venue
Barrafina,10 Adelaide Street,London,,WC2N 4HZ,,https://www.barrafina.co.uk/restaurants/adelaide-street,,51.5093476,-0.1256931,2026-05-24T23:21:02.413484+00:00,approved,active,United Kingdom,community,osm_venues_uk_v4,uk_00086,uk_venues_batch_v4,2026-05-24T23:21:02.413484+00:00,osm_import_terminal_v4,{},venue
Brad's Coffee Bar,,,,,,,,51.58351,-0.0184983,2026-05-24T23:21:02.413484+00:00,approved,active,United Kingdom,community,osm_venues_uk_v4,uk_00087,uk_venues_batch_v4,2026-05-24T23:21:02.413484+00:00,osm_import_terminal_v4,{},venue
The Barge Aground,,,,,,,,51.5358098,0.0773786,2026-05-24T23:21:02.413484+00:00,approved,active,United Kingdom,community,osm_venues_uk_v4,uk_00088,uk_venues_batch_v4,2026-05-24T23:21:02.413484+00:00,osm_import_terminal_v4,{},venue
The Lismore Bar,206 Dumbarton Road,Glasgow,,G11 6UN,+44 141 576 0102,,,55.8709688,-4.3015583,2026-05-24T23:21:02.413484+00:00,approved,active,United Kingdom,community,osm_venues_uk_v4,uk_00089,uk_venues_batch_v4,2026-05-24T23:21:02.413484+00:00,osm_import_terminal_v4,{},venue
The Aragon Bar,131 Byres Road,Glasgow,,G12 8TT,+44 141 339 3252,,,55.8730839,-4.2963961,2026-05-24T23:21:02.413484+00:00,approved,active,United Kingdom,community,osm_venues_uk_v4,uk_00090,uk_venues_batch_v4,2026-05-24T23:21:02.413484+00:00,osm_import_terminal_v4,{},venue
Tennent's Bar,191 Byres Road,Glasgow,,G12 8TN,+44 141 339 7203,https://www.thetennentsbarglasgow.co.uk/,,55.8742251,-4.2950893,2026-05-24T23:21:02.413484+00:00,approved,active,United Kingdom,community,osm_venues_uk_v4,uk_00091,uk_venues_batch_v4,2026-05-24T23:21:02.413484+00:00,osm_import_terminal_v4,{},venue
Lansdowne Bar & Kitchen,7a Lansdowne Crescent,Glasgow,,G20 6NQ,,http://www.lansdownebar.co.uk/,,55.8743297,-4.2766908,2026-05-24T23:21:02.413484+00:00,approved,active,United Kingdom,community,osm_venues_uk_v4,uk_00092,uk_venues_batch_v4,2026-05-24T23:21:02.413484+00:00,osm_import_terminal_v4,{},venue
Ubiquitous Chip - The Pub,,,,,,,,55.8748572,-4.2929966,2026-05-24T23:21:02.413484+00:00,approved,active,United Kingdom,community,osm_venues_uk_v4,uk_00093,uk_venues_batch_v4,2026-05-24T23:21:02.413484+00:00,osm_import_terminal_v4,{},venue
The Park Bar,1202 Argyle Street,Glasgow,,G3 8TE,,,,55.8657894,-4.2871561,2026-05-24T23:21:02.413484+00:00,approved,active,United Kingdom,community,osm_venues_uk_v4,uk_00094,uk_venues_batch_v4,2026-05-24T23:21:02.413484+00:00,osm_import_terminal_v4,{},venue
FF Bar & Kitchen,160 Woodlands Road,Glasgow,,G3 6LF,,,,55.8698576,-4.275077,2026-05-24T23:21:02.413484+00:00,approved,active,United Kingdom,community,osm_venues_uk_v4,uk_00095,uk_venues_batch_v4,2026-05-24T23:21:02.413484+00:00,osm_import_terminal_v4,{},venue
St Louis Cafe Bar,734 Dumbarton Road,Glasgow,,G11 6RD,,,,55.8711922,-4.322057,2026-05-24T23:21:02.413484+00:00,approved,active,United Kingdom,community,osm_venues_uk_v4,uk_00096,uk_venues_batch_v4,2026-05-24T23:21:02.413484+00:00,osm_import_terminal_v4,{},venue
Sichuan Bar and Restaurant,61A Bugsby's Way,London,,SE10 0QJ,,,,51.4904895,0.0121433,2026-05-24T23:21:02.413484+00:00,approved,active,United Kingdom,community,osm_venues_uk_v4,uk_00097,uk_venues_batch_v4,2026-05-24T23:21:02.413484+00:00,osm_import_terminal_v4,{},venue
The Riverfront pub,,,,,,,,51.5072244,-0.1157002,2026-05-24T23:21:02.413484+00:00,approved,active,United Kingdom,community,osm_venues_uk_v4,uk_00098,uk_venues_batch_v4,2026-05-24T23:21:02.413484+00:00,osm_import_terminal_v4,{},venue
Aspendos Bar & Grill,400 York Way,London,,N7 9LR,,,,51.5486083,-0.1282179,2026-05-24T23:21:02.413484+00:00,approved,active,United Kingdom,community,osm_venues_uk_v4,uk_00099,uk_venues_batch_v4,2026-05-24T23:21:02.413484+00:00,osm_import_terminal_v4,{},venue
Bar Soho,23-25,London,,W1D 5JL,,https://www.barsoho.co.uk/london-bar,,51.513184,-0.13095,2026-05-24T23:21:02.413484+00:00,approved,active,United Kingdom,community,osm_venues_uk_v4,uk_00100,uk_venues_batch_v4,2026-05-24T23:21:02.413484+00:00,osm_import_terminal_v4,{},venue
Central Bar,,,,,,,,55.860209,-4.258342,2026-05-24T23:21:02.413484+00:00,approved,active,United Kingdom,community,osm_venues_uk_v4,uk_00101,uk_venues_batch_v4,2026-05-24T23:21:02.413484+00:00,osm_import_terminal_v4,{},venue
The Barrel Vault,"Unit 23 The Circle, Saint Pancras Station",London,,N1C 4QP,+44 20 7837 5151,https://www.jdwetherspoon.com/pubs/all-pubs/england/london/the-barrel-vault-st-pancras,,51.5327455,-0.1262925,2026-05-24T23:21:02.413484+00:00,approved,active,United Kingdom,community,osm_venues_uk_v4,uk_00102,uk_venues_batch_v4,2026-05-24T23:21:02.413484+00:00,osm_import_terminal_v4,{},venue
Yucatan Bar,121 Stoke Newington Road,London,,N16 8BT,,,,51.5559225,-0.0747603,2026-05-24T23:21:02.413484+00:00,approved,active,United Kingdom,community,osm_venues_uk_v4,uk_00103,uk_venues_batch_v4,2026-05-24T23:21:02.413484+00:00,osm_import_terminal_v4,{},venue
Bar a bar,133-135 Stoke Newington Road,London,,N16 8BT,,,,51.5563654,-0.074647,2026-05-24T23:21:02.413484+00:00,approved,active,United Kingdom,community,osm_venues_uk_v4,uk_00104,uk_venues_batch_v4,2026-05-24T23:21:02.413484+00:00,osm_import_terminal_v4,{},venue
Bodrum Cafe Bar,,,,,,,,51.558947,-0.0744578,2026-05-24T23:21:02.413484+00:00,approved,active,United Kingdom,community,osm_venues_uk_v4,uk_00105,uk_venues_batch_v4,2026-05-24T23:21:02.413484+00:00,osm_import_terminal_v4,{},venue
The Borough Barista,15 Charles II Street,London,,SW1Y 4QU,,,,51.5084346,-0.1321275,2026-05-24T23:21:02.413484+00:00,approved,active,United Kingdom,community,osm_venues_uk_v4,uk_00106,uk_venues_batch_v4,2026-05-24T23:21:02.413484+00:00,osm_import_terminal_v4,{},venue
Long Bar,,,,,,,,51.5176134,-0.1371513,2026-05-24T23:21:02.413484+00:00,approved,active,United Kingdom,community,osm_venues_uk_v4,uk_00107,uk_venues_batch_v4,2026-05-24T23:21:02.413484+00:00,osm_import_terminal_v4,{},venue
Meridian Bar & Kitchen,,,,,,,,51.4777413,-0.0137168,2026-05-24T23:21:02.413484+00:00,approved,active,United Kingdom,community,osm_venues_uk_v4,uk_00108,uk_venues_batch_v4,2026-05-24T23:21:02.413484+00:00,osm_import_terminal_v4,{},venue
GB Grill & Bar,,,,,,https://www.bermondseysquarehotel.co.uk/GB_Grill_Bar.html,,51.4976029,-0.0812871,2026-05-24T23:21:02.413484+00:00,approved,active,United Kingdom,community,osm_venues_uk_v4,uk_00109,uk_venues_batch_v4,2026-05-24T23:21:02.413484+00:00,osm_import_terminal_v4,{},venue
Bari Bari,24 White Church Lane,London,,E1 7QR,+44 20 3759 4713,https://facebook.com/baribariuk,,51.515279,-0.0687031,2026-05-24T23:21:02.413484+00:00,approved,active,United Kingdom,community,osm_venues_uk_v4,uk_00110,uk_venues_batch_v4,2026-05-24T23:21:02.413484+00:00,osm_import_terminal_v4,{},venue
Swift Bar,12 Old Compton Street,London,,W1D 4TF,+44 20 7439 2275,https://www.barswift.com/soho,,51.5137372,-0.1299905,2026-05-24T23:21:02.413484+00:00,approved,active,United Kingdom,community,osm_venues_uk_v4,uk_00111,uk_venues_batch_v4,2026-05-24T23:21:02.413484+00:00,osm_import_terminal_v4,{},venue
City Bar,,,,,,,,51.5280828,-0.1010713,2026-05-24T23:21:02.413484+00:00,approved,active,United Kingdom,community,osm_venues_uk_v4,uk_00112,uk_venues_batch_v4,2026-05-24T23:21:02.413484+00:00,osm_import_terminal_v4,{},venue
Variety Bar,401 Sauchiehall Street,Glasgow,,G2 3LG,,,,55.8658591,-4.2683501,2026-05-24T23:21:02.413484+00:00,approved,active,United Kingdom,community,osm_venues_uk_v4,uk_00113,uk_venues_batch_v4,2026-05-24T23:21:02.413484+00:00,osm_import_terminal_v4,{},venue
Barraco,Kingsgate Place,London,,NW6 4TA,,http://www.barracocafe.co.uk/,,51.5408097,-0.1960235,2026-05-24T23:21:02.413484+00:00,approved,active,United Kingdom,community,osm_venues_uk_v4,uk_00114,uk_venues_batch_v4,2026-05-24T23:21:02.413484+00:00,osm_import_terminal_v4,{},venue
All Bar One,127 Finsbury Pavement,London,,EC2A 1NS,,,,51.5203575,-0.0875923,2026-05-24T23:21:02.413484+00:00,approved,active,United Kingdom,community,osm_venues_uk_v4,uk_00115,uk_venues_batch_v4,2026-05-24T23:21:02.413484+00:00,osm_import_terminal_v4,{},venue
Third Eye Bar,350 Sauchiehall Street,Glasgow,,G2 3JD,+44 141 352 4920,https://www.cca-glasgow.com/shops-and-bar-caf%C3%A9/third-eye-bar,,55.8659477,-4.264738,2026-05-24T23:21:02.413484+00:00,approved,active,United Kingdom,community,osm_venues_uk_v4,uk_00116,uk_venues_batch_v4,2026-05-24T23:21:02.413484+00:00,osm_import_terminal_v4,{},venue
Simmons Bar,374 North End Road,London,,SW6 1LY,,,,51.4811044,-0.1993362,2026-05-24T23:21:02.413484+00:00,approved,active,United Kingdom,community,osm_venues_uk_v4,uk_00117,uk_venues_batch_v4,2026-05-24T23:21:02.413484+00:00,osm_import_terminal_v4,{},venue
Corney & Barrow,,,,,,,,51.5126831,-0.0827842,2026-05-24T23:21:02.413484+00:00,approved,active,United Kingdom,community,osm_venues_uk_v4,uk_00118,uk_venues_batch_v4,2026-05-24T23:21:02.413484+00:00,osm_import_terminal_v4,{},venue
Adventure Bar,20 Bedford Street,London,,WC2E 9HP,,,,51.5108879,-0.124759,2026-05-24T23:21:02.413484+00:00,approved,active,United Kingdom,community,osm_venues_uk_v4,uk_00119,uk_venues_batch_v4,2026-05-24T23:21:02.413484+00:00,osm_import_terminal_v4,{},venue
Royal Cafe & Sandwhich bar,,,,,,,,51.5537101,-0.1621922,2026-05-24T23:21:02.413484+00:00,approved,active,United Kingdom,community,osm_venues_uk_v4,uk_00120,uk_venues_batch_v4,2026-05-24T23:21:02.413484+00:00,osm_import_terminal_v4,{},venue
Il Baretto,43 Blandford Street,London,,,+44 20 7486 7340,https://www.ilbaretto.co.uk/,,51.5182485,-0.1543483,2026-05-24T23:21:02.413484+00:00,approved,active,United Kingdom,community,osm_venues_uk_v4,uk_00121,uk_venues_batch_v4,2026-05-24T23:21:02.413484+00:00,osm_import_terminal_v4,{},venue
Barcelona Tapas,15 St. Botolph Street,London,,EC3A 7DT,,,,51.5152012,-0.0751222,2026-05-24T23:21:02.413484+00:00,approved,active,United Kingdom,community,osm_venues_uk_v4,uk_00122,uk_venues_batch_v4,2026-05-24T23:21:02.413484+00:00,osm_import_terminal_v4,{},venue
Coffee Republic,,,,,,,,51.496,-0.1353793,2026-05-24T23:21:02.413484+00:00,approved,active,United Kingdom,community,osm_venues_uk_v4,uk_00123,uk_venues_batch_v4,2026-05-24T23:21:02.413484+00:00,osm_import_terminal_v4,{},venue
1 Lombard Street,1 Lombard Street,London,,EC3V 9AA,,,,51.5131003,-0.0889797,2026-05-24T23:21:02.413484+00:00,approved,active,United Kingdom,community,osm_venues_uk_v4,uk_00124,uk_venues_batch_v4,2026-05-24T23:21:02.413484+00:00,osm_import_terminal_v4,{},venue
Gino's Coffee Bar,18 Great Central Street,London,,,,,,51.5222261,-0.1621832,2026-05-24T23:21:02.413484+00:00,approved,active,United Kingdom,community,osm_venues_uk_v4,uk_00125,uk_venues_batch_v4,2026-05-24T23:21:02.413484+00:00,osm_import_terminal_v4,{},venue
Marian Bar,,,,,,,,51.5309996,-0.195836,2026-05-24T23:21:02.413484+00:00,approved,active,United Kingdom,community,osm_venues_uk_v4,uk_00126,uk_venues_batch_v4,2026-05-24T23:21:02.413484+00:00,osm_import_terminal_v4,{},venue
Wheeler's Rib Room and Oyster Bar,5 Threadneedle Street,London,,EC2R 8AY,,,,51.513987,-0.085556,2026-05-24T23:21:02.413484+00:00,approved,active,United Kingdom,community,osm_venues_uk_v4,uk_00127,uk_venues_batch_v4,2026-05-24T23:21:02.413484+00:00,osm_import_terminal_v4,{},venue
Sporting Club de Londres,1/31 Elkstone Road,,,,,,,51.522222,-0.2026875,2026-05-24T23:21:02.413484+00:00,approved,active,United Kingdom,community,osm_venues_uk_v4,uk_00128,uk_venues_batch_v4,2026-05-24T23:21:02.413484+00:00,osm_import_terminal_v4,{},venue
Sugar Cane Bar,,,,,,,,51.4641787,-0.1631455,2026-05-24T23:21:02.413484+00:00,approved,active,United Kingdom,community,osm_venues_uk_v4,uk_00129,uk_venues_batch_v4,2026-05-24T23:21:02.413484+00:00,osm_import_terminal_v4,{},venue
Adventure Bar,,,,,,,,51.4606746,-0.1675611,2026-05-24T23:21:02.413484+00:00,approved,active,United Kingdom,community,osm_venues_uk_v4,uk_00130,uk_venues_batch_v4,2026-05-24T23:21:02.413484+00:00,osm_import_terminal_v4,{},venue
Tempio Bar & Restaurant,5-9 Temple Avenue,London,,EC4Y 0HP,+44 20 7583 2615;+44 20 7583 2616,http://www.tempio.co.uk/,,51.5117846,-0.1081089,2026-05-24T23:21:02.413484+00:00,approved,active,United Kingdom,community,osm_venues_uk_v4,uk_00131,uk_venues_batch_v4,2026-05-24T23:21:02.413484+00:00,osm_import_terminal_v4,{},venue
Broadway Bar and Grill,"474,476 Fulham Road",London,,SW6 1BY,,http://www.broadwaybandg.co.uk/,,51.4801804,-0.1956699,2026-05-24T23:21:02.413484+00:00,approved,active,United Kingdom,community,osm_venues_uk_v4,uk_00132,uk_venues_batch_v4,2026-05-24T23:21:02.413484+00:00,osm_import_terminal_v4,{},venue
Baabar,Whitworth Street West,Manchester,,M1 5LH,,,,53.4746026,-2.2491231,2026-05-24T23:21:02.413484+00:00,approved,active,United Kingdom,community,osm_venues_uk_v4,uk_00133,uk_venues_batch_v4,2026-05-24T23:21:02.413484+00:00,osm_import_terminal_v4,{},venue
Micro Bar,,,,,,,,53.4837721,-2.239044,2026-05-24T23:21:02.413484+00:00,approved,active,United Kingdom,community,osm_venues_uk_v4,uk_00134,uk_venues_batch_v4,2026-05-24T23:21:02.413484+00:00,osm_import_terminal_v4,{},venue
Bar Fringe,8 Swan Street,Manchester,,M4 5JN,,,,53.485071,-2.2332895,2026-05-24T23:21:02.413484+00:00,approved,active,United Kingdom,community,osm_venues_uk_v4,uk_00135,uk_venues_batch_v4,2026-05-24T23:21:02.413484+00:00,osm_import_terminal_v4,{},venue
The Aviary Bar,17 Little Portland Street,London,,W1W 8BW,,,,51.5170244,-0.1417238,2026-05-24T23:21:02.413484+00:00,approved,active,United Kingdom,community,osm_venues_uk_v4,uk_00136,uk_venues_batch_v4,2026-05-24T23:21:02.413484+00:00,osm_import_terminal_v4,{},venue
OJ's Cafe & Sandwich Bar,,,,,,,,53.4545937,-2.3024431,2026-05-24T23:21:02.413484+00:00,approved,active,United Kingdom,community,osm_venues_uk_v4,uk_00137,uk_venues_batch_v4,2026-05-24T23:21:02.413484+00:00,osm_import_terminal_v4,{},venue
MIX Espresso Bar,,,,,,,,51.4940226,-0.1415293,2026-05-24T23:21:02.413484+00:00,approved,active,United Kingdom,community,osm_venues_uk_v4,uk_00138,uk_venues_batch_v4,2026-05-24T23:21:02.413484+00:00,osm_import_terminal_v4,{},venue
Bar 91,91 Candleriggs,Glasgow,,G1 1NP,,,,55.8588206,-4.2456574,2026-05-24T23:21:02.413484+00:00,approved,active,United Kingdom,community,osm_venues_uk_v4,uk_00139,uk_venues_batch_v4,2026-05-24T23:21:02.413484+00:00,osm_import_terminal_v4,{},venue
Bar Eight,Castle Quay,Manchester,,M15 4NJ,,,,53.4732076,-2.256285,2026-05-24T23:21:02.413484+00:00,approved,active,United Kingdom,community,osm_venues_uk_v4,uk_00140,uk_venues_batch_v4,2026-05-24T23:21:02.413484+00:00,osm_import_terminal_v4,{},venue
Bar ca,,,,,,,,53.4748359,-2.2562635,2026-05-24T23:21:02.413484+00:00,approved,active,United Kingdom,community,osm_venues_uk_v4,uk_00141,uk_venues_batch_v4,2026-05-24T23:21:02.413484+00:00,osm_import_terminal_v4,{},venue
Southwark Tap & Wine Bar,80 Scoresby Street,London,,SE1 0XN,+44 20 7928 0905,,,51.5042272,-0.1032036,2026-05-24T23:21:02.413484+00:00,approved,active,United Kingdom,community,osm_venues_uk_v4,uk_00142,uk_venues_batch_v4,2026-05-24T23:21:02.413484+00:00,osm_import_terminal_v4,{},venue
Olives Bar,140 Gloucester Road,London,,,+44 20 7331 6308,https://www.millenniumhotels.com/en/london/the-baileys-hotel-london/olives-bar/,,51.4938009,-0.1823815,2026-05-24T23:21:02.413484+00:00,approved,active,United Kingdom,community,osm_venues_uk_v4,uk_00143,uk_venues_batch_v4,2026-05-24T23:21:02.413484+00:00,osm_import_terminal_v4,{},venue
Calton Bar,415 London Road,Glasgow,,G40 1AG,,,,55.8516756,-4.2332614,2026-05-24T23:21:02.413484+00:00,approved,active,United Kingdom,community,osm_venues_uk_v4,uk_00144,uk_venues_batch_v4,2026-05-24T23:21:02.413484+00:00,osm_import_terminal_v4,{},venue
Earth Vegetarian Cafe and Juice Bar,16-20 Turner Street,Manchester,,M4 1DZ,+44 161 834 1996,http://earthcafe.co,,53.4837644,-2.2378765,2026-05-24T23:21:02.413484+00:00,approved,active,United Kingdom,community,osm_venues_uk_v4,uk_00145,uk_venues_batch_v4,2026-05-24T23:21:02.413484+00:00,osm_import_terminal_v4,{},venue
Akbar's,,,,,,https://akbars.co.uk/,,55.8660949,-4.2737649,2026-05-24T23:21:02.413484+00:00,approved,active,United Kingdom,community,osm_venues_uk_v4,uk_00146,uk_venues_batch_v4,2026-05-24T23:21:02.413484+00:00,osm_import_terminal_v4,{},venue
Bar 67,257 Gallowgate,Glasgow,,G4 0TP,,,,55.8554692,-4.2361791,2026-05-24T23:21:02.413484+00:00,approved,active,United Kingdom,community,osm_venues_uk_v4,uk_00147,uk_venues_batch_v4,2026-05-24T23:21:02.413484+00:00,osm_import_terminal_v4,{},venue
Bar Ten,10 Mitchell Lane,,,G1 3NU,,,,55.8598829,-4.2553952,2026-05-24T23:21:02.413484+00:00,approved,active,United Kingdom,community,osm_venues_uk_v4,uk_00148,uk_venues_batch_v4,2026-05-24T23:21:02.413484+00:00,osm_import_terminal_v4,{},venue
Reynold's Bar,,,,,,,,51.4879025,-0.219236,2026-05-24T23:21:02.413484+00:00,approved,active,United Kingdom,community,osm_venues_uk_v4,uk_00149,uk_venues_batch_v4,2026-05-24T23:21:02.413484+00:00,osm_import_terminal_v4,{},venue
The Halfway House Bar,,,,,,,,51.559266,-0.1165035,2026-05-24T23:21:02.413484+00:00,approved,active,United Kingdom,community,osm_venues_uk_v4,uk_00150,uk_venues_batch_v4,2026-05-24T23:21:02.413484+00:00,osm_import_terminal_v4,{},venue
Duffy's Bar,Barlow Moor Road,Manchester,,M21 8AD,,,,53.4413325,-2.275891,2026-05-24T23:21:02.413484+00:00,approved,active,United Kingdom,community,osm_venues_uk_v4,uk_00151,uk_venues_batch_v4,2026-05-24T23:21:02.413484+00:00,osm_import_terminal_v4,{},venue
Buck's Bar,96 Trongate,Glasgow,,G1 5EP,,,,55.8571988,-4.2459398,2026-05-24T23:21:02.413484+00:00,approved,active,United Kingdom,community,osm_venues_uk_v4,uk_00152,uk_venues_batch_v4,2026-05-24T23:21:02.413484+00:00,osm_import_terminal_v4,{},venue
The Duke Bar,631 Duke Street,Glasgow,,G31 1QA,,,,55.8584912,-4.2140433,2026-05-24T23:21:02.413484+00:00,approved,active,United Kingdom,community,osm_venues_uk_v4,uk_00153,uk_venues_batch_v4,2026-05-24T23:21:02.413484+00:00,osm_import_terminal_v4,{},venue
Wunderbar Glasow,Glasgow,Glasgow,,G1 3DQ,,,,55.8596645,-4.2535888,2026-05-24T23:21:02.413484+00:00,approved,active,United Kingdom,community,osm_venues_uk_v4,uk_00154,uk_venues_batch_v4,2026-05-24T23:21:02.413484+00:00,osm_import_terminal_v4,{},venue
Wee Mans Bar,429 Gallowgate,Glasgow,,G40 2DY,,,,55.8557905,-4.228301,2026-05-24T23:21:02.413484+00:00,approved,active,United Kingdom,community,osm_venues_uk_v4,uk_00155,uk_venues_batch_v4,2026-05-24T23:21:02.413484+00:00,osm_import_terminal_v4,{},venue
The Churchill Bar,,,,,,,,51.5151111,-0.1568948,2026-05-24T23:21:02.413484+00:00,approved,active,United Kingdom,community,osm_venues_uk_v4,uk_00156,uk_venues_batch_v4,2026-05-24T23:21:02.413484+00:00,osm_import_terminal_v4,{},venue
Yesbar,14 Drury Street,Glasgow,,G2 5AA,+44 141 204 0060,https://yesbar.scot/,,55.8610477,-4.2561694,2026-05-24T23:21:02.413484+00:00,approved,active,United Kingdom,community,osm_venues_uk_v4,uk_00157,uk_venues_batch_v4,2026-05-24T23:21:02.413484+00:00,osm_import_terminal_v4,{},venue
Student Union Bar,,,,,,,,51.474592,-0.0363029,2026-05-24T23:21:02.413484+00:00,approved,active,United Kingdom,community,osm_venues_uk_v4,uk_00158,uk_venues_batch_v4,2026-05-24T23:21:02.413484+00:00,osm_import_terminal_v4,{},venue
The Cottage Bar,,,,,,,,55.8521175,-4.1746645,2026-05-24T23:21:02.413484+00:00,approved,active,United Kingdom,community,osm_venues_uk_v4,uk_00159,uk_venues_batch_v4,2026-05-24T23:21:02.413484+00:00,osm_import_terminal_v4,{},venue
Delicious Cafe & Sandwich Bar,365 New Cross Road,London,,SE14 6AT,,,,51.475987,-0.0350792,2026-05-24T23:21:02.413484+00:00,approved,active,United Kingdom,community,osm_venues_uk_v4,uk_00160,uk_venues_batch_v4,2026-05-24T23:21:02.413484+00:00,osm_import_terminal_v4,{},venue
The Rocket (Student Bar),,,,,,,,51.5516766,-0.1106216,2026-05-24T23:21:02.413484+00:00,approved,active,United Kingdom,community,osm_venues_uk_v4,uk_00161,uk_venues_batch_v4,2026-05-24T23:21:02.413484+00:00,osm_import_terminal_v4,{},venue
Oscar Bar and Restaurant,15-17 Charlotte Street,London,,W1T 1RJ,,,,51.5184731,-0.1349177,2026-05-24T23:21:02.413484+00:00,approved,active,United Kingdom,community,osm_venues_uk_v4,uk_00162,uk_venues_batch_v4,2026-05-24T23:21:02.413484+00:00,osm_import_terminal_v4,{},venue
Jamie's Wine Bar & Restaurant,2 St. Mary at Hill,London,,EC3R 8EE,,,,51.5102938,-0.0834471,2026-05-24T23:21:02.413484+00:00,approved,active,United Kingdom,community,osm_venues_uk_v4,uk_00163,uk_venues_batch_v4,2026-05-24T23:21:02.413484+00:00,osm_import_terminal_v4,{},venue
Steam Wine Bar,1 Saint George's Lane,London,,EC3R 8DJ,,,,51.5103211,-0.0846267,2026-05-24T23:21:02.413484+00:00,approved,active,United Kingdom,community,osm_venues_uk_v4,uk_00164,uk_venues_batch_v4,2026-05-24T23:21:02.413484+00:00,osm_import_terminal_v4,{},venue
The Drift Bar,110 Bishopsgate,London,,EC2N 4AY,,http://thedriftbar.co.uk/,,51.5162765,-0.0808289,2026-05-24T23:21:02.413484+00:00,approved,active,United Kingdom,community,osm_venues_uk_v4,uk_00165,uk_venues_batch_v4,2026-05-24T23:21:02.413484+00:00,osm_import_terminal_v4,{},venue
South Kebab & Meze Bar,166 Evelyn Street,London,,SE8 5DB,,,,51.4852869,-0.0343426,2026-05-24T23:21:02.413484+00:00,approved,active,United Kingdom,community,osm_venues_uk_v4,uk_00166,uk_venues_batch_v4,2026-05-24T23:21:02.413484+00:00,osm_import_terminal_v4,{},venue
The Central Bar,Shepherd's Bush Green,London,,W12 8PP,,https://www.jdwetherspoon.com/pubs/all-pubs/england/london/the-central-bar-shepherds-bush,,51.5038323,-0.2191034,2026-05-24T23:21:02.413484+00:00,approved,active,United Kingdom,community,osm_venues_uk_v4,uk_00167,uk_venues_batch_v4,2026-05-24T23:21:02.413484+00:00,osm_import_terminal_v4,{},venue
The Laurieston Bar,58 Bridge Street,Glasgow,,G5 9HU,+44 141 429 4528,,,55.8528833,-4.2590505,2026-05-24T23:21:02.413484+00:00,approved,active,United Kingdom,community,osm_venues_uk_v4,uk_00168,uk_venues_batch_v4,2026-05-24T23:21:02.413484+00:00,osm_import_terminal_v4,{},venue
Springpark Bar,,,,,,,,55.8766204,-4.2475856,2026-05-24T23:21:02.413484+00:00,approved,active,United Kingdom,community,osm_venues_uk_v4,uk_00169,uk_venues_batch_v4,2026-05-24T23:21:02.413484+00:00,osm_import_terminal_v4,{},venue
Sobranie Bar & Restaurant,36 Fountain Square,London,,SW1W 9SH,,,,51.4930325,-0.1467732,2026-05-24T23:21:02.413484+00:00,approved,active,United Kingdom,community,osm_venues_uk_v4,uk_00170,uk_venues_batch_v4,2026-05-24T23:21:02.413484+00:00,osm_import_terminal_v4,{},venue
Cafe Barts,,,,,,,,51.5179036,-0.0995562,2026-05-24T23:21:02.413484+00:00,approved,active,United Kingdom,community,osm_venues_uk_v4,uk_00171,uk_venues_batch_v4,2026-05-24T23:21:02.413484+00:00,osm_import_terminal_v4,{},venue
Brigade Bar & Bistro,139 Tooley Street,London,,SE1 2HZ,,https://thebrigade.co.uk/,,51.5039617,-0.081239,2026-05-24T23:21:02.413484+00:00,approved,active,United Kingdom,community,osm_venues_uk_v4,uk_00172,uk_venues_batch_v4,2026-05-24T23:21:02.413484+00:00,osm_import_terminal_v4,{},venue
Bar Budda,,,,,,,,55.8658941,-4.2663991,2026-05-24T23:21:02.413484+00:00,approved,active,United Kingdom,community,osm_venues_uk_v4,uk_00173,uk_venues_batch_v4,2026-05-24T23:21:02.413484+00:00,osm_import_terminal_v4,{},venue
Simmons Bar,4 Golden Square,London,,W1F 9HT,+44 20 7287 9241,https://www.graphicbar.com/,,51.5119972,-0.1368571,2026-05-24T23:21:02.413484+00:00,approved,active,United Kingdom,community,osm_venues_uk_v4,uk_00174,uk_venues_batch_v4,2026-05-24T23:21:02.413484+00:00,osm_import_terminal_v4,{},venue
Binary Bar,,,,,,,,53.4723388,-2.260528,2026-05-24T23:21:02.413484+00:00,approved,active,United Kingdom,community,osm_venues_uk_v4,uk_00175,uk_venues_batch_v4,2026-05-24T23:21:02.413484+00:00,osm_import_terminal_v4,{},venue
El Rincon de Rafa - Rafa's Spanish Bar & Restaurant,Longworth Street,Manchester,,,+44 161 839 8819,,,53.4779955,-2.2502944,2026-05-24T23:21:02.413484+00:00,approved,active,United Kingdom,community,osm_venues_uk_v4,uk_00176,uk_venues_batch_v4,2026-05-24T23:21:02.413484+00:00,osm_import_terminal_v4,{},venue
Zefi Bar,533 King's Road,,,,+44 20 7351 3513,https://jakslondon.com/zefi-bar,,51.4802352,-0.1850722,2026-05-24T23:21:02.413484+00:00,approved,active,United Kingdom,community,osm_venues_uk_v4,uk_00177,uk_venues_batch_v4,2026-05-24T23:21:02.413484+00:00,osm_import_terminal_v4,{},venue
Ranza Bar,,,,,,,,55.8787437,-4.1952588,2026-05-24T23:21:02.413484+00:00,approved,active,United Kingdom,community,osm_venues_uk_v4,uk_00178,uk_venues_batch_v4,2026-05-24T23:21:02.413484+00:00,osm_import_terminal_v4,{},venue
Crussh Bar,4 Millbank,London,,,,https://crussh.com/,,51.496677,-0.126169,2026-05-24T23:21:02.413484+00:00,approved,active,United Kingdom,community,osm_venues_uk_v4,uk_00179,uk_venues_batch_v4,2026-05-24T23:21:02.413484+00:00,osm_import_terminal_v4,{},venue
George's Fish & Souvlaki Bar,164 George Lane,London,,E18 1AY,+44 20 8989 3970,,,51.5937977,0.024834,2026-05-24T23:21:02.413484+00:00,approved,active,United Kingdom,community,osm_venues_uk_v4,uk_00180,uk_venues_batch_v4,2026-05-24T23:21:02.413484+00:00,osm_import_terminal_v4,{},venue
Taylor St Baristas,,,,,,https://www.taylor-st.com/,,51.5145675,-0.0864453,2026-05-24T23:21:02.413484+00:00,approved,active,United Kingdom,community,osm_venues_uk_v4,uk_00181,uk_venues_batch_v4,2026-05-24T23:21:02.413484+00:00,osm_import_terminal_v4,{},venue
Balmore Bar,251 Saracen Street,Glasgow,,G22 5JX,,,,55.8840339,-4.2545209,2026-05-24T23:21:02.413484+00:00,approved,active,United Kingdom,community,osm_venues_uk_v4,uk_00182,uk_venues_batch_v4,2026-05-24T23:21:02.413484+00:00,osm_import_terminal_v4,{},venue
The Saracen Bar,248 Saracen Street,Glasgow,,G22 5ER,,,,55.8836521,-4.2539504,2026-05-24T23:21:02.413484+00:00,approved,active,United Kingdom,community,osm_venues_uk_v4,uk_00183,uk_venues_batch_v4,2026-05-24T23:21:02.413484+00:00,osm_import_terminal_v4,{},venue
Bar Soba,11 Mitchell Lane,Glasgow,,G1 3NU,+44 141 204 2404,https://www.barsoba.co.uk/location/mitchell-lane-glasgow,,55.859747,-4.2554608,2026-05-24T23:21:02.413484+00:00,approved,active,United Kingdom,community,osm_venues_uk_v4,uk_00184,uk_venues_batch_v4,2026-05-24T23:21:02.413484+00:00,osm_import_terminal_v4,{},venue
Arubar Lounge,524-528 Forest Road,,,,,,,51.5898793,-0.016444,2026-05-24T23:21:02.413484+00:00,approved,active,United Kingdom,community,osm_venues_uk_v4,uk_00185,uk_venues_batch_v4,2026-05-24T23:21:02.413484+00:00,osm_import_terminal_v4,{},venue
Checkmate Bar & Restaurant,127-129 Cromwell Road,London,,SW7 4DS,,,,51.4945279,-0.1869628,2026-05-24T23:21:02.413484+00:00,approved,active,United Kingdom,community,osm_venues_uk_v4,uk_00186,uk_venues_batch_v4,2026-05-24T23:21:02.413484+00:00,osm_import_terminal_v4,{},venue
Tavern Pub,97 Cromwell Road,London,,SW7 4DN,,http://www.hikensingtonforumhotel.co.uk/food-drink/the-tavern-a-traditional-english-pub-in-the-heart-of-london/,,51.4945303,-0.1849558,2026-05-24T23:21:02.413484+00:00,approved,active,United Kingdom,community,osm_venues_uk_v4,uk_00187,uk_venues_batch_v4,2026-05-24T23:21:02.413484+00:00,osm_import_terminal_v4,{},venue
Picnic Sandwich Bar,803 Forest Road,London,,E17 4JD,,,,51.5911441,-0.0079498,2026-05-24T23:21:02.413484+00:00,approved,active,United Kingdom,community,osm_venues_uk_v4,uk_00188,uk_venues_batch_v4,2026-05-24T23:21:02.413484+00:00,osm_import_terminal_v4,{},venue
Tolbooth Bar,11 Saltmarket,Glasgow,,G1 5NA,,,,55.8563287,-4.2438558,2026-05-24T23:21:02.413484+00:00,approved,active,United Kingdom,community,osm_venues_uk_v4,uk_00189,uk_venues_batch_v4,2026-05-24T23:21:02.413484+00:00,osm_import_terminal_v4,{},venue
MellowDee Bar,86 Saltmarket,Glasgow,,,,,,55.8556182,-4.2451453,2026-05-24T23:21:02.413484+00:00,approved,active,United Kingdom,community,osm_venues_uk_v4,uk_00190,uk_venues_batch_v4,2026-05-24T23:21:02.413484+00:00,osm_import_terminal_v4,{},venue
Bells Bar,143 Springburn Way,Glasgow,,G21 1DT,,,,55.8822222,-4.2309859,2026-05-24T23:21:02.413484+00:00,approved,active,United Kingdom,community,osm_venues_uk_v4,uk_00191,uk_venues_batch_v4,2026-05-24T23:21:02.413484+00:00,osm_import_terminal_v4,{},venue
Bar Gandolfi,64 Albion Street,Glasgow,,,,,,55.8581815,-4.2440822,2026-05-24T23:21:02.413484+00:00,approved,active,United Kingdom,community,osm_venues_uk_v4,uk_00192,uk_venues_batch_v4,2026-05-24T23:21:02.413484+00:00,osm_import_terminal_v4,{},venue
Bar Home,80 Albion Street,Glasgow,,G1 1NY,,https://www.crafted-social.co.uk/home-glasgow,,55.858339,-4.2440496,2026-05-24T23:21:02.413484+00:00,approved,active,United Kingdom,community,osm_venues_uk_v4,uk_00193,uk_venues_batch_v4,2026-05-24T23:21:02.413484+00:00,osm_import_terminal_v4,{},venue
Jérome's Wine Bar and Shop,391 Brockley Road,London,,SE4 2PH,,,,51.4546215,-0.0371232,2026-05-24T23:21:02.413484+00:00,approved,active,United Kingdom,community,osm_venues_uk_v4,uk_00194,uk_venues_batch_v4,2026-05-24T23:21:02.413484+00:00,osm_import_terminal_v4,{},venue
Annie Millers Bar,,,,,,,,55.855364,-4.2514662,2026-05-24T23:21:02.413484+00:00,approved,active,United Kingdom,community,osm_venues_uk_v4,uk_00195,uk_venues_batch_v4,2026-05-24T23:21:02.413484+00:00,osm_import_terminal_v4,{},venue
The Buddha Bar,145 Knightsbridge,London,,SW1X 7PA,,https://www.buddhabarlondon.com/,,51.5015757,-0.1617168,2026-05-24T23:21:02.413484+00:00,approved,active,United Kingdom,community,osm_venues_uk_v4,uk_00196,uk_venues_batch_v4,2026-05-24T23:21:02.413484+00:00,osm_import_terminal_v4,{},venue
Sports Bar,125 Wembley Park Drive,Wembley,,HA9 8HQ,,,,51.5620416,-0.2824529,2026-05-24T23:21:02.413484+00:00,approved,active,United Kingdom,community,osm_venues_uk_v4,uk_00197,uk_venues_batch_v4,2026-05-24T23:21:02.413484+00:00,osm_import_terminal_v4,{},venue
Braemar Bar,London Road,Glasgow,,G1 5BS,,,,55.854823,-4.2404305,2026-05-24T23:21:02.413484+00:00,approved,active,United Kingdom,community,osm_venues_uk_v4,uk_00198,uk_venues_batch_v4,2026-05-24T23:21:02.413484+00:00,osm_import_terminal_v4,{},venue
The Olde Burnt Barns / Lynch's Bar,179 London Road,Glasgow,,G40 1PA,,https://www.facebook.com/lynchs.bar.9/,,55.8545989,-4.2388265,2026-05-24T23:21:02.413484+00:00,approved,active,United Kingdom,community,osm_venues_uk_v4,uk_00199,uk_venues_batch_v4,2026-05-24T23:21:02.413484+00:00,osm_import_terminal_v4,{},venue
Sharkey's Bar,51 Old Rutherglen Road,Glasgow,,G5 9DT,,,,55.8511936,-4.2514928,2026-05-24T23:21:02.413484+00:00,approved,active,United Kingdom,community,osm_venues_uk_v4,uk_00200,uk_venues_batch_v4,2026-05-24T23:21:02.413484+00:00,osm_import_terminal_v4,{},venue
The Bluecoats Pub,614 High Road,London,,N17 9TA,+44 20 8885 6555,https://thebluecoatspub.com/,,51.5969321,-0.0680521,2026-05-24T23:21:02.413484+00:00,approved,active,United Kingdom,community,osm_venues_uk_v4,uk_00201,uk_venues_batch_v4,2026-05-24T23:21:02.413484+00:00,osm_import_terminal_v4,{},venue
Electrik Bar,559a Wilbraham Road,Manchester,,M21 0AE,+44 161 881 3315,https://www.electrikbar.co.uk/,,53.442405,-2.2761252,2026-05-24T23:21:02.413484+00:00,approved,active,United Kingdom,community,osm_venues_uk_v4,uk_00202,uk_venues_batch_v4,2026-05-24T23:21:02.413484+00:00,osm_import_terminal_v4,{},venue
Carlton Food Bar,,,,,,,,55.8539289,-4.255401,2026-05-24T23:21:02.413484+00:00,approved,active,United Kingdom,community,osm_venues_uk_v4,uk_00203,uk_venues_batch_v4,2026-05-24T23:21:02.413484+00:00,osm_import_terminal_v4,{},venue
The Union Bar & Grill,4 Sheldon Square,London,,W2 6EZ,+44 20 7289 3063,https://paddington.theunionbar.co.uk,,51.5195407,-0.1797209,2026-05-24T23:21:02.413484+00:00,approved,active,United Kingdom,community,osm_venues_uk_v4,uk_00204,uk_venues_batch_v4,2026-05-24T23:21:02.413484+00:00,osm_import_terminal_v4,{},venue
Smiths Bar and Grill,25 Sheldon Square,London,,W2 6EY,+44 20 7286 9458,https://www.smithsbarandgrill.co.uk/,,51.5190797,-0.1790432,2026-05-24T23:21:02.413484+00:00,approved,active,United Kingdom,community,osm_venues_uk_v4,uk_00205,uk_venues_batch_v4,2026-05-24T23:21:02.413484+00:00,osm_import_terminal_v4,{},venue
Phât Phúc Noodle Bar,151 Sydney Street,London,,SW3 6NT,+44 20 7351 3843,http://www.ppnoodlebar.com/,,51.4875601,-0.1691255,2026-05-24T23:21:02.413484+00:00,approved,active,United Kingdom,community,osm_venues_uk_v4,uk_00206,uk_venues_batch_v4,2026-05-24T23:21:02.413484+00:00,osm_import_terminal_v4,{},venue
Cottiers Bar and Restaurant,93-95 Hyndland Street,Glasgow,,G11 5PU,+44 141 357 5825,https://cottiers.com/,,55.8742448,-4.3021021,2026-05-24T23:21:02.413484+00:00,approved,active,United Kingdom,community,osm_venues_uk_v4,uk_00207,uk_venues_batch_v4,2026-05-24T23:21:02.413484+00:00,osm_import_terminal_v4,{},venue
Sandwich Bar,,,,,,,,55.8705199,-4.307643,2026-05-24T23:21:02.413484+00:00,approved,active,United Kingdom,community,osm_venues_uk_v4,uk_00208,uk_venues_batch_v4,2026-05-24T23:21:02.413484+00:00,osm_import_terminal_v4,{},venue
Le-Vap Vape and Shisha Bar,14 Melcombe Street,London,,,,,,51.5228946,-0.159545,2026-05-24T23:21:02.413484+00:00,approved,active,United Kingdom,community,osm_venues_uk_v4,uk_00209,uk_venues_batch_v4,2026-05-24T23:21:02.413484+00:00,osm_import_terminal_v4,{},venue
Shack Bar & Grill,69 High Street,Manchester,,M4 1FS,,,,53.4842909,-2.2380705,2026-05-24T23:21:02.413484+00:00,approved,active,United Kingdom,community,osm_venues_uk_v4,uk_00210,uk_venues_batch_v4,2026-05-24T23:21:02.413484+00:00,osm_import_terminal_v4,{},venue
Berry and Barrel,18 Well Hall Parade,London,,SE9 6SP,,,,51.4567307,0.0512247,2026-05-24T23:21:02.413484+00:00,approved,active,United Kingdom,community,osm_venues_uk_v4,uk_00211,uk_venues_batch_v4,2026-05-24T23:21:02.413484+00:00,osm_import_terminal_v4,{},venue
Coco’s Café and Espresso Bar,29 Court Yard,London,,SE9 5PR,,,,51.4500233,0.0519476,2026-05-24T23:21:02.413484+00:00,approved,active,United Kingdom,community,osm_venues_uk_v4,uk_00212,uk_venues_batch_v4,2026-05-24T23:21:02.413484+00:00,osm_import_terminal_v4,{},venue
Legends American Grill & Bar,90 Eltham High Street,London,,SE9 1BW,+44 20 8850 7550,,,51.4506572,0.0527494,2026-05-24T23:21:02.413484+00:00,approved,active,United Kingdom,community,osm_venues_uk_v4,uk_00213,uk_venues_batch_v4,2026-05-24T23:21:02.413484+00:00,osm_import_terminal_v4,{},venue
Mile End Sandwich Bar,630 Mile End Road,London,,E3 4PH,+44 20 3062 4318,,,51.5257406,-0.0309799,2026-05-24T23:21:02.413484+00:00,approved,active,United Kingdom,community,osm_venues_uk_v4,uk_00214,uk_venues_batch_v4,2026-05-24T23:21:02.413484+00:00,osm_import_terminal_v4,{},venue
Moustache Bar,58 Stoke Newington Road,London,,N16 7XB,,https://www.moustachebar.co.uk/,,51.5522675,-0.0746393,2026-05-24T23:21:02.413484+00:00,approved,active,United Kingdom,community,osm_venues_uk_v4,uk_00215,uk_venues_batch_v4,2026-05-24T23:21:02.413484+00:00,osm_import_terminal_v4,{},venue
London Pub,,,,,,https://www.imperialhotels.co.uk/eat-drink/london-pub,,51.5238854,-0.1273035,2026-05-24T23:21:02.413484+00:00,approved,active,United Kingdom,community,osm_venues_uk_v4,uk_00216,uk_venues_batch_v4,2026-05-24T23:21:02.413484+00:00,osm_import_terminal_v4,{},venue
Footstool Cafe & Bar,,,,,,https://www.sinfoniasmithsq.org.uk/footstool-cafe-in-westminster/,,51.4959971,-0.1268149,2026-05-24T23:21:02.413484+00:00,approved,active,United Kingdom,community,osm_venues_uk_v4,uk_00217,uk_venues_batch_v4,2026-05-24T23:21:02.413484+00:00,osm_import_terminal_v4,{},venue
My Pasta Bar,201 Bishopsgate,London,,EC2M 3AB,,,,51.52112,-0.0791943,2026-05-24T23:21:02.413484+00:00,approved,active,United Kingdom,community,osm_venues_uk_v4,uk_00218,uk_venues_batch_v4,2026-05-24T23:21:02.413484+00:00,osm_import_terminal_v4,{},venue
Barriga Grill House,365 Upper Richmond Road,London,,SW15 5QJ,,,,51.4644297,-0.2374536,2026-05-24T23:21:02.413484+00:00,approved,active,United Kingdom,community,osm_venues_uk_v4,uk_00219,uk_venues_batch_v4,2026-05-24T23:21:02.413484+00:00,osm_import_terminal_v4,{},venue
Pico Bar,Arch 74 Goding Street,London,,SE11 5AW,,,,51.487631,-0.122749,2026-05-24T23:21:02.413484+00:00,approved,active,United Kingdom,community,osm_venues_uk_v4,uk_00220,uk_venues_batch_v4,2026-05-24T23:21:02.413484+00:00,osm_import_terminal_v4,{},venue
Embankment Bar,,,,,,,,51.487298,-0.122843,2026-05-24T23:21:02.413484+00:00,approved,active,United Kingdom,community,osm_venues_uk_v4,uk_00221,uk_venues_batch_v4,2026-05-24T23:21:02.413484+00:00,osm_import_terminal_v4,{},venue
Doodle Bar,33 Parkgate Road,London,,SW11 4NP,,https://www.thedoodlebar.com/,,51.4797782,-0.1684617,2026-05-24T23:21:02.413484+00:00,approved,active,United Kingdom,community,osm_venues_uk_v4,uk_00222,uk_venues_batch_v4,2026-05-24T23:21:02.413484+00:00,osm_import_terminal_v4,{},venue
Java Bar Espresso,1-3 Station Approach,Manchester,,M1 6FU,,,,53.4742595,-2.2413355,2026-05-24T23:21:02.413484+00:00,approved,active,United Kingdom,community,osm_venues_uk_v4,uk_00223,uk_venues_batch_v4,2026-05-24T23:21:02.413484+00:00,osm_import_terminal_v4,{},venue
Bar San Juan,56 Beech Road,Manchester,,M21 9EG,,https://www.barsanjuan.com/,,53.4385562,-2.2801589,2026-05-24T23:21:02.413484+00:00,approved,active,United Kingdom,community,osm_venues_uk_v4,uk_00224,uk_venues_batch_v4,2026-05-24T23:21:02.413484+00:00,osm_import_terminal_v4,{},venue
Orchid Lounge Bar,54 Portland Street,Manchester,,M1 4QU,,,,53.4783148,-2.2390844,2026-05-24T23:21:02.413484+00:00,approved,active,United Kingdom,community,osm_venues_uk_v4,uk_00225,uk_venues_batch_v4,2026-05-24T23:21:02.413484+00:00,osm_import_terminal_v4,{},venue
SW9 Sushi Bar,62 Brixton Road,London,,SW9 6BS,,,,51.4788905,-0.112134,2026-05-24T23:21:02.413484+00:00,approved,active,United Kingdom,community,osm_venues_uk_v4,uk_00226,uk_venues_batch_v4,2026-05-24T23:21:02.413484+00:00,osm_import_terminal_v4,{},venue
Baranis,115 Chancery Lane,London,,WC2A 1PP,,https://www.baranis.co.uk/,,51.5145746,-0.1114169,2026-05-24T23:21:02.413484+00:00,approved,active,United Kingdom,community,osm_venues_uk_v4,uk_00227,uk_venues_batch_v4,2026-05-24T23:21:02.413484+00:00,osm_import_terminal_v4,{},venue
Barbican Foodhall,,,,,,https://www.barbican.org.uk/restaurants-bars/barbican-foodhall,,51.5196883,-0.093761,2026-05-24T23:21:02.413484+00:00,approved,active,United Kingdom,community,osm_venues_uk_v4,uk_00228,uk_venues_batch_v4,2026-05-24T23:21:02.413484+00:00,osm_import_terminal_v4,{},venue
Vina Karaoke Bar,34 Charlotte Street,Manchester,,M1 4FD,,,,53.4787055,-2.238883,2026-05-24T23:21:02.413484+00:00,approved,active,United Kingdom,community,osm_venues_uk_v4,uk_00229,uk_venues_batch_v4,2026-05-24T23:21:02.413484+00:00,osm_import_terminal_v4,{},venue
Kibele Restaurant & Bar,175-177 Great Portland Street,London,,W1W 5PJ,+44 20 7436 0600,https://www.kibele.co.uk/,,51.5218467,-0.1436982,2026-05-24T23:21:02.413484+00:00,approved,active,United Kingdom,community,osm_venues_uk_v4,uk_00230,uk_venues_batch_v4,2026-05-24T23:21:02.413484+00:00,osm_import_terminal_v4,{},venue
Big Easy Bar-B-Q and Crabshack,158 Montfichet Road,London,,E20 1EN,,,,51.5431877,-0.0089166,2026-05-24T23:21:02.413484+00:00,approved,active,United Kingdom,community,osm_venues_uk_v4,uk_00231,uk_venues_batch_v4,2026-05-24T23:21:02.413484+00:00,osm_import_terminal_v4,{},venue
The Grapes Bar,218 Paisley Road West,Glasgow,,G51 1BU,,,,55.8525564,-4.2876252,2026-05-24T23:21:02.413484+00:00,approved,active,United Kingdom,community,osm_venues_uk_v4,uk_00232,uk_venues_batch_v4,2026-05-24T23:21:02.413484+00:00,osm_import_terminal_v4,{},venue
HandleBar,Wilmslow Road,,,,,,,53.4437906,-2.2186851,2026-05-24T23:21:02.413484+00:00,approved,active,United Kingdom,community,osm_venues_uk_v4,uk_00233,uk_venues_batch_v4,2026-05-24T23:21:02.413484+00:00,osm_import_terminal_v4,{},venue
Zubi Bar & Lounge,142 Holloway Road,London,,N7 8DD,,,,51.5508872,-0.109696,2026-05-24T23:21:02.413484+00:00,approved,active,United Kingdom,community,osm_venues_uk_v4,uk_00234,uk_venues_batch_v4,2026-05-24T23:21:02.413484+00:00,osm_import_terminal_v4,{},venue
Atlas Bar,376 Deansgate,Manchester,,M3 4LY,+44 161 834 2124,https://atlasbarmanchester.com/,,53.4742896,-2.2518693,2026-05-24T23:21:02.413484+00:00,approved,active,United Kingdom,community,osm_venues_uk_v4,uk_00235,uk_venues_batch_v4,2026-05-24T23:21:02.413484+00:00,osm_import_terminal_v4,{},venue
Barras Bites,205 Gallowgate,,,,,,,55.8556396,-4.2380205,2026-05-24T23:21:02.413484+00:00,approved,active,United Kingdom,community,osm_venues_uk_v4,uk_00236,uk_venues_batch_v4,2026-05-24T23:21:02.413484+00:00,osm_import_terminal_v4,{},venue
Radio Rooftop Bar,,,,,,,,51.5117626,-0.1186761,2026-05-24T23:21:02.413484+00:00,approved,active,United Kingdom,community,osm_venues_uk_v4,uk_00237,uk_venues_batch_v4,2026-05-24T23:21:02.413484+00:00,osm_import_terminal_v4,{},venue
Champagne Bar,,,,,,,,51.517346,-0.0808019,2026-05-24T23:21:02.413484+00:00,approved,active,United Kingdom,community,osm_venues_uk_v4,uk_00238,uk_venues_batch_v4,2026-05-24T23:21:02.413484+00:00,osm_import_terminal_v4,{},venue
The President's Bar,107-112 Leadenhall Street,London,,EC3A 4AF,,,,51.513588,-0.0808689,2026-05-24T23:21:02.413484+00:00,approved,active,United Kingdom,community,osm_venues_uk_v4,uk_00239,uk_venues_batch_v4,2026-05-24T23:21:02.413484+00:00,osm_import_terminal_v4,{},venue
Baran Ocak Bashi,,,,,,,,51.5804798,-0.1983486,2026-05-24T23:21:02.413484+00:00,approved,active,United Kingdom,community,osm_venues_uk_v4,uk_00240,uk_venues_batch_v4,2026-05-24T23:21:02.413484+00:00,osm_import_terminal_v4,{},venue
All Bar One,60 Victoria Street,London,,SW1E 6AN,,,,51.4974984,-0.1367852,2026-05-24T23:21:02.413484+00:00,approved,active,United Kingdom,community,osm_venues_uk_v4,uk_00241,uk_venues_batch_v4,2026-05-24T23:21:02.413484+00:00,osm_import_terminal_v4,{},venue
Barcelona,24 Lime Street,London,,EC3M 7HS,+44 20 7929 2389,https://www.barcelona-tapas.com/lime-street,,51.511838,-0.0835891,2026-05-24T23:21:02.413484+00:00,approved,active,United Kingdom,community,osm_venues_uk_v4,uk_00242,uk_venues_batch_v4,2026-05-24T23:21:02.413484+00:00,osm_import_terminal_v4,{},venue
ROBA Bar & Restaurant,,,,,,,,51.5163433,-0.1720567,2026-05-24T23:21:02.413484+00:00,approved,active,United Kingdom,community,osm_venues_uk_v4,uk_00243,uk_venues_batch_v4,2026-05-24T23:21:02.413484+00:00,osm_import_terminal_v4,{},venue
Simply Sandwich Bar,7 Ladybarn Lane,Manchester,,M14 6NQ,,,,53.4410785,-2.2141704,2026-05-24T23:21:02.413484+00:00,approved,active,United Kingdom,community,osm_venues_uk_v4,uk_00244,uk_venues_batch_v4,2026-05-24T23:21:02.413484+00:00,osm_import_terminal_v4,{},venue
Number 90 Bar & Kitchen,90 Wallis Road,London,,E9 5LN,,https://number90bar.co.uk/,,51.5443968,-0.0226031,2026-05-24T23:21:02.413484+00:00,approved,active,United Kingdom,community,osm_venues_uk_v4,uk_00245,uk_venues_batch_v4,2026-05-24T23:21:02.413484+00:00,osm_import_terminal_v4,{},venue
Migue's Tapas Bar & Restaurant,40-42 Brixton Road,London,,SW9 6BT,,,,51.4795375,-0.1118752,2026-05-24T23:21:02.413484+00:00,approved,active,United Kingdom,community,osm_venues_uk_v4,uk_00246,uk_venues_batch_v4,2026-05-24T23:21:02.413484+00:00,osm_import_terminal_v4,{},venue
Adventure Bar,38 Clapham High Street,London,,SW4 7UR,,,,51.4641961,-0.1319853,2026-05-24T23:21:02.413484+00:00,approved,active,United Kingdom,community,osm_venues_uk_v4,uk_00247,uk_venues_batch_v4,2026-05-24T23:21:02.413484+00:00,osm_import_terminal_v4,{},venue
Dennistoun Bar-B-Que,585 Duke Street,Glasgow,,G31 1PY,+44 141 237 7200,https://www.dennistounbbq.com/,,55.85854,-4.2157154,2026-05-24T23:21:02.413484+00:00,approved,active,United Kingdom,community,osm_venues_uk_v4,uk_00248,uk_venues_batch_v4,2026-05-24T23:21:02.413484+00:00,osm_import_terminal_v4,{},venue
Pantanal Bar & Restaurant,451 West Green Road,London,,N15 3PL,,,,51.5871535,-0.0982514,2026-05-24T23:21:02.413484+00:00,approved,active,United Kingdom,community,osm_venues_uk_v4,uk_00249,uk_venues_batch_v4,2026-05-24T23:21:02.413484+00:00,osm_import_terminal_v4,{},venue
Boyds Grill & Wine Bar,8 Northumberland Avenue,London,,WC2N 5BY,,,,51.5068888,-0.1256307,2026-05-24T23:21:02.413484+00:00,approved,active,United Kingdom,community,osm_venues_uk_v4,uk_00250,uk_venues_batch_v4,2026-05-24T23:21:02.413484+00:00,osm_import_terminal_v4,{},venue
Home Bar,5a Ravey Street,London,,EC2A 4QW,,https://homeonravey.com/,,51.5248286,-0.0821566,2026-05-24T23:21:02.413484+00:00,approved,active,United Kingdom,community,osm_venues_uk_v4,uk_00251,uk_venues_batch_v4,2026-05-24T23:21:02.413484+00:00,osm_import_terminal_v4,{},venue
Dobar,324 Green Lanes,London,,N4 1BX,+44 20 7686 3257,https://dobar.co.uk,,51.5714342,-0.0961337,2026-05-24T23:21:02.413484+00:00,approved,active,United Kingdom,community,osm_venues_uk_v4,uk_00252,uk_venues_batch_v4,2026-05-24T23:21:02.413484+00:00,osm_import_terminal_v4,{},venue
Sapore Coffee Bar,87 Borough Road,London,,SE1 1DN,,,,51.4989456,-0.0994588,2026-05-24T23:21:02.413484+00:00,approved,active,United Kingdom,community,osm_venues_uk_v4,uk_00253,uk_venues_batch_v4,2026-05-24T23:21:02.413484+00:00,osm_import_terminal_v4,{},venue
Anchor Bar,1401 Gallowgate,,,,,,,55.8517062,-4.1985366,2026-05-24T23:21:02.413484+00:00,approved,active,United Kingdom,community,osm_venues_uk_v4,uk_00254,uk_venues_batch_v4,2026-05-24T23:21:02.413484+00:00,osm_import_terminal_v4,{},venue
Swans Bar,,,,,,,,51.5087707,-0.1372057,2026-05-24T23:21:02.413484+00:00,approved,active,United Kingdom,community,osm_venues_uk_v4,uk_00255,uk_venues_batch_v4,2026-05-24T23:21:02.413484+00:00,osm_import_terminal_v4,{},venue
The Rivoli Bar,,,,,,,,51.5071719,-0.1414051,2026-05-24T23:21:02.413484+00:00,approved,active,United Kingdom,community,osm_venues_uk_v4,uk_00256,uk_venues_batch_v4,2026-05-24T23:21:02.413484+00:00,osm_import_terminal_v4,{},venue
Ridley Road Market Bar,49 Ridley Road,London,,E8 2NP,,https://www.ridleyroadmarketbar.com/,,51.5481534,-0.0723399,2026-05-24T23:21:02.413484+00:00,approved,active,United Kingdom,community,osm_venues_uk_v4,uk_00257,uk_venues_batch_v4,2026-05-24T23:21:02.413484+00:00,osm_import_terminal_v4,{},venue
Bariba,571 Battersea Park Road,London,,SW11 3BJ,,,,51.4712115,-0.1687051,2026-05-24T23:21:02.413484+00:00,approved,active,United Kingdom,community,osm_venues_uk_v4,uk_00258,uk_venues_batch_v4,2026-05-24T23:21:02.413484+00:00,osm_import_terminal_v4,{},venue
Piggies Snack Bar,113 Falcon Road,London,,SW11 2PE,,,,51.4664775,-0.1694141,2026-05-24T23:21:02.413484+00:00,approved,active,United Kingdom,community,osm_venues_uk_v4,uk_00259,uk_venues_batch_v4,2026-05-24T23:21:02.413484+00:00,osm_import_terminal_v4,{},venue
"The American Bar, The Stafford Hotel",,,,,,,,51.5058725,-0.1399203,2026-05-24T23:21:02.413484+00:00,approved,active,United Kingdom,community,osm_venues_uk_v4,uk_00260,uk_venues_batch_v4,2026-05-24T23:21:02.413484+00:00,osm_import_terminal_v4,{},venue
Segen Eritrean Ethopian Bar & Restaurant,129 High Street Harlesden,London,,NW10 4TR,,,,51.5354405,-0.2436359,2026-05-24T23:21:02.413484+00:00,approved,active,United Kingdom,community,osm_venues_uk_v4,uk_00261,uk_venues_batch_v4,2026-05-24T23:21:02.413484+00:00,osm_import_terminal_v4,{},venue
Bar Lucianos,129 Burnt Ash Road,London,,SE12 8RA,,,,51.4506391,0.0126792,2026-05-24T23:21:02.413484+00:00,approved,active,United Kingdom,community,osm_venues_uk_v4,uk_00262,uk_venues_batch_v4,2026-05-24T23:21:02.413484+00:00,osm_import_terminal_v4,{},venue
Howling Hops Tank Bar,43 White Post Lane,London,,E9 5EN,,https://howlinghops.co.uk/,,51.5427876,-0.022598,2026-05-24T23:21:02.413484+00:00,approved,active,United Kingdom,community,osm_venues_uk_v4,uk_00263,uk_venues_batch_v4,2026-05-24T23:21:02.413484+00:00,osm_import_terminal_v4,{},venue
Hide & Seed Bar & Kitchen,52-54 Upper Richmond Road,London,,SW15 2RN,,,,51.4574529,-0.2058808,2026-05-24T23:21:02.413484+00:00,approved,active,United Kingdom,community,osm_venues_uk_v4,uk_00264,uk_venues_batch_v4,2026-05-24T23:21:02.413484+00:00,osm_import_terminal_v4,{},venue
Coffee Republic,208 Whitechapel Road,London,,E1 1BJ,,,,51.5193496,-0.0577368,2026-05-24T23:21:02.413484+00:00,approved,active,United Kingdom,community,osm_venues_uk_v4,uk_00265,uk_venues_batch_v4,2026-05-24T23:21:02.413484+00:00,osm_import_terminal_v4,{},venue
The Barn,60 Holloway Road,London,,N7 8JL,+44 20 3784 8741,http://www.thebarnlondon.co.uk/,,51.5488356,-0.1071923,2026-05-24T23:21:02.413484+00:00,approved,active,United Kingdom,community,osm_venues_uk_v4,uk_00266,uk_venues_batch_v4,2026-05-24T23:21:02.413484+00:00,osm_import_terminal_v4,{},venue
The Black Lion Pub,65 Chapel Street,Salford,,M3 5BZ,,https://theblacklionmanchester.co.uk/,,53.4846729,-2.249412,2026-05-24T23:21:02.413484+00:00,approved,active,United Kingdom,community,osm_venues_uk_v4,uk_00267,uk_venues_batch_v4,2026-05-24T23:21:02.413484+00:00,osm_import_terminal_v4,{},venue
Riderepublic & Tanya's,,,,,,,,51.4770442,-0.2019237,2026-05-24T23:21:02.413484+00:00,approved,active,United Kingdom,community,osm_venues_uk_v4,uk_00268,uk_venues_batch_v4,2026-05-24T23:21:02.413484+00:00,osm_import_terminal_v4,{},venue
Temple Bar,,,,,,,,51.5111258,-0.1136766,2026-05-24T23:21:02.413484+00:00,approved,active,United Kingdom,community,osm_venues_uk_v4,uk_00269,uk_venues_batch_v4,2026-05-24T23:21:02.413484+00:00,osm_import_terminal_v4,{},venue
Sports Bar and Grill,,,,,,https://www.sportsbarandgrill.co.uk/victoria,,51.4957277,-0.1440761,2026-05-24T23:21:02.413484+00:00,approved,active,United Kingdom,community,osm_venues_uk_v4,uk_00270,uk_venues_batch_v4,2026-05-24T23:21:02.413484+00:00,osm_import_terminal_v4,{},venue
HOME Bar & Kitchen,,,,,,,,53.473486,-2.2468235,2026-05-24T23:21:02.413484+00:00,approved,active,United Kingdom,community,osm_venues_uk_v4,uk_00271,uk_venues_batch_v4,2026-05-24T23:21:02.413484+00:00,osm_import_terminal_v4,{},venue
The Public House,,,,,,,,55.8564133,-4.2890507,2026-05-24T23:21:02.413484+00:00,approved,active,United Kingdom,community,osm_venues_uk_v4,uk_00272,uk_venues_batch_v4,2026-05-24T23:21:02.413484+00:00,osm_import_terminal_v4,{},venue
Bongo Bar & Restaurant,,,,,,,,51.5843563,-0.0686926,2026-05-24T23:21:02.413484+00:00,approved,active,United Kingdom,community,osm_venues_uk_v4,uk_00273,uk_venues_batch_v4,2026-05-24T23:21:02.413484+00:00,osm_import_terminal_v4,{},venue
M Bar & Grill,60 Threadneedle Street,London,,EC2R 8HP,,,,51.5144556,-0.0864955,2026-05-24T23:21:02.413484+00:00,approved,active,United Kingdom,community,osm_venues_uk_v4,uk_00274,uk_venues_batch_v4,2026-05-24T23:21:02.413484+00:00,osm_import_terminal_v4,{},venue
Bar + Block Steakhouse,232 Shepherds Bush Road,London,,W6 7AN,+44 20 8187 0698,https://www.barandblock.co.uk/en-gb/locations/london-hammersmith,,51.4938021,-0.2237611,2026-05-24T23:21:02.413484+00:00,approved,active,United Kingdom,community,osm_venues_uk_v4,uk_00275,uk_venues_batch_v4,2026-05-24T23:21:02.413484+00:00,osm_import_terminal_v4,{},venue
Smith's Cocktail Bar,170 Shepherds Bush Road,London,,,,https://www.brookgreenhotel.co.uk/smiths-cocktail-bar/,,51.4972518,-0.2230295,2026-05-24T23:21:02.413484+00:00,approved,active,United Kingdom,community,osm_venues_uk_v4,uk_00276,uk_venues_batch_v4,2026-05-24T23:21:02.413484+00:00,osm_import_terminal_v4,{},venue
Bar + Block,66 Alie Street,London,,E1 8PX,+44 20 8049 0888,https://www.barandblock.co.uk/,,51.5140009,-0.0700762,2026-05-24T23:21:02.413484+00:00,approved,active,United Kingdom,community,osm_venues_uk_v4,uk_00277,uk_venues_batch_v4,2026-05-24T23:21:02.413484+00:00,osm_import_terminal_v4,{},venue
Barrafina Drury Lane,,,,,,https://www.barrafina.co.uk/,,51.5143632,-0.1218206,2026-05-24T23:21:02.413484+00:00,approved,active,United Kingdom,community,osm_venues_uk_v4,uk_00278,uk_venues_batch_v4,2026-05-24T23:21:02.413484+00:00,osm_import_terminal_v4,{},venue
Nicolas Wine Bar,1 Canada Square,London,,E14 5AX,,,,51.5047402,-0.0193629,2026-05-24T23:21:02.413484+00:00,approved,active,United Kingdom,community,osm_venues_uk_v4,uk_00279,uk_venues_batch_v4,2026-05-24T23:21:02.413484+00:00,osm_import_terminal_v4,{},venue
Federal Cafe & Bar,9 Nicholas Croft,Manchester,,M4 1EY,+44 425 0974,https://www.federalcafe.co.uk/,,53.4842432,-2.2384454,2026-05-24T23:21:02.413484+00:00,approved,active,United Kingdom,community,osm_venues_uk_v4,uk_00280,uk_venues_batch_v4,2026-05-24T23:21:02.413484+00:00,osm_import_terminal_v4,{},venue
Lord Nelson Bar,123 Nelson Street,,,,,,,55.8531797,-4.2639285,2026-05-24T23:21:02.413484+00:00,approved,active,United Kingdom,community,osm_venues_uk_v4,uk_00281,uk_venues_batch_v4,2026-05-24T23:21:02.413484+00:00,osm_import_terminal_v4,{},venue
Up Caffe Bar,,,,,,,,51.4642908,-0.1699182,2026-05-24T23:21:02.413484+00:00,approved,active,United Kingdom,community,osm_venues_uk_v4,uk_00282,uk_venues_batch_v4,2026-05-24T23:21:02.413484+00:00,osm_import_terminal_v4,{},venue
Barista & brunch,,,,,,,,51.569001,-0.1108665,2026-05-24T23:21:02.413484+00:00,approved,active,United Kingdom,community,osm_venues_uk_v4,uk_00283,uk_venues_batch_v4,2026-05-24T23:21:02.413484+00:00,osm_import_terminal_v4,{},venue
Frame Cafe & Bar,7 Clifton Terrace,London,,N4 3JP,,https://framefinsbury.co.uk/,,51.5655812,-0.1082105,2026-05-24T23:21:02.413484+00:00,approved,active,United Kingdom,community,osm_venues_uk_v4,uk_00284,uk_venues_batch_v4,2026-05-24T23:21:02.413484+00:00,osm_import_terminal_v4,{},venue
City Bar & Kitchen,9 Stoney Lane,London,,E1 7BH,,,,51.5152081,-0.0774089,2026-05-24T23:21:02.413484+00:00,approved,active,United Kingdom,community,osm_venues_uk_v4,uk_00285,uk_venues_batch_v4,2026-05-24T23:21:02.413484+00:00,osm_import_terminal_v4,{},venue
Fletcher Moss Pub,1 William Street,Manchester,,M20 6RQ,,,,53.4167953,-2.2298136,2026-05-24T23:21:02.413484+00:00,approved,active,United Kingdom,community,osm_venues_uk_v4,uk_00286,uk_venues_batch_v4,2026-05-24T23:21:02.413484+00:00,osm_import_terminal_v4,{},venue
Enjoy Sandwich & Cafe Bar,86 Markhouse Road,London,,,,,,51.5769304,-0.0300592,2026-05-24T23:21:02.413484+00:00,approved,active,United Kingdom,community,osm_venues_uk_v4,uk_00287,uk_venues_batch_v4,2026-05-24T23:21:02.413484+00:00,osm_import_terminal_v4,{},venue
Bar Social,245 Lavender Hill,London,,SW11 1JW,,https://www.barsocial.co.uk/,,51.4641875,-0.1630612,2026-05-24T23:21:02.413484+00:00,approved,active,United Kingdom,community,osm_venues_uk_v4,uk_00288,uk_venues_batch_v4,2026-05-24T23:21:02.413484+00:00,osm_import_terminal_v4,{},venue
The Steps Bar,62 Glassford Street,Glasgow,,G1 1UP,,,,55.8589895,-4.2487306,2026-05-24T23:21:02.413484+00:00,approved,active,United Kingdom,community,osm_venues_uk_v4,uk_00289,uk_venues_batch_v4,2026-05-24T23:21:02.413484+00:00,osm_import_terminal_v4,{},venue
GNH Bar,Pancras Road,London,,N1C 4TB,+44 20 3388 0818,https://gnhbar.com/,,51.5309954,-0.124581,2026-05-24T23:21:02.413484+00:00,approved,active,United Kingdom,community,osm_venues_uk_v4,uk_00290,uk_venues_batch_v4,2026-05-24T23:21:02.413484+00:00,osm_import_terminal_v4,{},venue
Dolphin Bar & Grill,,,,,,,,51.486925,-0.1364683,2026-05-24T23:21:02.413484+00:00,approved,active,United Kingdom,community,osm_venues_uk_v4,uk_00291,uk_venues_batch_v4,2026-05-24T23:21:02.413484+00:00,osm_import_terminal_v4,{},venue
B Bagel Bakery Bar,236D Fulham Road,London,,SW10 9NB,+44 20 7351 2931,https://www.bbagel.co.uk,,51.4851981,-0.1825142,2026-05-24T23:21:02.413484+00:00,approved,active,United Kingdom,community,osm_venues_uk_v4,uk_00292,uk_venues_batch_v4,2026-05-24T23:21:02.413484+00:00,osm_import_terminal_v4,{},venue
The Griff Inn Bar & Kitchen,Newark Street,London,,E1 2AT,+44 20 7882 8686,https://www.qmsu.org/griffinn/,,51.517315,-0.0613634,2026-05-24T23:21:02.413484+00:00,approved,active,United Kingdom,community,osm_venues_uk_v4,uk_00293,uk_venues_batch_v4,2026-05-24T23:21:02.413484+00:00,osm_import_terminal_v4,{},venue
Pier 8 Restaurant and Bar,The Quays,Salford,,M50 3AZ,,https://www.thelowry.com/plan-your-visit/eat-and-drink/microsite/eat-and-drink-at-the-lowry/,,53.4706708,-2.2965323,2026-05-24T23:21:02.413484+00:00,approved,active,United Kingdom,community,osm_venues_uk_v4,uk_00294,uk_venues_batch_v4,2026-05-24T23:21:02.413484+00:00,osm_import_terminal_v4,{},venue
Akbar's,Liverpool Road,Manchester,,,+44 161 834 8444,https://www.akbars.co.uk/,,53.4764787,-2.2551485,2026-05-24T23:21:02.413484+00:00,approved,active,United Kingdom,community,osm_venues_uk_v4,uk_00295,uk_venues_batch_v4,2026-05-24T23:21:02.413484+00:00,osm_import_terminal_v4,{},venue
O Barros,238 Clapham Road,,,,,,,51.4742341,-0.1206551,2026-05-24T23:21:02.413484+00:00,approved,active,United Kingdom,community,osm_venues_uk_v4,uk_00296,uk_venues_batch_v4,2026-05-24T23:21:02.413484+00:00,osm_import_terminal_v4,{},venue
Bar Bibo,,,,,,,,53.4076106,-2.2580151,2026-05-24T23:21:02.413484+00:00,approved,active,United Kingdom,community,osm_venues_uk_v4,uk_00297,uk_venues_batch_v4,2026-05-24T23:21:02.413484+00:00,osm_import_terminal_v4,{},venue
Bread Street Kitchen & Bar,11 South Place,London,,EC2M 2AQ,,,,51.5187875,-0.0868297,2026-05-24T23:21:02.413484+00:00,approved,active,United Kingdom,community,osm_venues_uk_v4,uk_00298,uk_venues_batch_v4,2026-05-24T23:21:02.413484+00:00,osm_import_terminal_v4,{},venue
The Barbary,16 Neal's Yard,London,,WC2H 9DP,,https://www.thebarbary.co.uk/,,51.5144072,-0.1261845,2026-05-24T23:21:02.413484+00:00,approved,active,United Kingdom,community,osm_venues_uk_v4,uk_00299,uk_venues_batch_v4,2026-05-24T23:21:02.413484+00:00,osm_import_terminal_v4,{},venue
Greedy Buddha Bar,,,,,,,,51.4718623,-0.1916569,2026-05-24T23:21:02.413484+00:00,approved,active,United Kingdom,community,osm_venues_uk_v4,uk_00300,uk_venues_batch_v4,2026-05-24T23:21:02.413484+00:00,osm_import_terminal_v4,{},venue
