venue_name,address,city,state,zip_code,phone,website,sports_supported,latitude,longitude,approved_at,photo_review_status,admin_status,country,origin_type,community_source,community_source_id,community_seed_batch,community_seeded_at,community_curated_by,community_provenance,place_type
Bar do Salomão,,,,,,,,-19.9388896,-43.9198583,2026-05-25T00:21:26.075929+00:00,approved,active,Brazil,community,osm_venues_br_v4,br_00001,br_venues_batch_v4,2026-05-25T00:21:26.075929+00:00,osm_import_terminal_v4,{},venue
Fortaleza de Santa Cruz da Barra,,,,,,,,-22.9385766,-43.1310176,2026-05-25T00:21:26.075929+00:00,approved,active,Brazil,community,osm_venues_br_v4,br_00002,br_venues_batch_v4,2026-05-25T00:21:26.075929+00:00,osm_import_terminal_v4,{},venue
Bar da Dalva,,,,,,,,-19.9349914,-43.9292622,2026-05-25T00:21:26.075929+00:00,approved,active,Brazil,community,osm_venues_br_v4,br_00003,br_venues_batch_v4,2026-05-25T00:21:26.075929+00:00,osm_import_terminal_v4,{},venue
Chop Stick / Vinnil Cultura Bar,1068 Rua dos Inconfidentes,Belo Horizonte,,30140-120,,,,-19.9353545,-43.9359405,2026-05-25T00:21:26.075929+00:00,approved,active,Brazil,community,osm_venues_br_v4,br_00004,br_venues_batch_v4,2026-05-25T00:21:26.075929+00:00,osm_import_terminal_v4,{},venue
Bar do Serafim,24 Rua Alice,Rio de Janeiro,,,,,,-22.9362044,-43.1902901,2026-05-25T00:21:26.075929+00:00,approved,active,Brazil,community,osm_venues_br_v4,br_00005,br_venues_batch_v4,2026-05-25T00:21:26.075929+00:00,osm_import_terminal_v4,{},venue
Café e Bar Vila Viçosa,143G Rua das Laranjeiras,,,,,,,-22.9333469,-43.1841151,2026-05-25T00:21:26.075929+00:00,approved,active,Brazil,community,osm_venues_br_v4,br_00006,br_venues_batch_v4,2026-05-25T00:21:26.075929+00:00,osm_import_terminal_v4,{},venue
Café e Bar Céu da Guanabara,143B Rua das Laranjeiras,Rio de Janeiro,,,,,,-22.933188,-43.1839321,2026-05-25T00:21:26.075929+00:00,approved,active,Brazil,community,osm_venues_br_v4,br_00007,br_venues_batch_v4,2026-05-25T00:21:26.075929+00:00,osm_import_terminal_v4,{},venue
Café e Bar 31,31 Rua Voluntários da Pátria,Rio de Janeiro,,,,,,-22.9508898,-43.1825322,2026-05-25T00:21:26.075929+00:00,approved,active,Brazil,community,osm_venues_br_v4,br_00008,br_venues_batch_v4,2026-05-25T00:21:26.075929+00:00,osm_import_terminal_v4,{},venue
choperia siri bar,,,,,,,,-23.5373131,-46.6843487,2026-05-25T00:21:26.075929+00:00,approved,active,Brazil,community,osm_venues_br_v4,br_00009,br_venues_batch_v4,2026-05-25T00:21:26.075929+00:00,osm_import_terminal_v4,{},venue
Churrascaria Barranco,1578 Avenida Protásio Alves,,,,+55 51 3331-6172,https://churrascariabarranco.com.br/,,-30.0405812,-51.1922847,2026-05-25T00:21:26.075929+00:00,approved,active,Brazil,community,osm_venues_br_v4,br_00010,br_venues_batch_v4,2026-05-25T00:21:26.075929+00:00,osm_import_terminal_v4,{},venue
Antônio's Bar,88 Avenida Mem de Sá,,,,,,,-22.9129588,-43.1819792,2026-05-25T00:21:26.075929+00:00,approved,active,Brazil,community,osm_venues_br_v4,br_00011,br_venues_batch_v4,2026-05-25T00:21:26.075929+00:00,osm_import_terminal_v4,{},venue
Restaurante Bar Brasil,90 Avenida Mem de Sá,,,,,,,-22.912878,-43.1821393,2026-05-25T00:21:26.075929+00:00,approved,active,Brazil,community,osm_venues_br_v4,br_00012,br_venues_batch_v4,2026-05-25T00:21:26.075929+00:00,osm_import_terminal_v4,{},venue
Barbieri Botequim,92 Avenida Mem de Sá,,,,,,,-22.9129035,-43.1822968,2026-05-25T00:21:26.075929+00:00,approved,active,Brazil,community,osm_venues_br_v4,br_00013,br_venues_batch_v4,2026-05-25T00:21:26.075929+00:00,osm_import_terminal_v4,{},venue
Obar,,,,,,,,-19.9346233,-43.9281517,2026-05-25T00:21:26.075929+00:00,approved,active,Brazil,community,osm_venues_br_v4,br_00014,br_venues_batch_v4,2026-05-25T00:21:26.075929+00:00,osm_import_terminal_v4,{},venue
Ô Matos Bar,,,,,+55-21-22325250,,,-22.904938,-43.1781168,2026-05-25T00:21:26.075929+00:00,approved,active,Brazil,community,osm_venues_br_v4,br_00015,br_venues_batch_v4,2026-05-25T00:21:26.075929+00:00,osm_import_terminal_v4,{},venue
Bar Lagoa,1674 Avenida Epitácio Pessoa,,,,+55-21-25231135,http://www.barlagoa.com.br/,,-22.9799977,-43.2033068,2026-05-25T00:21:26.075929+00:00,approved,active,Brazil,community,osm_venues_br_v4,br_00016,br_venues_batch_v4,2026-05-25T00:21:26.075929+00:00,osm_import_terminal_v4,{},venue
Bar do Papai,,,,,,,,-22.9045298,-43.1746137,2026-05-25T00:21:26.075929+00:00,approved,active,Brazil,community,osm_venues_br_v4,br_00017,br_venues_batch_v4,2026-05-25T00:21:26.075929+00:00,osm_import_terminal_v4,{},venue
Maria Paula Bar e Restaurante,,,,,,,,-23.5520829,-46.6383065,2026-05-25T00:21:26.075929+00:00,approved,active,Brazil,community,osm_venues_br_v4,br_00018,br_venues_batch_v4,2026-05-25T00:21:26.075929+00:00,osm_import_terminal_v4,{},venue
Bar do Seu Ivo,,,,,,,,-22.7545908,-43.1061207,2026-05-25T00:21:26.075929+00:00,approved,active,Brazil,community,osm_venues_br_v4,br_00019,br_venues_batch_v4,2026-05-25T00:21:26.075929+00:00,osm_import_terminal_v4,{},venue
Bar & Boi,294 Avenida Fleming,Belo Horizonte - MG,,,,,,-19.8713761,-43.9865191,2026-05-25T00:21:26.075929+00:00,approved,active,Brazil,community,osm_venues_br_v4,br_00020,br_venues_batch_v4,2026-05-25T00:21:26.075929+00:00,osm_import_terminal_v4,{},venue
Bar do Costa,150 Rua Torres Homem,,,,,,,-22.9135298,-43.2442662,2026-05-25T00:21:26.075929+00:00,approved,active,Brazil,community,osm_venues_br_v4,br_00021,br_venues_batch_v4,2026-05-25T00:21:26.075929+00:00,osm_import_terminal_v4,{},venue
Bar Antigamente,43 Rua do Ouvidor,,,,+55 21 2507-5040,https://www.restauranteantigamente.com.br/,,-22.9023137,-43.1754979,2026-05-25T00:21:26.075929+00:00,approved,active,Brazil,community,osm_venues_br_v4,br_00022,br_venues_batch_v4,2026-05-25T00:21:26.075929+00:00,osm_import_terminal_v4,{},venue
Snooker Bar,,,,,,,,-22.9219407,-43.2371666,2026-05-25T00:21:26.075929+00:00,approved,active,Brazil,community,osm_venues_br_v4,br_00023,br_venues_batch_v4,2026-05-25T00:21:26.075929+00:00,osm_import_terminal_v4,{},venue
Café e Bar Borgado,,,,,,,,-22.9147409,-43.1781229,2026-05-25T00:21:26.075929+00:00,approved,active,Brazil,community,osm_venues_br_v4,br_00024,br_venues_batch_v4,2026-05-25T00:21:26.075929+00:00,osm_import_terminal_v4,{},venue
Bar Getúlio,,Rio de Janeiro,,,,,,-22.9256789,-43.1767813,2026-05-25T00:21:26.075929+00:00,approved,active,Brazil,community,osm_venues_br_v4,br_00025,br_venues_batch_v4,2026-05-25T00:21:26.075929+00:00,osm_import_terminal_v4,{},venue
Café e Bar Caimã,9B Rua Corrêa Dutra,Rio de Janeiro,,22210-050,,,,-22.9284543,-43.1743759,2026-05-25T00:21:26.075929+00:00,approved,active,Brazil,community,osm_venues_br_v4,br_00026,br_venues_batch_v4,2026-05-25T00:21:26.075929+00:00,osm_import_terminal_v4,{},venue
Baroneza,1250 Rua 7 de Abril,Curitiba,,,,,,-25.4206248,-49.2553409,2026-05-25T00:21:26.075929+00:00,approved,active,Brazil,community,osm_venues_br_v4,br_00027,br_venues_batch_v4,2026-05-25T00:21:26.075929+00:00,osm_import_terminal_v4,{},venue
Bar do Elias,,,,,,,,-22.9099172,-43.1771205,2026-05-25T00:21:26.075929+00:00,approved,active,Brazil,community,osm_venues_br_v4,br_00028,br_venues_batch_v4,2026-05-25T00:21:26.075929+00:00,osm_import_terminal_v4,{},venue
Bar Dafoca,Rua Farani,Rio de Janeiro,,,,,,-22.9419506,-43.181112,2026-05-25T00:21:26.075929+00:00,approved,active,Brazil,community,osm_venues_br_v4,br_00029,br_venues_batch_v4,2026-05-25T00:21:26.075929+00:00,osm_import_terminal_v4,{},venue
Calabouço Heavy & Rock Bar,130 Rua Felipe Camarão,Rio de Janeiro,,20511-010,,,,-22.9168348,-43.2351828,2026-05-25T00:21:26.075929+00:00,approved,active,Brazil,community,osm_venues_br_v4,br_00030,br_venues_batch_v4,2026-05-25T00:21:26.075929+00:00,osm_import_terminal_v4,{},venue
Moais Snooker Bar,,,,,,,,-22.9189922,-43.2355377,2026-05-25T00:21:26.075929+00:00,approved,active,Brazil,community,osm_venues_br_v4,br_00031,br_venues_batch_v4,2026-05-25T00:21:26.075929+00:00,osm_import_terminal_v4,{},venue
Bar do Chico's,,,,,,,,-22.9152559,-43.2266781,2026-05-25T00:21:26.075929+00:00,approved,active,Brazil,community,osm_venues_br_v4,br_00032,br_venues_batch_v4,2026-05-25T00:21:26.075929+00:00,osm_import_terminal_v4,{},venue
Bar e Lancheria Alto Astral,666 Rua dos Andradas,,,,,,,-30.0316749,-51.2350944,2026-05-25T00:21:26.075929+00:00,approved,active,Brazil,community,osm_venues_br_v4,br_00033,br_venues_batch_v4,2026-05-25T00:21:26.075929+00:00,osm_import_terminal_v4,{},venue
Bar do Gomes,,,,,,,,-22.9140256,-43.1826779,2026-05-25T00:21:26.075929+00:00,approved,active,Brazil,community,osm_venues_br_v4,br_00034,br_venues_batch_v4,2026-05-25T00:21:26.075929+00:00,osm_import_terminal_v4,{},venue
Alad'ns Bar (Frango Frito),2130 Rua Guajajaras,Belo Horizonte,,,,,,-19.9222819,-43.9528477,2026-05-25T00:21:26.075929+00:00,approved,active,Brazil,community,osm_venues_br_v4,br_00035,br_venues_batch_v4,2026-05-25T00:21:26.075929+00:00,osm_import_terminal_v4,{},venue
Excellence Bar e Restaurante,,,,,,,,-23.5571585,-46.6755567,2026-05-25T00:21:26.075929+00:00,approved,active,Brazil,community,osm_venues_br_v4,br_00036,br_venues_batch_v4,2026-05-25T00:21:26.075929+00:00,osm_import_terminal_v4,{},venue
Bar do Mineiro,,,,,,,,-22.9210969,-43.1869165,2026-05-25T00:21:26.075929+00:00,approved,active,Brazil,community,osm_venues_br_v4,br_00037,br_venues_batch_v4,2026-05-25T00:21:26.075929+00:00,osm_import_terminal_v4,{},venue
Bar do Arnaudo,,,,,,,,-22.9211034,-43.1849863,2026-05-25T00:21:26.075929+00:00,approved,active,Brazil,community,osm_venues_br_v4,br_00038,br_venues_batch_v4,2026-05-25T00:21:26.075929+00:00,osm_import_terminal_v4,{},venue
Bar do Italiano,,,,,,,,-22.9491509,-43.1859011,2026-05-25T00:21:26.075929+00:00,approved,active,Brazil,community,osm_venues_br_v4,br_00039,br_venues_batch_v4,2026-05-25T00:21:26.075929+00:00,osm_import_terminal_v4,{},venue
Morro da Villa Bar e Restaurante‎,15 Rua Jericó,São Paulo,,05435-040,+55 11 3812-8251,,,-23.5530479,-46.6883078,2026-05-25T00:21:26.075929+00:00,approved,active,Brazil,community,osm_venues_br_v4,br_00040,br_venues_batch_v4,2026-05-25T00:21:26.075929+00:00,osm_import_terminal_v4,{},venue
Bar Ipiranga,117 Rua Ipiranga,Rio de Janeiro,,,+55-21-22255271,,,-22.9356766,-43.1808561,2026-05-25T00:21:26.075929+00:00,approved,active,Brazil,community,osm_venues_br_v4,br_00041,br_venues_batch_v4,2026-05-25T00:21:26.075929+00:00,osm_import_terminal_v4,{},venue
Guanabara,Rua Buarque de Macedo,Rio de Janeiro,,,,,,-22.9292672,-43.1750963,2026-05-25T00:21:26.075929+00:00,approved,active,Brazil,community,osm_venues_br_v4,br_00042,br_venues_batch_v4,2026-05-25T00:21:26.075929+00:00,osm_import_terminal_v4,{},venue
Bar do Manoel,,,,,,,,-22.9538687,-43.1743569,2026-05-25T00:21:26.075929+00:00,approved,active,Brazil,community,osm_venues_br_v4,br_00043,br_venues_batch_v4,2026-05-25T00:21:26.075929+00:00,osm_import_terminal_v4,{},venue
Bar do Cabral,,,,,,,,-19.939005,-43.918923,2026-05-25T00:21:26.075929+00:00,approved,active,Brazil,community,osm_venues_br_v4,br_00044,br_venues_batch_v4,2026-05-25T00:21:26.075929+00:00,osm_import_terminal_v4,{},venue
Braca Bar,,,,,,,,-19.9324487,-43.9421592,2026-05-25T00:21:26.075929+00:00,approved,active,Brazil,community,osm_venues_br_v4,br_00045,br_venues_batch_v4,2026-05-25T00:21:26.075929+00:00,osm_import_terminal_v4,{},venue
Barbazul,Avenida Getúlio Vargas,Belo Horizonte,,,,,,-19.932719,-43.9261516,2026-05-25T00:21:26.075929+00:00,approved,active,Brazil,community,osm_venues_br_v4,br_00046,br_venues_batch_v4,2026-05-25T00:21:26.075929+00:00,osm_import_terminal_v4,{},venue
Barbavéia,,,,,,,,-19.9318741,-43.924542,2026-05-25T00:21:26.075929+00:00,approved,active,Brazil,community,osm_venues_br_v4,br_00047,br_venues_batch_v4,2026-05-25T00:21:26.075929+00:00,osm_import_terminal_v4,{},venue
Top Bar,,,,,,,,-19.9203057,-43.9383414,2026-05-25T00:21:26.075929+00:00,approved,active,Brazil,community,osm_venues_br_v4,br_00048,br_venues_batch_v4,2026-05-25T00:21:26.075929+00:00,osm_import_terminal_v4,{},venue
Tequila's Bar e Restaurante,,,,,,,,-23.5580327,-46.6339058,2026-05-25T00:21:26.075929+00:00,approved,active,Brazil,community,osm_venues_br_v4,br_00049,br_venues_batch_v4,2026-05-25T00:21:26.075929+00:00,osm_import_terminal_v4,{},venue
Bar Pity,,,,,,,,-19.9388597,-43.9270698,2026-05-25T00:21:26.075929+00:00,approved,active,Brazil,community,osm_venues_br_v4,br_00050,br_venues_batch_v4,2026-05-25T00:21:26.075929+00:00,osm_import_terminal_v4,{},venue
Bar Jorro,,,,,,,,-12.7683523,-38.2857876,2026-05-25T00:21:26.075929+00:00,approved,active,Brazil,community,osm_venues_br_v4,br_00051,br_venues_batch_v4,2026-05-25T00:21:26.075929+00:00,osm_import_terminal_v4,{},venue
Bar da Máfia Azul,,,,,,,,-19.919672,-43.9476232,2026-05-25T00:21:26.075929+00:00,approved,active,Brazil,community,osm_venues_br_v4,br_00052,br_venues_batch_v4,2026-05-25T00:21:26.075929+00:00,osm_import_terminal_v4,{},venue
Bar Casa de Francisca,190 Al. José Maria Lisboa,,,01423-000,,,,-23.5707183,-46.6547996,2026-05-25T00:21:26.075929+00:00,approved,active,Brazil,community,osm_venues_br_v4,br_00053,br_venues_batch_v4,2026-05-25T00:21:26.075929+00:00,osm_import_terminal_v4,{},venue
Nobar,,,,,,,,-23.5731694,-46.6577096,2026-05-25T00:21:26.075929+00:00,approved,active,Brazil,community,osm_venues_br_v4,br_00054,br_venues_batch_v4,2026-05-25T00:21:26.075929+00:00,osm_import_terminal_v4,{},venue
Bar do João,,,,,,,,-19.9370383,-43.93438,2026-05-25T00:21:26.075929+00:00,approved,active,Brazil,community,osm_venues_br_v4,br_00055,br_venues_batch_v4,2026-05-25T00:21:26.075929+00:00,osm_import_terminal_v4,{},venue
Bar do Doca,,,,,,,,-19.9371118,-43.9593152,2026-05-25T00:21:26.075929+00:00,approved,active,Brazil,community,osm_venues_br_v4,br_00056,br_venues_batch_v4,2026-05-25T00:21:26.075929+00:00,osm_import_terminal_v4,{},venue
Bar da Neca,,,,,,,,-19.9456165,-43.9308988,2026-05-25T00:21:26.075929+00:00,approved,active,Brazil,community,osm_venues_br_v4,br_00057,br_venues_batch_v4,2026-05-25T00:21:26.075929+00:00,osm_import_terminal_v4,{},venue
Bar da Ladeira,,,,,,,,-22.9138369,-43.1799709,2026-05-25T00:21:26.075929+00:00,approved,active,Brazil,community,osm_venues_br_v4,br_00058,br_venues_batch_v4,2026-05-25T00:21:26.075929+00:00,osm_import_terminal_v4,{},venue
Lapa Irish Pub,,,,,,,,-22.9137054,-43.1799253,2026-05-25T00:21:26.075929+00:00,approved,active,Brazil,community,osm_venues_br_v4,br_00059,br_venues_batch_v4,2026-05-25T00:21:26.075929+00:00,osm_import_terminal_v4,{},venue
Pizzaria Guanabara,,,,,,,,-22.9138764,-43.1790914,2026-05-25T00:21:26.075929+00:00,approved,active,Brazil,community,osm_venues_br_v4,br_00060,br_venues_batch_v4,2026-05-25T00:21:26.075929+00:00,osm_import_terminal_v4,{},venue
Bar dos Rob,,,,,,,,-22.9143011,-43.179193,2026-05-25T00:21:26.075929+00:00,approved,active,Brazil,community,osm_venues_br_v4,br_00061,br_venues_batch_v4,2026-05-25T00:21:26.075929+00:00,osm_import_terminal_v4,{},venue
Victor Bar e Restaurante,,,,,,,,-22.913745,-43.1815537,2026-05-25T00:21:26.075929+00:00,approved,active,Brazil,community,osm_venues_br_v4,br_00062,br_venues_batch_v4,2026-05-25T00:21:26.075929+00:00,osm_import_terminal_v4,{},venue
Bartiquim,74 Pirité,,,,,,,-19.9117717,-43.9112904,2026-05-25T00:21:26.075929+00:00,approved,active,Brazil,community,osm_venues_br_v4,br_00063,br_venues_batch_v4,2026-05-25T00:21:26.075929+00:00,osm_import_terminal_v4,{},venue
Bar do Pedro,,,,,,,,-19.9156016,-43.9140971,2026-05-25T00:21:26.075929+00:00,approved,active,Brazil,community,osm_venues_br_v4,br_00064,br_venues_batch_v4,2026-05-25T00:21:26.075929+00:00,osm_import_terminal_v4,{},venue
Bar do Orlando,,,,,,,,-19.9163366,-43.9107642,2026-05-25T00:21:26.075929+00:00,approved,active,Brazil,community,osm_venues_br_v4,br_00065,br_venues_batch_v4,2026-05-25T00:21:26.075929+00:00,osm_import_terminal_v4,{},venue
Bar sem Nome,,,,,,,,-19.910143,-43.9162467,2026-05-25T00:21:26.075929+00:00,approved,active,Brazil,community,osm_venues_br_v4,br_00066,br_venues_batch_v4,2026-05-25T00:21:26.075929+00:00,osm_import_terminal_v4,{},venue
Bar Medieval,,,,,,,,-19.9140317,-43.9153186,2026-05-25T00:21:26.075929+00:00,approved,active,Brazil,community,osm_venues_br_v4,br_00067,br_venues_batch_v4,2026-05-25T00:21:26.075929+00:00,osm_import_terminal_v4,{},venue
Bar do 1000Tom,,,,,,,,-19.9170377,-43.9145408,2026-05-25T00:21:26.075929+00:00,approved,active,Brazil,community,osm_venues_br_v4,br_00068,br_venues_batch_v4,2026-05-25T00:21:26.075929+00:00,osm_import_terminal_v4,{},venue
Bar 147,,,,,,,,-19.9175824,-43.9234833,2026-05-25T00:21:26.075929+00:00,approved,active,Brazil,community,osm_venues_br_v4,br_00069,br_venues_batch_v4,2026-05-25T00:21:26.075929+00:00,osm_import_terminal_v4,{},venue
Bar do Edmundo,,,,,,,,-19.918233,-43.9235745,2026-05-25T00:21:26.075929+00:00,approved,active,Brazil,community,osm_venues_br_v4,br_00070,br_venues_batch_v4,2026-05-25T00:21:26.075929+00:00,osm_import_terminal_v4,{},venue
Bar Charlotte,,,,,,,,-19.9170932,-43.915147,2026-05-25T00:21:26.075929+00:00,approved,active,Brazil,community,osm_venues_br_v4,br_00071,br_venues_batch_v4,2026-05-25T00:21:26.075929+00:00,osm_import_terminal_v4,{},venue
Bar Temático,,,,,,,,-19.9116936,-43.9111161,2026-05-25T00:21:26.075929+00:00,approved,active,Brazil,community,osm_venues_br_v4,br_00072,br_venues_batch_v4,2026-05-25T00:21:26.075929+00:00,osm_import_terminal_v4,{},venue
Antonius Bar,,,,,,,,-19.9392532,-43.9313175,2026-05-25T00:21:26.075929+00:00,approved,active,Brazil,community,osm_venues_br_v4,br_00073,br_venues_batch_v4,2026-05-25T00:21:26.075929+00:00,osm_import_terminal_v4,{},venue
Bar Tudo Legal,,,,,,,,-19.936758,-43.9454952,2026-05-25T00:21:26.075929+00:00,approved,active,Brazil,community,osm_venues_br_v4,br_00074,br_venues_batch_v4,2026-05-25T00:21:26.075929+00:00,osm_import_terminal_v4,{},venue
Bar Altas Horas,,,,,,,,-19.9360012,-43.9454534,2026-05-25T00:21:26.075929+00:00,approved,active,Brazil,community,osm_venues_br_v4,br_00075,br_venues_batch_v4,2026-05-25T00:21:26.075929+00:00,osm_import_terminal_v4,{},venue
Bar do Osmar,,,,,,,,-22.9356539,-43.1772882,2026-05-25T00:21:26.075929+00:00,approved,active,Brazil,community,osm_venues_br_v4,br_00076,br_venues_batch_v4,2026-05-25T00:21:26.075929+00:00,osm_import_terminal_v4,{},venue
Bar do Carlão,,,,,,,,-30.0251258,-51.2148284,2026-05-25T00:21:26.075929+00:00,approved,active,Brazil,community,osm_venues_br_v4,br_00077,br_venues_batch_v4,2026-05-25T00:21:26.075929+00:00,osm_import_terminal_v4,{},venue
Margherita Bar,1172 Rua da Bahia,Belo Horizonte,,30160-011,,,,-19.925273,-43.9376563,2026-05-25T00:21:26.075929+00:00,approved,active,Brazil,community,osm_venues_br_v4,br_00078,br_venues_batch_v4,2026-05-25T00:21:26.075929+00:00,osm_import_terminal_v4,{},venue
Bar do Ricardo,,,,,+55 31 2511-6672,,,-19.9656622,-43.9818828,2026-05-25T00:21:26.075929+00:00,approved,active,Brazil,community,osm_venues_br_v4,br_00079,br_venues_batch_v4,2026-05-25T00:21:26.075929+00:00,osm_import_terminal_v4,{},venue
Ximbungo's Bar,,,,,,,,-19.9657222,-43.9826989,2026-05-25T00:21:26.075929+00:00,approved,active,Brazil,community,osm_venues_br_v4,br_00080,br_venues_batch_v4,2026-05-25T00:21:26.075929+00:00,osm_import_terminal_v4,{},venue
Bar do Luizão,,,,,,,,-19.9657373,-43.9873168,2026-05-25T00:21:26.075929+00:00,approved,active,Brazil,community,osm_venues_br_v4,br_00081,br_venues_batch_v4,2026-05-25T00:21:26.075929+00:00,osm_import_terminal_v4,{},venue
Barello Burguer,Rua Barão da Passagem,,,,,,,-23.5246382,-46.7328202,2026-05-25T00:21:26.075929+00:00,approved,active,Brazil,community,osm_venues_br_v4,br_00082,br_venues_batch_v4,2026-05-25T00:21:26.075929+00:00,osm_import_terminal_v4,{},venue
Bar do Paulinho,,,,,,,,-19.9393702,-43.9460256,2026-05-25T00:21:26.075929+00:00,approved,active,Brazil,community,osm_venues_br_v4,br_00083,br_venues_batch_v4,2026-05-25T00:21:26.075929+00:00,osm_import_terminal_v4,{},venue
Sushi Bar,,,,,,,,-22.9135847,-43.181403,2026-05-25T00:21:26.075929+00:00,approved,active,Brazil,community,osm_venues_br_v4,br_00084,br_venues_batch_v4,2026-05-25T00:21:26.075929+00:00,osm_import_terminal_v4,{},venue
Bar da Lapa,69 Avenida Mem de Sá,Rio de Janeiro,,20230-150,,,,-22.913332,-43.1814902,2026-05-25T00:21:26.075929+00:00,approved,active,Brazil,community,osm_venues_br_v4,br_00085,br_venues_batch_v4,2026-05-25T00:21:26.075929+00:00,osm_import_terminal_v4,{},venue
Bar Flor do Recreio,,,,,,,,-22.9144339,-43.1894833,2026-05-25T00:21:26.075929+00:00,approved,active,Brazil,community,osm_venues_br_v4,br_00086,br_venues_batch_v4,2026-05-25T00:21:26.075929+00:00,osm_import_terminal_v4,{},venue
Bar Elman (Gabiru),,,,,,,,-22.9146966,-43.1893478,2026-05-25T00:21:26.075929+00:00,approved,active,Brazil,community,osm_venues_br_v4,br_00087,br_venues_batch_v4,2026-05-25T00:21:26.075929+00:00,osm_import_terminal_v4,{},venue
Bar Floresta,,,,,,,,-19.9075751,-43.9337097,2026-05-25T00:21:26.075929+00:00,approved,active,Brazil,community,osm_venues_br_v4,br_00088,br_venues_batch_v4,2026-05-25T00:21:26.075929+00:00,osm_import_terminal_v4,{},venue
Bar do Edu,Rua Baluarte,São Paulo,,,,,,-23.6039527,-46.6770159,2026-05-25T00:21:26.075929+00:00,approved,active,Brazil,community,osm_venues_br_v4,br_00089,br_venues_batch_v4,2026-05-25T00:21:26.075929+00:00,osm_import_terminal_v4,{},venue
Bar do Didi - Iguaçu,3919 Avenida Iguaçu,Curitiba,,80240-031,,,,-25.4532501,-49.298279,2026-05-25T00:21:26.075929+00:00,approved,active,Brazil,community,osm_venues_br_v4,br_00090,br_venues_batch_v4,2026-05-25T00:21:26.075929+00:00,osm_import_terminal_v4,{},venue
Barril 80,,,,,,,,-22.9028962,-43.1793438,2026-05-25T00:21:26.075929+00:00,approved,active,Brazil,community,osm_venues_br_v4,br_00091,br_venues_batch_v4,2026-05-25T00:21:26.075929+00:00,osm_import_terminal_v4,{},venue
Bar Nevada,,,,,,,,-22.9316614,-43.2466318,2026-05-25T00:21:26.075929+00:00,approved,active,Brazil,community,osm_venues_br_v4,br_00092,br_venues_batch_v4,2026-05-25T00:21:26.075929+00:00,osm_import_terminal_v4,{},venue
Barracão Butequim,,,,,,http://barracaobutiquim.blogspot.com/,,-19.9102221,-43.9030408,2026-05-25T00:21:26.075929+00:00,approved,active,Brazil,community,osm_venues_br_v4,br_00093,br_venues_batch_v4,2026-05-25T00:21:26.075929+00:00,osm_import_terminal_v4,{},venue
Bar Aurora,,,,,,,,-23.5897587,-46.6804604,2026-05-25T00:21:26.075929+00:00,approved,active,Brazil,community,osm_venues_br_v4,br_00094,br_venues_batch_v4,2026-05-25T00:21:26.075929+00:00,osm_import_terminal_v4,{},venue
Lanikai Tiki Bar,,,,,,,,-19.9463404,-43.9309609,2026-05-25T00:21:26.075929+00:00,approved,active,Brazil,community,osm_venues_br_v4,br_00095,br_venues_batch_v4,2026-05-25T00:21:26.075929+00:00,osm_import_terminal_v4,{},venue
Bar do Galo,,,,,,,,-19.8621087,-43.9712119,2026-05-25T00:21:26.075929+00:00,approved,active,Brazil,community,osm_venues_br_v4,br_00096,br_venues_batch_v4,2026-05-25T00:21:26.075929+00:00,osm_import_terminal_v4,{},venue
Apetite Bar & Restaurante,,,,,,,,-19.9176807,-43.9360079,2026-05-25T00:21:26.075929+00:00,approved,active,Brazil,community,osm_venues_br_v4,br_00097,br_venues_batch_v4,2026-05-25T00:21:26.075929+00:00,osm_import_terminal_v4,{},venue
Bar /Restaurante,,,,,,,,-19.9337897,-43.9524194,2026-05-25T00:21:26.075929+00:00,approved,active,Brazil,community,osm_venues_br_v4,br_00098,br_venues_batch_v4,2026-05-25T00:21:26.075929+00:00,osm_import_terminal_v4,{},venue
Bar do John,,,,,,,,-19.9443037,-43.9316319,2026-05-25T00:21:26.075929+00:00,approved,active,Brazil,community,osm_venues_br_v4,br_00099,br_venues_batch_v4,2026-05-25T00:21:26.075929+00:00,osm_import_terminal_v4,{},venue
Bar do Mandruva,,,,,,,,-19.9411872,-43.9489722,2026-05-25T00:21:26.075929+00:00,approved,active,Brazil,community,osm_venues_br_v4,br_00100,br_venues_batch_v4,2026-05-25T00:21:26.075929+00:00,osm_import_terminal_v4,{},venue
Bar Bias Fortes,,,,,,,,-19.9274668,-43.9424067,2026-05-25T00:21:26.075929+00:00,approved,active,Brazil,community,osm_venues_br_v4,br_00101,br_venues_batch_v4,2026-05-25T00:21:26.075929+00:00,osm_import_terminal_v4,{},venue
Bar Belmonte,300 Praia do Flamengo,,,22210-065,,https://botecobelmonte.com.br/,,-22.935256,-43.1744285,2026-05-25T00:21:26.075929+00:00,approved,active,Brazil,community,osm_venues_br_v4,br_00102,br_venues_batch_v4,2026-05-25T00:21:26.075929+00:00,osm_import_terminal_v4,{},venue
Guga's bar,,,,,,,,-19.9204055,-43.9437659,2026-05-25T00:21:26.075929+00:00,approved,active,Brazil,community,osm_venues_br_v4,br_00103,br_venues_batch_v4,2026-05-25T00:21:26.075929+00:00,osm_import_terminal_v4,{},venue
Bar Liberdade,,,,,,,,-19.9331507,-43.9369708,2026-05-25T00:21:26.075929+00:00,approved,active,Brazil,community,osm_venues_br_v4,br_00104,br_venues_batch_v4,2026-05-25T00:21:26.075929+00:00,osm_import_terminal_v4,{},venue
Bar e Mercearia da Serra,,,,,,,,-19.9438011,-43.9200653,2026-05-25T00:21:26.075929+00:00,approved,active,Brazil,community,osm_venues_br_v4,br_00105,br_venues_batch_v4,2026-05-25T00:21:26.075929+00:00,osm_import_terminal_v4,{},venue
Gaúchos Bar & Restaurante,,,,,,,,-23.6077122,-46.7547678,2026-05-25T00:21:26.075929+00:00,approved,active,Brazil,community,osm_venues_br_v4,br_00106,br_venues_batch_v4,2026-05-25T00:21:26.075929+00:00,osm_import_terminal_v4,{},venue
Bar do Caçapa,,,,,,,,-19.9397517,-43.9175332,2026-05-25T00:21:26.075929+00:00,approved,active,Brazil,community,osm_venues_br_v4,br_00107,br_venues_batch_v4,2026-05-25T00:21:26.075929+00:00,osm_import_terminal_v4,{},venue
Excalibur Fleming Pub,,,,,,,,-19.871722,-43.9870807,2026-05-25T00:21:26.075929+00:00,approved,active,Brazil,community,osm_venues_br_v4,br_00108,br_venues_batch_v4,2026-05-25T00:21:26.075929+00:00,osm_import_terminal_v4,{},venue
Pensão e Bar da Ivete,,,,,,,,-22.8254211,-43.3102404,2026-05-25T00:21:26.075929+00:00,approved,active,Brazil,community,osm_venues_br_v4,br_00109,br_venues_batch_v4,2026-05-25T00:21:26.075929+00:00,osm_import_terminal_v4,{},venue
Bar dos Amigos,1208 Estrada da Água Grande,,,,,,,-22.8264537,-43.3153956,2026-05-25T00:21:26.075929+00:00,approved,active,Brazil,community,osm_venues_br_v4,br_00110,br_venues_batch_v4,2026-05-25T00:21:26.075929+00:00,osm_import_terminal_v4,{},venue
Bar do Caixote,,,,,,,,-19.9251727,-44.0009961,2026-05-25T00:21:26.075929+00:00,approved,active,Brazil,community,osm_venues_br_v4,br_00111,br_venues_batch_v4,2026-05-25T00:21:26.075929+00:00,osm_import_terminal_v4,{},venue
Bar dos Amigos,,,,,+55-21-82461330,,,-22.9243013,-43.1786844,2026-05-25T00:21:26.075929+00:00,approved,active,Brazil,community,osm_venues_br_v4,br_00112,br_venues_batch_v4,2026-05-25T00:21:26.075929+00:00,osm_import_terminal_v4,{},venue
Bar Ideal,,,,,,,,-19.9369512,-43.9378504,2026-05-25T00:21:26.075929+00:00,approved,active,Brazil,community,osm_venues_br_v4,br_00113,br_venues_batch_v4,2026-05-25T00:21:26.075929+00:00,osm_import_terminal_v4,{},venue
Bar do João,,,,,,,,-19.9074882,-43.9640703,2026-05-25T00:21:26.075929+00:00,approved,active,Brazil,community,osm_venues_br_v4,br_00114,br_venues_batch_v4,2026-05-25T00:21:26.075929+00:00,osm_import_terminal_v4,{},venue
DaDo Pub (FECHADO),"R. Fernando Gomes, 80 - Moinhos de Vento, Porto Alegre - RS, 90510-010",,,,+55 51 3395-1468,https://www.dadobier.com.br/,,-30.0262447,-51.2051315,2026-05-25T00:21:26.075929+00:00,approved,active,Brazil,community,osm_venues_br_v4,br_00115,br_venues_batch_v4,2026-05-25T00:21:26.075929+00:00,osm_import_terminal_v4,{},venue
Thomas Pub,330 Rua Padre Chagas,Porto Alegre,,,,,,-30.0242283,-51.2025996,2026-05-25T00:21:26.075929+00:00,approved,active,Brazil,community,osm_venues_br_v4,br_00116,br_venues_batch_v4,2026-05-25T00:21:26.075929+00:00,osm_import_terminal_v4,{},venue
Bar da Dona Maria,,,,,,,,-22.9355263,-43.2444142,2026-05-25T00:21:26.075929+00:00,approved,active,Brazil,community,osm_venues_br_v4,br_00117,br_venues_batch_v4,2026-05-25T00:21:26.075929+00:00,osm_import_terminal_v4,{},venue
Raro Bar e Grill,448 lj A Rua Voluntários da Pátria,,,,(21)2537-8108,,,-22.9558256,-43.1972416,2026-05-25T00:21:26.075929+00:00,approved,active,Brazil,community,osm_venues_br_v4,br_00118,br_venues_batch_v4,2026-05-25T00:21:26.075929+00:00,osm_import_terminal_v4,{},venue
Bar do Belmiro,,,,,,,,-22.9533575,-43.1975329,2026-05-25T00:21:26.075929+00:00,approved,active,Brazil,community,osm_venues_br_v4,br_00119,br_venues_batch_v4,2026-05-25T00:21:26.075929+00:00,osm_import_terminal_v4,{},venue
Bar do Gomez (Armazém São Thiago),,,,,,,,-22.9213004,-43.1894948,2026-05-25T00:21:26.075929+00:00,approved,active,Brazil,community,osm_venues_br_v4,br_00120,br_venues_batch_v4,2026-05-25T00:21:26.075929+00:00,osm_import_terminal_v4,{},venue
Bar do Antônio,,,,,,,,-19.948503,-43.9338936,2026-05-25T00:21:26.075929+00:00,approved,active,Brazil,community,osm_venues_br_v4,br_00121,br_venues_batch_v4,2026-05-25T00:21:26.075929+00:00,osm_import_terminal_v4,{},venue
BAR 15,,,,,,,,-30.0590144,-51.1744446,2026-05-25T00:21:26.075929+00:00,approved,active,Brazil,community,osm_venues_br_v4,br_00122,br_venues_batch_v4,2026-05-25T00:21:26.075929+00:00,osm_import_terminal_v4,{},venue
Bar 30,,,,,,,,-30.0597758,-51.1745278,2026-05-25T00:21:26.075929+00:00,approved,active,Brazil,community,osm_venues_br_v4,br_00123,br_venues_batch_v4,2026-05-25T00:21:26.075929+00:00,osm_import_terminal_v4,{},venue
Ali Ba Bar,345 Rua Matias Cardoso,,,,,,,-19.9330097,-43.9545872,2026-05-25T00:21:26.075929+00:00,approved,active,Brazil,community,osm_venues_br_v4,br_00124,br_venues_batch_v4,2026-05-25T00:21:26.075929+00:00,osm_import_terminal_v4,{},venue
Autentico's Bar,895 Avenida Professor Mário Werneck,,,,,,,-19.9669788,-43.9606544,2026-05-25T00:21:26.075929+00:00,approved,active,Brazil,community,osm_venues_br_v4,br_00125,br_venues_batch_v4,2026-05-25T00:21:26.075929+00:00,osm_import_terminal_v4,{},venue
Bar da Cida,287 Rua Numa Nogueira,,,,,,,-19.8386614,-43.9301994,2026-05-25T00:21:26.075929+00:00,approved,active,Brazil,community,osm_venues_br_v4,br_00126,br_venues_batch_v4,2026-05-25T00:21:26.075929+00:00,osm_import_terminal_v4,{},venue
Bar do João,,,,,,,,-19.826876,-43.9647772,2026-05-25T00:21:26.075929+00:00,approved,active,Brazil,community,osm_venues_br_v4,br_00127,br_venues_batch_v4,2026-05-25T00:21:26.075929+00:00,osm_import_terminal_v4,{},venue
Barção Moreira,493 Rua Mombaça,,,,,,,-19.8519534,-43.912707,2026-05-25T00:21:26.075929+00:00,approved,active,Brazil,community,osm_venues_br_v4,br_00128,br_venues_batch_v4,2026-05-25T00:21:26.075929+00:00,osm_import_terminal_v4,{},venue
Bar e Cervejaria Brasil,,,,,,,,-19.9317742,-43.9256463,2026-05-25T00:21:26.075929+00:00,approved,active,Brazil,community,osm_venues_br_v4,br_00129,br_venues_batch_v4,2026-05-25T00:21:26.075929+00:00,osm_import_terminal_v4,{},venue
Bar Original,137 Rua Graúna,,,04514-000,,https://www.baroriginal.com.br/,,-23.6000019,-46.6728095,2026-05-25T00:21:26.075929+00:00,approved,active,Brazil,community,osm_venues_br_v4,br_00130,br_venues_batch_v4,2026-05-25T00:21:26.075929+00:00,osm_import_terminal_v4,{},venue
Bar da Tiana,,,,,,,,-19.9018363,-43.9750257,2026-05-25T00:21:26.075929+00:00,approved,active,Brazil,community,osm_venues_br_v4,br_00131,br_venues_batch_v4,2026-05-25T00:21:26.075929+00:00,osm_import_terminal_v4,{},venue
Seis & Meia Bar,2180 Rua Chile,,,,,http://www.seisemeiabar.com.br/,,-25.4522531,-49.2698658,2026-05-25T00:21:26.075929+00:00,approved,active,Brazil,community,osm_venues_br_v4,br_00132,br_venues_batch_v4,2026-05-25T00:21:26.075929+00:00,osm_import_terminal_v4,{},venue
Schult's Espeto Bar,,,,,,,,-19.9323434,-43.936542,2026-05-25T00:21:26.075929+00:00,approved,active,Brazil,community,osm_venues_br_v4,br_00133,br_venues_batch_v4,2026-05-25T00:21:26.075929+00:00,osm_import_terminal_v4,{},venue
Carnaúbar Bar e Restaurante,,,,,,,,-23.6244732,-46.6627979,2026-05-25T00:21:26.075929+00:00,approved,active,Brazil,community,osm_venues_br_v4,br_00134,br_venues_batch_v4,2026-05-25T00:21:26.075929+00:00,osm_import_terminal_v4,{},venue
Bar da Piscina,,,,,,,,-23.5947018,-46.6522327,2026-05-25T00:21:26.075929+00:00,approved,active,Brazil,community,osm_venues_br_v4,br_00135,br_venues_batch_v4,2026-05-25T00:21:26.075929+00:00,osm_import_terminal_v4,{},venue
Bar das Portuguesas,1645 Rua Madre de Deus,São Paulo,,03119-001,,,,-23.5673847,-46.5885988,2026-05-25T00:21:26.075929+00:00,approved,active,Brazil,community,osm_venues_br_v4,br_00136,br_venues_batch_v4,2026-05-25T00:21:26.075929+00:00,osm_import_terminal_v4,{},venue
Paxeco Bar,724D Rua Pacheco Leão,,,,+55-21-31148710,http://www.paxecobar.com.br/,,-22.9653937,-43.2259749,2026-05-25T00:21:26.075929+00:00,approved,active,Brazil,community,osm_venues_br_v4,br_00137,br_venues_batch_v4,2026-05-25T00:21:26.075929+00:00,osm_import_terminal_v4,{},venue
Dom Barcellos,,,,,,,,-22.9118738,-43.2020565,2026-05-25T00:21:26.075929+00:00,approved,active,Brazil,community,osm_venues_br_v4,br_00138,br_venues_batch_v4,2026-05-25T00:21:26.075929+00:00,osm_import_terminal_v4,{},venue
Bar do Lú,,,,,,,,-19.9781045,-44.0261548,2026-05-25T00:21:26.075929+00:00,approved,active,Brazil,community,osm_venues_br_v4,br_00139,br_venues_batch_v4,2026-05-25T00:21:26.075929+00:00,osm_import_terminal_v4,{},venue
Bar do Lú - Peixes,,,,,,,,-19.9769694,-44.0207793,2026-05-25T00:21:26.075929+00:00,approved,active,Brazil,community,osm_venues_br_v4,br_00140,br_venues_batch_v4,2026-05-25T00:21:26.075929+00:00,osm_import_terminal_v4,{},venue
Bar do Nono,,,,,,,,-19.9426364,-43.9322828,2026-05-25T00:21:26.075929+00:00,approved,active,Brazil,community,osm_venues_br_v4,br_00141,br_venues_batch_v4,2026-05-25T00:21:26.075929+00:00,osm_import_terminal_v4,{},venue
Bar do Maurício,,,,,,,,-22.8238574,-43.1774615,2026-05-25T00:21:26.075929+00:00,approved,active,Brazil,community,osm_venues_br_v4,br_00142,br_venues_batch_v4,2026-05-25T00:21:26.075929+00:00,osm_import_terminal_v4,{},venue
Bar do Walter,,,,,,,,-22.8232339,-43.1775956,2026-05-25T00:21:26.075929+00:00,approved,active,Brazil,community,osm_venues_br_v4,br_00143,br_venues_batch_v4,2026-05-25T00:21:26.075929+00:00,osm_import_terminal_v4,{},venue
The Clock Rock Bar,806 Rua Turiassú,,,05006-000,,https://www.theclock.com.br/,,-23.5326133,-46.6707794,2026-05-25T00:21:26.075929+00:00,approved,active,Brazil,community,osm_venues_br_v4,br_00144,br_venues_batch_v4,2026-05-25T00:21:26.075929+00:00,osm_import_terminal_v4,{},venue
Barezinho Butequim,738 Montes Claros,,,,,http://www.facebook.com/barezinhobutiquim,,-19.9460098,-43.9286452,2026-05-25T00:21:26.075929+00:00,approved,active,Brazil,community,osm_venues_br_v4,br_00145,br_venues_batch_v4,2026-05-25T00:21:26.075929+00:00,osm_import_terminal_v4,{},venue
Bar da Anita,,,,,,,,-19.9685355,-43.9846666,2026-05-25T00:21:26.075929+00:00,approved,active,Brazil,community,osm_venues_br_v4,br_00146,br_venues_batch_v4,2026-05-25T00:21:26.075929+00:00,osm_import_terminal_v4,{},venue
Jacka's Bar,,,,,,,,-19.9684474,-43.9845003,2026-05-25T00:21:26.075929+00:00,approved,active,Brazil,community,osm_venues_br_v4,br_00147,br_venues_batch_v4,2026-05-25T00:21:26.075929+00:00,osm_import_terminal_v4,{},venue
Bar da Baiana,,,,,,,,-22.9316851,-43.2466778,2026-05-25T00:21:26.075929+00:00,approved,active,Brazil,community,osm_venues_br_v4,br_00148,br_venues_batch_v4,2026-05-25T00:21:26.075929+00:00,osm_import_terminal_v4,{},venue
Barão de Copa,,,,,,,,-22.9749941,-43.189702,2026-05-25T00:21:26.075929+00:00,approved,active,Brazil,community,osm_venues_br_v4,br_00149,br_venues_batch_v4,2026-05-25T00:21:26.075929+00:00,osm_import_terminal_v4,{},venue
Katarina's Bar,1172 Rua Boaventura,,,,,,,-19.8615644,-43.9561452,2026-05-25T00:21:26.075929+00:00,approved,active,Brazil,community,osm_venues_br_v4,br_00150,br_venues_batch_v4,2026-05-25T00:21:26.075929+00:00,osm_import_terminal_v4,{},venue
Bar do Adão,105 Avenida Engenheiro Richard,,,,+55 21 2577-0730,https://www.bardoadao.com.br/,,-22.9218985,-43.2623977,2026-05-25T00:21:26.075929+00:00,approved,active,Brazil,community,osm_venues_br_v4,br_00151,br_venues_batch_v4,2026-05-25T00:21:26.075929+00:00,osm_import_terminal_v4,{},venue
Bar e Restaurante Brasinha,,,,,,,,-23.4550992,-46.5664462,2026-05-25T00:21:26.075929+00:00,approved,active,Brazil,community,osm_venues_br_v4,br_00152,br_venues_batch_v4,2026-05-25T00:21:26.075929+00:00,osm_import_terminal_v4,{},venue
Bar Chora Menino,,,,,,,,-23.613946,-46.6174006,2026-05-25T00:21:26.075929+00:00,approved,active,Brazil,community,osm_venues_br_v4,br_00153,br_venues_batch_v4,2026-05-25T00:21:26.075929+00:00,osm_import_terminal_v4,{},venue
Bar do Lopes,,,,,,,,-23.6139133,-46.6170756,2026-05-25T00:21:26.075929+00:00,approved,active,Brazil,community,osm_venues_br_v4,br_00154,br_venues_batch_v4,2026-05-25T00:21:26.075929+00:00,osm_import_terminal_v4,{},venue
Cafofo Pub,100 Loja 105 Rua Nelson Mandela,Rio de Janeiro,,,,,,-22.9499065,-43.1849566,2026-05-25T00:21:26.075929+00:00,approved,active,Brazil,community,osm_venues_br_v4,br_00155,br_venues_batch_v4,2026-05-25T00:21:26.075929+00:00,osm_import_terminal_v4,{},venue
Olivo Espetu's bar,,,,,,,,-23.5339183,-46.6729498,2026-05-25T00:21:26.075929+00:00,approved,active,Brazil,community,osm_venues_br_v4,br_00156,br_venues_batch_v4,2026-05-25T00:21:26.075929+00:00,osm_import_terminal_v4,{},venue
Bar do Adão,,,,,,,,-22.9179854,-43.2378085,2026-05-25T00:21:26.075929+00:00,approved,active,Brazil,community,osm_venues_br_v4,br_00157,br_venues_batch_v4,2026-05-25T00:21:26.075929+00:00,osm_import_terminal_v4,{},venue
Bar do Edu,,,,,,,,-22.8280151,-43.3239775,2026-05-25T00:21:26.075929+00:00,approved,active,Brazil,community,osm_venues_br_v4,br_00158,br_venues_batch_v4,2026-05-25T00:21:26.075929+00:00,osm_import_terminal_v4,{},venue
BikeBar dos Amigos,,,,,,,,-22.9661578,-43.2297965,2026-05-25T00:21:26.075929+00:00,approved,active,Brazil,community,osm_venues_br_v4,br_00159,br_venues_batch_v4,2026-05-25T00:21:26.075929+00:00,osm_import_terminal_v4,{},venue
Bingo Bar e Restaurante,93 Rua Lopes Quintas,Rio de Janeiro,,22460-010,,,,-22.965011,-43.2194797,2026-05-25T00:21:26.075929+00:00,approved,active,Brazil,community,osm_venues_br_v4,br_00160,br_venues_batch_v4,2026-05-25T00:21:26.075929+00:00,osm_import_terminal_v4,{},venue
Bar do Zé,,,,,,,,-22.9238906,-43.1757318,2026-05-25T00:21:26.075929+00:00,approved,active,Brazil,community,osm_venues_br_v4,br_00161,br_venues_batch_v4,2026-05-25T00:21:26.075929+00:00,osm_import_terminal_v4,{},venue
Bar Varanda,,,,,,,,-22.8254173,-43.3117018,2026-05-25T00:21:26.075929+00:00,approved,active,Brazil,community,osm_venues_br_v4,br_00162,br_venues_batch_v4,2026-05-25T00:21:26.075929+00:00,osm_import_terminal_v4,{},venue
Bar do Gil,,,,,,,,-22.8444558,-43.3125383,2026-05-25T00:21:26.075929+00:00,approved,active,Brazil,community,osm_venues_br_v4,br_00163,br_venues_batch_v4,2026-05-25T00:21:26.075929+00:00,osm_import_terminal_v4,{},venue
Bar da Boca,,,,,,,,-30.0467004,-51.2071311,2026-05-25T00:21:26.075929+00:00,approved,active,Brazil,community,osm_venues_br_v4,br_00164,br_venues_batch_v4,2026-05-25T00:21:26.075929+00:00,osm_import_terminal_v4,{},venue
Bar do Bira,,,,,,,,-19.8347583,-44.0179684,2026-05-25T00:21:26.075929+00:00,approved,active,Brazil,community,osm_venues_br_v4,br_00165,br_venues_batch_v4,2026-05-25T00:21:26.075929+00:00,osm_import_terminal_v4,{},venue
Bar dos Guerreiros,Rua Comandante Coelho,,,,,,,-22.825434,-43.3083103,2026-05-25T00:21:26.075929+00:00,approved,active,Brazil,community,osm_venues_br_v4,br_00166,br_venues_batch_v4,2026-05-25T00:21:26.075929+00:00,osm_import_terminal_v4,{},venue
Bartô,,,,,,,,-22.8450515,-43.3109409,2026-05-25T00:21:26.075929+00:00,approved,active,Brazil,community,osm_venues_br_v4,br_00167,br_venues_batch_v4,2026-05-25T00:21:26.075929+00:00,osm_import_terminal_v4,{},venue
Cuica's Bar,,,,,,,,-22.8441202,-43.3092188,2026-05-25T00:21:26.075929+00:00,approved,active,Brazil,community,osm_venues_br_v4,br_00168,br_venues_batch_v4,2026-05-25T00:21:26.075929+00:00,osm_import_terminal_v4,{},venue
Bar Brahma,665 Avenida São João,São Paulo,,01035-100,,,,-23.542335,-46.6405953,2026-05-25T00:21:26.075929+00:00,approved,active,Brazil,community,osm_venues_br_v4,br_00169,br_venues_batch_v4,2026-05-25T00:21:26.075929+00:00,osm_import_terminal_v4,{},venue
Bar do Neto,Avenida Venâncio Pereira dos Santos,Santa Luzia,,,,,,-19.7813367,-43.9344306,2026-05-25T00:21:26.075929+00:00,approved,active,Brazil,community,osm_venues_br_v4,br_00170,br_venues_batch_v4,2026-05-25T00:21:26.075929+00:00,osm_import_terminal_v4,{},venue
Bar Rock,,,,,,,,-19.7830151,-43.9281918,2026-05-25T00:21:26.075929+00:00,approved,active,Brazil,community,osm_venues_br_v4,br_00171,br_venues_batch_v4,2026-05-25T00:21:26.075929+00:00,osm_import_terminal_v4,{},venue
Mulligan Irish Pub Paseo,,,,,+55 51 3019-8859,http://www.mulligan.com.br,,-30.1049037,-51.2549114,2026-05-25T00:21:26.075929+00:00,approved,active,Brazil,community,osm_venues_br_v4,br_00172,br_venues_batch_v4,2026-05-25T00:21:26.075929+00:00,osm_import_terminal_v4,{},venue
Bar do Goethe,112 Rua 24 de Outubro,,,90510-000,+55 51 2118-7818,http://www.bardogoethe.com.br,,-30.0278462,-51.2064139,2026-05-25T00:21:26.075929+00:00,approved,active,Brazil,community,osm_venues_br_v4,br_00173,br_venues_batch_v4,2026-05-25T00:21:26.075929+00:00,osm_import_terminal_v4,{},venue
BarBambu,,,,,,,,-19.9454753,-43.9818786,2026-05-25T00:21:26.075929+00:00,approved,active,Brazil,community,osm_venues_br_v4,br_00174,br_venues_batch_v4,2026-05-25T00:21:26.075929+00:00,osm_import_terminal_v4,{},venue
Bar da Curvinha,,,,,,,,-22.8484667,-43.3231902,2026-05-25T00:21:26.075929+00:00,approved,active,Brazil,community,osm_venues_br_v4,br_00175,br_venues_batch_v4,2026-05-25T00:21:26.075929+00:00,osm_import_terminal_v4,{},venue
Moeda Bar e Restaurante,Rua Cassiano do Nascimento,,,90010-070,,,,-30.0289253,-51.2302935,2026-05-25T00:21:26.075929+00:00,approved,active,Brazil,community,osm_venues_br_v4,br_00176,br_venues_batch_v4,2026-05-25T00:21:26.075929+00:00,osm_import_terminal_v4,{},venue
Barbarella,24 Rua Ministro Viveiros de Castro,,,,,,,-22.963224,-43.1750408,2026-05-25T00:21:26.075929+00:00,approved,active,Brazil,community,osm_venues_br_v4,br_00177,br_venues_batch_v4,2026-05-25T00:21:26.075929+00:00,osm_import_terminal_v4,{},venue
Bar da Loira,,,,,,,,-22.8385284,-43.3334612,2026-05-25T00:21:26.075929+00:00,approved,active,Brazil,community,osm_venues_br_v4,br_00178,br_venues_batch_v4,2026-05-25T00:21:26.075929+00:00,osm_import_terminal_v4,{},venue
Bar do Pato,,,,,,,,-23.6627185,-46.52483,2026-05-25T00:21:26.075929+00:00,approved,active,Brazil,community,osm_venues_br_v4,br_00179,br_venues_batch_v4,2026-05-25T00:21:26.075929+00:00,osm_import_terminal_v4,{},venue
Bar do Kari,,,,,,,,-23.6605479,-46.5270771,2026-05-25T00:21:26.075929+00:00,approved,active,Brazil,community,osm_venues_br_v4,br_00180,br_venues_batch_v4,2026-05-25T00:21:26.075929+00:00,osm_import_terminal_v4,{},venue
Bar Bodega do Sal,Largo João da Baiana,,,,,,,-22.8980938,-43.1856356,2026-05-25T00:21:26.075929+00:00,approved,active,Brazil,community,osm_venues_br_v4,br_00181,br_venues_batch_v4,2026-05-25T00:21:26.075929+00:00,osm_import_terminal_v4,{},venue
Bar Amigo Giannotti,1106 Rua Santo Antônio,São Paulo,,01314-001,,https://www.facebook.com/BarAmigoGiannotti,,-23.5541744,-46.6476537,2026-05-25T00:21:26.075929+00:00,approved,active,Brazil,community,osm_venues_br_v4,br_00182,br_venues_batch_v4,2026-05-25T00:21:26.075929+00:00,osm_import_terminal_v4,{},venue
Dom Bar & Party House,838 Avenida Copacabana,,,91900-050,+55 51 3516-4154,http://www.dompartyhouse.com.br,,-30.1038888,-51.2536474,2026-05-25T00:21:26.075929+00:00,approved,active,Brazil,community,osm_venues_br_v4,br_00183,br_venues_batch_v4,2026-05-25T00:21:26.075929+00:00,osm_import_terminal_v4,{},venue
Johnny Wash Moto Pub,,,,,,,,-23.6007115,-46.6796131,2026-05-25T00:21:26.075929+00:00,approved,active,Brazil,community,osm_venues_br_v4,br_00184,br_venues_batch_v4,2026-05-25T00:21:26.075929+00:00,osm_import_terminal_v4,{},venue
Cabaret,,,,,,,,-22.9559714,-43.1968159,2026-05-25T00:21:26.075929+00:00,approved,active,Brazil,community,osm_venues_br_v4,br_00185,br_venues_batch_v4,2026-05-25T00:21:26.075929+00:00,osm_import_terminal_v4,{},venue
Lima Restobar,,,,,,,,-22.9571801,-43.1955146,2026-05-25T00:21:26.075929+00:00,approved,active,Brazil,community,osm_venues_br_v4,br_00186,br_venues_batch_v4,2026-05-25T00:21:26.075929+00:00,osm_import_terminal_v4,{},venue
Bar do Augusto,72A Avenida Mem de Sá,Rio de Janeiro,,,,,,-22.9130687,-43.1812507,2026-05-25T00:21:26.075929+00:00,approved,active,Brazil,community,osm_venues_br_v4,br_00187,br_venues_batch_v4,2026-05-25T00:21:26.075929+00:00,osm_import_terminal_v4,{},venue
Barzinho,170 Rua do Lavradio,,,,,,,-22.9121706,-43.1823575,2026-05-25T00:21:26.075929+00:00,approved,active,Brazil,community,osm_venues_br_v4,br_00188,br_venues_batch_v4,2026-05-25T00:21:26.075929+00:00,osm_import_terminal_v4,{},venue
Café e Bar Rainha Santa Isabel,156 Rua do Lavradio,Rio de Janeiro,,20230-070,,,,-22.9120053,-43.1824056,2026-05-25T00:21:26.075929+00:00,approved,active,Brazil,community,osm_venues_br_v4,br_00189,br_venues_batch_v4,2026-05-25T00:21:26.075929+00:00,osm_import_terminal_v4,{},venue
Zissou Bistrô Bar,63 Rua Paulo Barreto,,,,,https://www.facebook.com/ZissouBistroBar,,-22.9541835,-43.1867636,2026-05-25T00:21:26.075929+00:00,approved,active,Brazil,community,osm_venues_br_v4,br_00190,br_venues_batch_v4,2026-05-25T00:21:26.075929+00:00,osm_import_terminal_v4,{},venue
Barraca da Chiquinha,,,,,+55-21-38602929,http://www.barracadachiquita.com.br,,-22.8978304,-43.2211655,2026-05-25T00:21:26.075929+00:00,approved,active,Brazil,community,osm_venues_br_v4,br_00191,br_venues_batch_v4,2026-05-25T00:21:26.075929+00:00,osm_import_terminal_v4,{},venue
Bar do Jesu,320 Rua Tenente Marino Freire,,,31680-120,,,,-19.8018729,-43.9934044,2026-05-25T00:21:26.075929+00:00,approved,active,Brazil,community,osm_venues_br_v4,br_00192,br_venues_batch_v4,2026-05-25T00:21:26.075929+00:00,osm_import_terminal_v4,{},venue
Bar do Araújo,,,,,,,,-22.8521699,-43.2471765,2026-05-25T00:21:26.075929+00:00,approved,active,Brazil,community,osm_venues_br_v4,br_00193,br_venues_batch_v4,2026-05-25T00:21:26.075929+00:00,osm_import_terminal_v4,{},venue
Bar Rossi,,,,,,,,-30.0404458,-51.2190686,2026-05-25T00:21:26.075929+00:00,approved,active,Brazil,community,osm_venues_br_v4,br_00194,br_venues_batch_v4,2026-05-25T00:21:26.075929+00:00,osm_import_terminal_v4,{},venue
Celtic Irish Pub,,,,,,,,-19.9472033,-43.9305034,2026-05-25T00:21:26.075929+00:00,approved,active,Brazil,community,osm_venues_br_v4,br_00195,br_venues_batch_v4,2026-05-25T00:21:26.075929+00:00,osm_import_terminal_v4,{},venue
Raupp Bar e Restaurante,693 Avenida Getúlio Vargas,,,,+55 51 3233-0795,,,-30.0507444,-51.2220416,2026-05-25T00:21:26.075929+00:00,approved,active,Brazil,community,osm_venues_br_v4,br_00196,br_venues_batch_v4,2026-05-25T00:21:26.075929+00:00,osm_import_terminal_v4,{},venue
Bar Taverna Santo Amaro,158 Rua Santo Amaro,,,,,,,-22.9225755,-43.1820312,2026-05-25T00:21:26.075929+00:00,approved,active,Brazil,community,osm_venues_br_v4,br_00197,br_venues_batch_v4,2026-05-25T00:21:26.075929+00:00,osm_import_terminal_v4,{},venue
Bar do Zeca,,,,,,,,-22.7902357,-43.3051176,2026-05-25T00:21:26.075929+00:00,approved,active,Brazil,community,osm_venues_br_v4,br_00198,br_venues_batch_v4,2026-05-25T00:21:26.075929+00:00,osm_import_terminal_v4,{},venue
Bar Imperatriz,,,,,,,,-22.9061163,-43.1832243,2026-05-25T00:21:26.075929+00:00,approved,active,Brazil,community,osm_venues_br_v4,br_00199,br_venues_batch_v4,2026-05-25T00:21:26.075929+00:00,osm_import_terminal_v4,{},venue
Bar Anticuario,985 Rua General Lima e Silva,Porto Alegre,,90050-102,+55 51 3225-4020,,,-30.0409308,-51.2186458,2026-05-25T00:21:26.075929+00:00,approved,active,Brazil,community,osm_venues_br_v4,br_00200,br_venues_batch_v4,2026-05-25T00:21:26.075929+00:00,osm_import_terminal_v4,{},venue
Luiz Bar,,,,,,,,-22.8480997,-43.3237767,2026-05-25T00:21:26.075929+00:00,approved,active,Brazil,community,osm_venues_br_v4,br_00201,br_venues_batch_v4,2026-05-25T00:21:26.075929+00:00,osm_import_terminal_v4,{},venue
Bar da Cida,,,,,,,,-22.8481429,-43.3236985,2026-05-25T00:21:26.075929+00:00,approved,active,Brazil,community,osm_venues_br_v4,br_00202,br_venues_batch_v4,2026-05-25T00:21:26.075929+00:00,osm_import_terminal_v4,{},venue
Bar do Peixe,43 Rua Sônia Ribeiro,,,04620-020,,,,-23.6263026,-46.6697338,2026-05-25T00:21:26.075929+00:00,approved,active,Brazil,community,osm_venues_br_v4,br_00203,br_venues_batch_v4,2026-05-25T00:21:26.075929+00:00,osm_import_terminal_v4,{},venue
Bartataria da Vovó,807 Rua Coronel Diogo,São Paulo,,01545-001,,,,-23.5781141,-46.6199869,2026-05-25T00:21:26.075929+00:00,approved,active,Brazil,community,osm_venues_br_v4,br_00204,br_venues_batch_v4,2026-05-25T00:21:26.075929+00:00,osm_import_terminal_v4,{},venue
Taj Bar,,,,,,,,-25.4449984,-49.2946417,2026-05-25T00:21:26.075929+00:00,approved,active,Brazil,community,osm_venues_br_v4,br_00205,br_venues_batch_v4,2026-05-25T00:21:26.075929+00:00,osm_import_terminal_v4,{},venue
Bar do Miguel,,,,,,,,-22.8967469,-43.1197866,2026-05-25T00:21:26.075929+00:00,approved,active,Brazil,community,osm_venues_br_v4,br_00206,br_venues_batch_v4,2026-05-25T00:21:26.075929+00:00,osm_import_terminal_v4,{},venue
Bar do Edu,,,,,,,,-22.9317776,-43.1159145,2026-05-25T00:21:26.075929+00:00,approved,active,Brazil,community,osm_venues_br_v4,br_00207,br_venues_batch_v4,2026-05-25T00:21:26.075929+00:00,osm_import_terminal_v4,{},venue
Bar do Ceará,750 Avenida Cotovia,São Paulo,,,,,,-23.6084184,-46.669167,2026-05-25T00:21:26.075929+00:00,approved,active,Brazil,community,osm_venues_br_v4,br_00208,br_venues_batch_v4,2026-05-25T00:21:26.075929+00:00,osm_import_terminal_v4,{},venue
Bar Inglês,,,,,,,,-30.0251973,-51.1712231,2026-05-25T00:21:26.075929+00:00,approved,active,Brazil,community,osm_venues_br_v4,br_00209,br_venues_batch_v4,2026-05-25T00:21:26.075929+00:00,osm_import_terminal_v4,{},venue
Bar do Antônio,,,,,,,,-30.0335192,-51.2192443,2026-05-25T00:21:26.075929+00:00,approved,active,Brazil,community,osm_venues_br_v4,br_00210,br_venues_batch_v4,2026-05-25T00:21:26.075929+00:00,osm_import_terminal_v4,{},venue
Antiga Mercearia e Bar,446 Rua Voluntários da Pátria,Rio de Janeiro,,,+55 21 2226-6553,https://www.facebook.com/AntigaMercearia,,-22.955091,-43.196737,2026-05-25T00:21:26.075929+00:00,approved,active,Brazil,community,osm_venues_br_v4,br_00211,br_venues_batch_v4,2026-05-25T00:21:26.075929+00:00,osm_import_terminal_v4,{},venue
Gold Skull Bar,392 Alameda Augusto Stellfeld,Curitiba,,80410-140,+55 41 9 9615 9029,https://www.facebook.com/BarGoldieSkull/info,,-25.4295272,-49.2779712,2026-05-25T00:21:26.075929+00:00,approved,active,Brazil,community,osm_venues_br_v4,br_00212,br_venues_batch_v4,2026-05-25T00:21:26.075929+00:00,osm_import_terminal_v4,{},venue
BarBaran,799 Alameda Augusto Stellfeld,Curitiba,,80410140,+55 41 3322 2912,https://www.facebook.com/BarBaranUcrania,,-25.4311693,-49.2815955,2026-05-25T00:21:26.075929+00:00,approved,active,Brazil,community,osm_venues_br_v4,br_00213,br_venues_batch_v4,2026-05-25T00:21:26.075929+00:00,osm_import_terminal_v4,{},venue
Carrieri Pizza Pub,700 Rua Pedra Azul,,,,+55 11 2528-1010,http://carrieripizzapub.com.br/,,-23.5788647,-46.6292693,2026-05-25T00:21:26.075929+00:00,approved,active,Brazil,community,osm_venues_br_v4,br_00214,br_venues_batch_v4,2026-05-25T00:21:26.075929+00:00,osm_import_terminal_v4,{},venue
Genial Bar,374 Rua Girassol,São Paulo,,05433-000,,,,-23.5554726,-46.6890611,2026-05-25T00:21:26.075929+00:00,approved,active,Brazil,community,osm_venues_br_v4,br_00215,br_venues_batch_v4,2026-05-25T00:21:26.075929+00:00,osm_import_terminal_v4,{},venue
Mundial Bar,354 Rua Girassol,São Paulo,,05433-000,,,,-23.5555979,-46.6889686,2026-05-25T00:21:26.075929+00:00,approved,active,Brazil,community,osm_venues_br_v4,br_00216,br_venues_batch_v4,2026-05-25T00:21:26.075929+00:00,osm_import_terminal_v4,{},venue
Filial Bar,254 Rua Fidalga,São Paulo,,05432-000,,,,-23.5571758,-46.6892535,2026-05-25T00:21:26.075929+00:00,approved,active,Brazil,community,osm_venues_br_v4,br_00217,br_venues_batch_v4,2026-05-25T00:21:26.075929+00:00,osm_import_terminal_v4,{},venue
Bar da Cida,Rua Alemanha,Sabará,,,,,,-19.8804045,-43.8630578,2026-05-25T00:21:26.075929+00:00,approved,active,Brazil,community,osm_venues_br_v4,br_00218,br_venues_batch_v4,2026-05-25T00:21:26.075929+00:00,osm_import_terminal_v4,{},venue
Akai Sushi Bar,610 Rua Camões,Curitiba,,,+55 41 3019-9580,http://akaisushibar.com.br,,-25.4258678,-49.2473874,2026-05-25T00:21:26.075929+00:00,approved,active,Brazil,community,osm_venues_br_v4,br_00219,br_venues_batch_v4,2026-05-25T00:21:26.075929+00:00,osm_import_terminal_v4,{},venue
FuskaBar,,,,,,,,-23.6746593,-46.5098181,2026-05-25T00:21:26.075929+00:00,approved,active,Brazil,community,osm_venues_br_v4,br_00220,br_venues_batch_v4,2026-05-25T00:21:26.075929+00:00,osm_import_terminal_v4,{},venue
Bar e Restaurante 1010,1010 Rua Cubatão,São Paulo,,,,,,-23.5806123,-46.6416403,2026-05-25T00:21:26.075929+00:00,approved,active,Brazil,community,osm_venues_br_v4,br_00221,br_venues_batch_v4,2026-05-25T00:21:26.075929+00:00,osm_import_terminal_v4,{},venue
Bar e Restaurante Chaplin,100 Rua Domingos de Moraes,São Paulo,,04010-000,,,,-23.5781213,-46.6411638,2026-05-25T00:21:26.075929+00:00,approved,active,Brazil,community,osm_venues_br_v4,br_00222,br_venues_batch_v4,2026-05-25T00:21:26.075929+00:00,osm_import_terminal_v4,{},venue
Bar Urca,205 Rua Cândido Gaffrée,Rio de Janeiro,,22291-080,+55 (21) 2295-8744,https://www.barurca.com.br/,,-22.9435114,-43.1602029,2026-05-25T00:21:26.075929+00:00,approved,active,Brazil,community,osm_venues_br_v4,br_00223,br_venues_batch_v4,2026-05-25T00:21:26.075929+00:00,osm_import_terminal_v4,{},venue
Bar do Escadinha,,,,,,,,-22.9181121,-43.2380283,2026-05-25T00:21:26.075929+00:00,approved,active,Brazil,community,osm_venues_br_v4,br_00224,br_venues_batch_v4,2026-05-25T00:21:26.075929+00:00,osm_import_terminal_v4,{},venue
Café e Bar Rio Maracanã,,,,,,,,-22.9133932,-43.2347491,2026-05-25T00:21:26.075929+00:00,approved,active,Brazil,community,osm_venues_br_v4,br_00225,br_venues_batch_v4,2026-05-25T00:21:26.075929+00:00,osm_import_terminal_v4,{},venue
Bar do Bigode,,,,,,,,-22.916353,-43.2343072,2026-05-25T00:21:26.075929+00:00,approved,active,Brazil,community,osm_venues_br_v4,br_00226,br_venues_batch_v4,2026-05-25T00:21:26.075929+00:00,osm_import_terminal_v4,{},venue
Café e Bar Tijuquinha,,,,,,,,-22.9197881,-43.2340796,2026-05-25T00:21:26.075929+00:00,approved,active,Brazil,community,osm_venues_br_v4,br_00227,br_venues_batch_v4,2026-05-25T00:21:26.075929+00:00,osm_import_terminal_v4,{},venue
Pub 7,3619 Avenida Sete de Setembro,,,,,,,-25.4405702,-49.2737452,2026-05-25T00:21:26.075929+00:00,approved,active,Brazil,community,osm_venues_br_v4,br_00228,br_venues_batch_v4,2026-05-25T00:21:26.075929+00:00,osm_import_terminal_v4,{},venue
Bar e Restaurante Pontes,1 Ljs 38 e 39 Rua Professor Álvaro Rodrigues,Rio de Janeiro,,22290-030,,,,-22.950968,-43.182014,2026-05-25T00:21:26.075929+00:00,approved,active,Brazil,community,osm_venues_br_v4,br_00229,br_venues_batch_v4,2026-05-25T00:21:26.075929+00:00,osm_import_terminal_v4,{},venue
Bar Zuzu Goró,1 - Lj. 36 Rua Professor Álvaro Rodrigues,Rio de Janeiro,,22290-030,+55-21-25270810,,,-22.9509241,-43.1819499,2026-05-25T00:21:26.075929+00:00,approved,active,Brazil,community,osm_venues_br_v4,br_00230,br_venues_batch_v4,2026-05-25T00:21:26.075929+00:00,osm_import_terminal_v4,{},venue
Bar e Restaurante Santa Rita,1293 Rua Silva Teles,São Paulo,,03026-001,,,,-23.5274152,-46.6080293,2026-05-25T00:21:26.075929+00:00,approved,active,Brazil,community,osm_venues_br_v4,br_00231,br_venues_batch_v4,2026-05-25T00:21:26.075929+00:00,osm_import_terminal_v4,{},venue
Skina Bar,1143 Rua Joaquim Carlos,São Paulo,,03019-000,,,,-23.526845,-46.6074871,2026-05-25T00:21:26.075929+00:00,approved,active,Brazil,community,osm_venues_br_v4,br_00232,br_venues_batch_v4,2026-05-25T00:21:26.075929+00:00,osm_import_terminal_v4,{},venue
Shinjiru Sushi Bar,241 Rua Mário Pinheiro,São Paulo,,02076-010,,,,-23.5055506,-46.5982388,2026-05-25T00:21:26.075929+00:00,approved,active,Brazil,community,osm_venues_br_v4,br_00233,br_venues_batch_v4,2026-05-25T00:21:26.075929+00:00,osm_import_terminal_v4,{},venue
Bar e lanches Jofa,455 Rua Doutor Virgílio do Nascimento,São Paulo,,03027-020,,,,-23.5286833,-46.61239,2026-05-25T00:21:26.075929+00:00,approved,active,Brazil,community,osm_venues_br_v4,br_00234,br_venues_batch_v4,2026-05-25T00:21:26.075929+00:00,osm_import_terminal_v4,{},venue
Kemono Sushi Bar,55 Rua Joaquim Nabuco,Porto Alegre,,90050-340,+55 51 3407-5458,http://www.kemonosushi.com.br/,,-30.0410904,-51.218694,2026-05-25T00:21:26.075929+00:00,approved,active,Brazil,community,osm_venues_br_v4,br_00235,br_venues_batch_v4,2026-05-25T00:21:26.075929+00:00,osm_import_terminal_v4,{},venue
Bar do Zé Gordo,321 Rua Clodomiro Amazonas,,,,,https://www.zegordo.com.br/,,-23.5872978,-46.6790486,2026-05-25T00:21:26.075929+00:00,approved,active,Brazil,community,osm_venues_br_v4,br_00236,br_venues_batch_v4,2026-05-25T00:21:26.075929+00:00,osm_import_terminal_v4,{},venue
Bar Novo Horizonte,86-A Avenida Nossa Senhora de Fátima,Rio de Janeiro,,,,,,-22.9173662,-43.1884329,2026-05-25T00:21:26.075929+00:00,approved,active,Brazil,community,osm_venues_br_v4,br_00237,br_venues_batch_v4,2026-05-25T00:21:26.075929+00:00,osm_import_terminal_v4,{},venue
Bar do Adalto,Rua Joaquim Silva,,,,,,,-22.9159988,-43.1771871,2026-05-25T00:21:26.075929+00:00,approved,active,Brazil,community,osm_venues_br_v4,br_00238,br_venues_batch_v4,2026-05-25T00:21:26.075929+00:00,osm_import_terminal_v4,{},venue
Bar do Peixe 2,,,,,,,,-22.9109033,-43.1879593,2026-05-25T00:21:26.075929+00:00,approved,active,Brazil,community,osm_venues_br_v4,br_00239,br_venues_batch_v4,2026-05-25T00:21:26.075929+00:00,osm_import_terminal_v4,{},venue
Libanesa Pub,,,,,,,,-30.0047936,-51.1518917,2026-05-25T00:21:26.075929+00:00,approved,active,Brazil,community,osm_venues_br_v4,br_00240,br_venues_batch_v4,2026-05-25T00:21:26.075929+00:00,osm_import_terminal_v4,{},venue
Bar e Lanchonete Serrador,,,,,,,,-22.8219481,-43.3051034,2026-05-25T00:21:26.075929+00:00,approved,active,Brazil,community,osm_venues_br_v4,br_00241,br_venues_batch_v4,2026-05-25T00:21:26.075929+00:00,osm_import_terminal_v4,{},venue
Irineu's Bar,654 Avenida Padre Cacique,,,,+55 51 3232-1614,,,-30.0649067,-51.232919,2026-05-25T00:21:26.075929+00:00,approved,active,Brazil,community,osm_venues_br_v4,br_00242,br_venues_batch_v4,2026-05-25T00:21:26.075929+00:00,osm_import_terminal_v4,{},venue
"Seu Figa Bar, Restaurante e Forneria",1410 Rua das Figueiras,,,,,,,-23.6456444,-46.5416486,2026-05-25T00:21:26.075929+00:00,approved,active,Brazil,community,osm_venues_br_v4,br_00243,br_venues_batch_v4,2026-05-25T00:21:26.075929+00:00,osm_import_terminal_v4,{},venue
K Deck Bar,Alameda São Caetano,,,,,,,-23.6454073,-46.5418066,2026-05-25T00:21:26.075929+00:00,approved,active,Brazil,community,osm_venues_br_v4,br_00244,br_venues_batch_v4,2026-05-25T00:21:26.075929+00:00,osm_import_terminal_v4,{},venue
Kensei Sushi Bar,,,,,,,,-23.6478083,-46.5407696,2026-05-25T00:21:26.075929+00:00,approved,active,Brazil,community,osm_venues_br_v4,br_00245,br_venues_batch_v4,2026-05-25T00:21:26.075929+00:00,osm_import_terminal_v4,{},venue
Europa Bar,,,,,,,,-23.6461431,-46.5417303,2026-05-25T00:21:26.075929+00:00,approved,active,Brazil,community,osm_venues_br_v4,br_00246,br_venues_batch_v4,2026-05-25T00:21:26.075929+00:00,osm_import_terminal_v4,{},venue
Casimiro's Bar,,,,,,,,-23.605945,-46.6390751,2026-05-25T00:21:26.075929+00:00,approved,active,Brazil,community,osm_venues_br_v4,br_00247,br_venues_batch_v4,2026-05-25T00:21:26.075929+00:00,osm_import_terminal_v4,{},venue
Trio bar e restaurante,,,,,,,,-22.8294448,-43.3193839,2026-05-25T00:21:26.075929+00:00,approved,active,Brazil,community,osm_venues_br_v4,br_00248,br_venues_batch_v4,2026-05-25T00:21:26.075929+00:00,osm_import_terminal_v4,{},venue
Recantos Bar,,,,,,,,-22.9015677,-43.281378,2026-05-25T00:21:26.075929+00:00,approved,active,Brazil,community,osm_venues_br_v4,br_00249,br_venues_batch_v4,2026-05-25T00:21:26.075929+00:00,osm_import_terminal_v4,{},venue
Bar do Boi,407 Rua Carnot,São Paulo,,03032-030,,,,-23.531213,-46.6223769,2026-05-25T00:21:26.075929+00:00,approved,active,Brazil,community,osm_venues_br_v4,br_00250,br_venues_batch_v4,2026-05-25T00:21:26.075929+00:00,osm_import_terminal_v4,{},venue
Bar da Villa,621 Rua Afonso Brás,São Paulo,,04511-011,+55 11 3846-8814,,,-23.5954311,-46.6699086,2026-05-25T00:21:26.075929+00:00,approved,active,Brazil,community,osm_venues_br_v4,br_00251,br_venues_batch_v4,2026-05-25T00:21:26.075929+00:00,osm_import_terminal_v4,{},venue
Bar do Pepino,,,,,,,,-22.8741865,-43.2496124,2026-05-25T00:21:26.075929+00:00,approved,active,Brazil,community,osm_venues_br_v4,br_00252,br_venues_batch_v4,2026-05-25T00:21:26.075929+00:00,osm_import_terminal_v4,{},venue
Café e Bar Neves,1 Praça da República,Rio de Janeiro,,20211-350,(21) 2508-5751,,,-22.9083977,-43.1860663,2026-05-25T00:21:26.075929+00:00,approved,active,Brazil,community,osm_venues_br_v4,br_00253,br_venues_batch_v4,2026-05-25T00:21:26.075929+00:00,osm_import_terminal_v4,{},venue
Coyotte Country Rock Bar,190 Rua Olegário Herculano,São Bernardo do Campo,,09726-263,+55 11 4121 9114,,,-23.6824079,-46.5579826,2026-05-25T00:21:26.075929+00:00,approved,active,Brazil,community,osm_venues_br_v4,br_00254,br_venues_batch_v4,2026-05-25T00:21:26.075929+00:00,osm_import_terminal_v4,{},venue
Liverpool Bar,819 Avenida Kennedy,São Bernardo do Campo,,09726-263,+55 11 4123 4929,http://www.liverpoolbar.com.br/,,-23.6824124,-46.5578353,2026-05-25T00:21:26.075929+00:00,approved,active,Brazil,community,osm_venues_br_v4,br_00255,br_venues_batch_v4,2026-05-25T00:21:26.075929+00:00,osm_import_terminal_v4,{},venue
Barlam,Rua Marquês de Pombal,Rio de Janeiro,,20230-240,,,,-22.9111376,-43.1936465,2026-05-25T00:21:26.075929+00:00,approved,active,Brazil,community,osm_venues_br_v4,br_00256,br_venues_batch_v4,2026-05-25T00:21:26.075929+00:00,osm_import_terminal_v4,{},venue
Bar dos Passarinheiros,,,,,,,,-22.8495229,-43.2684215,2026-05-25T00:21:26.075929+00:00,approved,active,Brazil,community,osm_venues_br_v4,br_00257,br_venues_batch_v4,2026-05-25T00:21:26.075929+00:00,osm_import_terminal_v4,{},venue
Barril 211,211 Avenida Fleming,,,,,,,-19.8709504,-43.9864613,2026-05-25T00:21:26.075929+00:00,approved,active,Brazil,community,osm_venues_br_v4,br_00258,br_venues_batch_v4,2026-05-25T00:21:26.075929+00:00,osm_import_terminal_v4,{},venue
Folks Pub Sertanejo,260 Avenida Kennedy,São Bernardo do Campo,,09726-251,+55 11 99573-0136,https://www.instagram.com/folkssbc/,,-23.6867506,-46.5593664,2026-05-25T00:21:26.075929+00:00,approved,active,Brazil,community,osm_venues_br_v4,br_00259,br_venues_batch_v4,2026-05-25T00:21:26.075929+00:00,osm_import_terminal_v4,{},venue
Bar e Restauranche do Bosco,,,,,,,,-23.6838615,-46.5636711,2026-05-25T00:21:26.075929+00:00,approved,active,Brazil,community,osm_venues_br_v4,br_00260,br_venues_batch_v4,2026-05-25T00:21:26.075929+00:00,osm_import_terminal_v4,{},venue
Bar Central,180 Avenida Kennedy,São Bernardo do Campo,,09726-250,+55 11 4125 8089,http://www.barcentral.com.br/,,-23.687667,-46.5596178,2026-05-25T00:21:26.075929+00:00,approved,active,Brazil,community,osm_venues_br_v4,br_00261,br_venues_batch_v4,2026-05-25T00:21:26.075929+00:00,osm_import_terminal_v4,{},venue
Bar do Celso,414 Rua Brejo Alegre,,,,,,,-23.6021186,-46.6832563,2026-05-25T00:21:26.075929+00:00,approved,active,Brazil,community,osm_venues_br_v4,br_00262,br_venues_batch_v4,2026-05-25T00:21:26.075929+00:00,osm_import_terminal_v4,{},venue
Tuyuty Pub,,,,,,,,-30.0317886,-51.2314336,2026-05-25T00:21:26.075929+00:00,approved,active,Brazil,community,osm_venues_br_v4,br_00263,br_venues_batch_v4,2026-05-25T00:21:26.075929+00:00,osm_import_terminal_v4,{},venue
Bar Nossa Senhora do Carmo,225 Rua Marquês de São Vicente,Rio de Janeiro,,22451-900,,,,-22.9797088,-43.2324473,2026-05-25T00:21:26.075929+00:00,approved,active,Brazil,community,osm_venues_br_v4,br_00264,br_venues_batch_v4,2026-05-25T00:21:26.075929+00:00,osm_import_terminal_v4,{},venue
Bar Encontro,768 Estrada Padre Roser,Rio de Janeiro,,21220560,,,,-22.8418949,-43.3205124,2026-05-25T00:21:26.075929+00:00,approved,active,Brazil,community,osm_venues_br_v4,br_00265,br_venues_batch_v4,2026-05-25T00:21:26.075929+00:00,osm_import_terminal_v4,{},venue
Bar.com,,,,,,,,-22.8782903,-43.3423979,2026-05-25T00:21:26.075929+00:00,approved,active,Brazil,community,osm_venues_br_v4,br_00266,br_venues_batch_v4,2026-05-25T00:21:26.075929+00:00,osm_import_terminal_v4,{},venue
Boteco do Baroni,,,,,,,,-22.8781568,-43.3425749,2026-05-25T00:21:26.075929+00:00,approved,active,Brazil,community,osm_venues_br_v4,br_00267,br_venues_batch_v4,2026-05-25T00:21:26.075929+00:00,osm_import_terminal_v4,{},venue
Bar do Helinho,,,,,,,,-22.8447555,-43.3089842,2026-05-25T00:21:26.075929+00:00,approved,active,Brazil,community,osm_venues_br_v4,br_00268,br_venues_batch_v4,2026-05-25T00:21:26.075929+00:00,osm_import_terminal_v4,{},venue
Bar do Bolão,637 Rua Vila Rica,,,,,,,-19.9172778,-43.9819618,2026-05-25T00:21:26.075929+00:00,approved,active,Brazil,community,osm_venues_br_v4,br_00269,br_venues_batch_v4,2026-05-25T00:21:26.075929+00:00,osm_import_terminal_v4,{},venue
Bar do João,Rua Onze de Junho,,,,,,,-23.6013274,-46.6456233,2026-05-25T00:21:26.075929+00:00,approved,active,Brazil,community,osm_venues_br_v4,br_00270,br_venues_batch_v4,2026-05-25T00:21:26.075929+00:00,osm_import_terminal_v4,{},venue
Underground Pub,,,,,,,,-19.9183564,-43.9941259,2026-05-25T00:21:26.075929+00:00,approved,active,Brazil,community,osm_venues_br_v4,br_00271,br_venues_batch_v4,2026-05-25T00:21:26.075929+00:00,osm_import_terminal_v4,{},venue
Bar da Madalena,315 Avenida João Barreto de Menezes,,,,,,,-23.6469144,-46.658639,2026-05-25T00:21:26.075929+00:00,approved,active,Brazil,community,osm_venues_br_v4,br_00272,br_venues_batch_v4,2026-05-25T00:21:26.075929+00:00,osm_import_terminal_v4,{},venue
Bar do Albino,23 Rua Angelina Vieira Frank,,,,,,,-23.6469402,-46.6583708,2026-05-25T00:21:26.075929+00:00,approved,active,Brazil,community,osm_venues_br_v4,br_00273,br_venues_batch_v4,2026-05-25T00:21:26.075929+00:00,osm_import_terminal_v4,{},venue
Restaurante Baruch,2601 Rua Voluntários da Pátria,Sao Paulo,,02401-100,,,,-23.4973473,-46.6259674,2026-05-25T00:21:26.075929+00:00,approved,active,Brazil,community,osm_venues_br_v4,br_00274,br_venues_batch_v4,2026-05-25T00:21:26.075929+00:00,osm_import_terminal_v4,{},venue
Bar do Lusa,233 Avenida Bom Jardim,São Paulo,,03035-000,,,,-23.5255186,-46.6140076,2026-05-25T00:21:26.075929+00:00,approved,active,Brazil,community,osm_venues_br_v4,br_00275,br_venues_batch_v4,2026-05-25T00:21:26.075929+00:00,osm_import_terminal_v4,{},venue
Bar Du Carlão,251 Rua Doutor Rodrigo de Barros,São Paulo,,01106-020,,,,-23.5294456,-46.62898,2026-05-25T00:21:26.075929+00:00,approved,active,Brazil,community,osm_venues_br_v4,br_00276,br_venues_batch_v4,2026-05-25T00:21:26.075929+00:00,osm_import_terminal_v4,{},venue
Bar do Beto,99 Rua Padre Vieira,São Paulo,,03030-000,,,,-23.5266567,-46.6188468,2026-05-25T00:21:26.075929+00:00,approved,active,Brazil,community,osm_venues_br_v4,br_00277,br_venues_batch_v4,2026-05-25T00:21:26.075929+00:00,osm_import_terminal_v4,{},venue
Bar do Chico,483 Rua Paulo Andrighetti,São Paulo,,03022-000,,,,-23.5264203,-46.6064511,2026-05-25T00:21:26.075929+00:00,approved,active,Brazil,community,osm_venues_br_v4,br_00278,br_venues_batch_v4,2026-05-25T00:21:26.075929+00:00,osm_import_terminal_v4,{},venue
Nova Barao Restaurante,871 Avenida Guilherme Cotching,São Paulo,,02113-013,,,,-23.5210505,-46.5920448,2026-05-25T00:21:26.075929+00:00,approved,active,Brazil,community,osm_venues_br_v4,br_00279,br_venues_batch_v4,2026-05-25T00:21:26.075929+00:00,osm_import_terminal_v4,{},venue
Bar Videirinha,274 Avenida Vautier,São Paulo,,03032-000,,,,-23.5326691,-46.6215408,2026-05-25T00:21:26.075929+00:00,approved,active,Brazil,community,osm_venues_br_v4,br_00280,br_venues_batch_v4,2026-05-25T00:21:26.075929+00:00,osm_import_terminal_v4,{},venue
Nosso Bar,166 Rua Guilherme Maw,São Paulo,,01105-040,,,,-23.5334426,-46.6295824,2026-05-25T00:21:26.075929+00:00,approved,active,Brazil,community,osm_venues_br_v4,br_00281,br_venues_batch_v4,2026-05-25T00:21:26.075929+00:00,osm_import_terminal_v4,{},venue
Bar do Neno,11 Rua Madeira,São Paulo,,03033-040,,,,-23.5307178,-46.6243232,2026-05-25T00:21:26.075929+00:00,approved,active,Brazil,community,osm_venues_br_v4,br_00282,br_venues_batch_v4,2026-05-25T00:21:26.075929+00:00,osm_import_terminal_v4,{},venue
Bar Gama,657 Rua Prates,São Paulo,,01121-000,,,,-23.5282456,-46.6356383,2026-05-25T00:21:26.075929+00:00,approved,active,Brazil,community,osm_venues_br_v4,br_00283,br_venues_batch_v4,2026-05-25T00:21:26.075929+00:00,osm_import_terminal_v4,{},venue
Bar Tupam,26 Rua José Paulino,São Paulo,,01120-000,,,,-23.5335244,-46.6374268,2026-05-25T00:21:26.075929+00:00,approved,active,Brazil,community,osm_venues_br_v4,br_00284,br_venues_batch_v4,2026-05-25T00:21:26.075929+00:00,osm_import_terminal_v4,{},venue
Bar do Pedrão,260 Rua João Teodoro,São Paulo,,01105-000,,,,-23.5332026,-46.6299986,2026-05-25T00:21:26.075929+00:00,approved,active,Brazil,community,osm_venues_br_v4,br_00285,br_venues_batch_v4,2026-05-25T00:21:26.075929+00:00,osm_import_terminal_v4,{},venue
Pita bar e kebab,290 Rua Francisco Leitão,São Paulo,,05414-020,+55-11-95777-8300,,,-23.5620841,-46.6805072,2026-05-25T00:21:26.075929+00:00,approved,active,Brazil,community,osm_venues_br_v4,br_00286,br_venues_batch_v4,2026-05-25T00:21:26.075929+00:00,osm_import_terminal_v4,{},venue
Bar do Fizinho,Rua Adonias Filho,,,,,,,-19.9365586,-44.0116672,2026-05-25T00:21:26.075929+00:00,approved,active,Brazil,community,osm_venues_br_v4,br_00287,br_venues_batch_v4,2026-05-25T00:21:26.075929+00:00,osm_import_terminal_v4,{},venue
Bar do Flamengo,217 Rua Francisco de Medeiros Jordão,São Paulo,,02214-030,,,,-23.4949159,-46.587631,2026-05-25T00:21:26.075929+00:00,approved,active,Brazil,community,osm_venues_br_v4,br_00288,br_venues_batch_v4,2026-05-25T00:21:26.075929+00:00,osm_import_terminal_v4,{},venue
Bar do Aurelio,161 Avenida Bom Jardim,São Paulo,,03035-000,,,,-23.5257722,-46.6133459,2026-05-25T00:21:26.075929+00:00,approved,active,Brazil,community,osm_venues_br_v4,br_00289,br_venues_batch_v4,2026-05-25T00:21:26.075929+00:00,osm_import_terminal_v4,{},venue
Bar do Zé Rico,456 Rua Eli,São Paulo,,02114-011,,,,-23.5224259,-46.5899307,2026-05-25T00:21:26.075929+00:00,approved,active,Brazil,community,osm_venues_br_v4,br_00290,br_venues_batch_v4,2026-05-25T00:21:26.075929+00:00,osm_import_terminal_v4,{},venue
Bar da Vila,898 Rua Alcântara,São Paulo,,02110-011,,,,-23.5243063,-46.5902798,2026-05-25T00:21:26.075929+00:00,approved,active,Brazil,community,osm_venues_br_v4,br_00291,br_venues_batch_v4,2026-05-25T00:21:26.075929+00:00,osm_import_terminal_v4,{},venue
Bar Ivone,920 Rua Alcântara,São Paulo,,02110-011,,,,-23.5244192,-46.5901145,2026-05-25T00:21:26.075929+00:00,approved,active,Brazil,community,osm_venues_br_v4,br_00292,br_venues_batch_v4,2026-05-25T00:21:26.075929+00:00,osm_import_terminal_v4,{},venue
Bar e Lanchonete Natividade,,,,,,,,-25.4543861,-49.2318827,2026-05-25T00:21:26.075929+00:00,approved,active,Brazil,community,osm_venues_br_v4,br_00293,br_venues_batch_v4,2026-05-25T00:21:26.075929+00:00,osm_import_terminal_v4,{},venue
Bar Galego,1862 Rua Itamonte,São Paulo,,02220-002,,,,-23.4849682,-46.5707766,2026-05-25T00:21:26.075929+00:00,approved,active,Brazil,community,osm_venues_br_v4,br_00294,br_venues_batch_v4,2026-05-25T00:21:26.075929+00:00,osm_import_terminal_v4,{},venue
Bar Genesio,2361 Rua Itamonte,São Paulo,,02220-002,,,,-23.4826931,-46.5664197,2026-05-25T00:21:26.075929+00:00,approved,active,Brazil,community,osm_venues_br_v4,br_00295,br_venues_batch_v4,2026-05-25T00:21:26.075929+00:00,osm_import_terminal_v4,{},venue
Pub 70,1759 Avenida Edú Chaves,São Paulo,,02229-000,,,,-23.4821733,-46.5660057,2026-05-25T00:21:26.075929+00:00,approved,active,Brazil,community,osm_venues_br_v4,br_00296,br_venues_batch_v4,2026-05-25T00:21:26.075929+00:00,osm_import_terminal_v4,{},venue
Botto Bar,,,,,,,,-22.9127419,-43.213891,2026-05-25T00:21:26.075929+00:00,approved,active,Brazil,community,osm_venues_br_v4,br_00297,br_venues_batch_v4,2026-05-25T00:21:26.075929+00:00,osm_import_terminal_v4,{},venue
Bar do Lago,,,,,,,,-25.4277614,-49.3103269,2026-05-25T00:21:26.075929+00:00,approved,active,Brazil,community,osm_venues_br_v4,br_00298,br_venues_batch_v4,2026-05-25T00:21:26.075929+00:00,osm_import_terminal_v4,{},venue
Barigui,,,,,,,,-25.4270601,-49.3100641,2026-05-25T00:21:26.075929+00:00,approved,active,Brazil,community,osm_venues_br_v4,br_00299,br_venues_batch_v4,2026-05-25T00:21:26.075929+00:00,osm_import_terminal_v4,{},venue
Café Skate Bar,,,,,,,,-25.4205042,-49.2750007,2026-05-25T00:21:26.075929+00:00,approved,active,Brazil,community,osm_venues_br_v4,br_00300,br_venues_batch_v4,2026-05-25T00:21:26.075929+00:00,osm_import_terminal_v4,{},venue
Bar da Banca,,,,,,,,-25.4176574,-49.272512,2026-05-25T00:21:26.075929+00:00,approved,active,Brazil,community,osm_venues_br_v4,br_00301,br_venues_batch_v4,2026-05-25T00:21:26.075929+00:00,osm_import_terminal_v4,{},venue
Tuba's Bar,50 Avenida Jaime Reis,,,,,,,-25.4272035,-49.2744565,2026-05-25T00:21:26.075929+00:00,approved,active,Brazil,community,osm_venues_br_v4,br_00302,br_venues_batch_v4,2026-05-25T00:21:26.075929+00:00,osm_import_terminal_v4,{},venue
Sal Grosso Churrasco Bar,59 Rua Doutor Claudino dos Santos,Curitiba,,,,,,-25.4273735,-49.2730537,2026-05-25T00:21:26.075929+00:00,approved,active,Brazil,community,osm_venues_br_v4,br_00303,br_venues_batch_v4,2026-05-25T00:21:26.075929+00:00,osm_import_terminal_v4,{},venue
Largo's Bar,,,,,,,,-25.4277112,-49.272462,2026-05-25T00:21:26.075929+00:00,approved,active,Brazil,community,osm_venues_br_v4,br_00304,br_venues_batch_v4,2026-05-25T00:21:26.075929+00:00,osm_import_terminal_v4,{},venue
Bar Brasileirinho,67 Rua Mateus Leme,,,,,,,-25.4270713,-49.2718786,2026-05-25T00:21:26.075929+00:00,approved,active,Brazil,community,osm_venues_br_v4,br_00305,br_venues_batch_v4,2026-05-25T00:21:26.075929+00:00,osm_import_terminal_v4,{},venue
Abaré Pizzarias,,,,,,,,-25.4087053,-49.3419462,2026-05-25T00:21:26.075929+00:00,approved,active,Brazil,community,osm_venues_br_v4,br_00306,br_venues_batch_v4,2026-05-25T00:21:26.075929+00:00,osm_import_terminal_v4,{},venue
Jabuti Bar,1506 Rua Professor Assis Gonçalves,Curitiba,,,,,,-25.4659189,-49.2864041,2026-05-25T00:21:26.075929+00:00,approved,active,Brazil,community,osm_venues_br_v4,br_00307,br_venues_batch_v4,2026-05-25T00:21:26.075929+00:00,osm_import_terminal_v4,{},venue
Pizza Bar - Trajano,,,,,,,,-25.4248732,-49.2741179,2026-05-25T00:21:26.075929+00:00,approved,active,Brazil,community,osm_venues_br_v4,br_00308,br_venues_batch_v4,2026-05-25T00:21:26.075929+00:00,osm_import_terminal_v4,{},venue
Bar Celona,,,,,,,,-22.9284814,-43.1819166,2026-05-25T00:21:26.075929+00:00,approved,active,Brazil,community,osm_venues_br_v4,br_00309,br_venues_batch_v4,2026-05-25T00:21:26.075929+00:00,osm_import_terminal_v4,{},venue
Bar Mignon,,,,,,,,-25.4319002,-49.2732201,2026-05-25T00:21:26.075929+00:00,approved,active,Brazil,community,osm_venues_br_v4,br_00310,br_venues_batch_v4,2026-05-25T00:21:26.075929+00:00,osm_import_terminal_v4,{},venue
Bar Triângulo,,,,,,,,-25.4319159,-49.2732764,2026-05-25T00:21:26.075929+00:00,approved,active,Brazil,community,osm_venues_br_v4,br_00311,br_venues_batch_v4,2026-05-25T00:21:26.075929+00:00,osm_import_terminal_v4,{},venue
Jokers Pub Café,164 Rua São Francisco,Curitiba,,,,http://www.jokers.com.br/,,-25.4281006,-49.2701125,2026-05-25T00:21:26.075929+00:00,approved,active,Brazil,community,osm_venues_br_v4,br_00312,br_venues_batch_v4,2026-05-25T00:21:26.075929+00:00,osm_import_terminal_v4,{},venue
Bar da Produção,,,,,,,,-25.4243998,-49.2742896,2026-05-25T00:21:26.075929+00:00,approved,active,Brazil,community,osm_venues_br_v4,br_00313,br_venues_batch_v4,2026-05-25T00:21:26.075929+00:00,osm_import_terminal_v4,{},venue
Bar Cris,9 Rua Crisciúma,São Paulo,,02225-000,,,,-23.4920397,-46.5733025,2026-05-25T00:21:26.075929+00:00,approved,active,Brazil,community,osm_venues_br_v4,br_00314,br_venues_batch_v4,2026-05-25T00:21:26.075929+00:00,osm_import_terminal_v4,{},venue
Sheridan's Irish Pub,2293 Rua Bispo Dom José,Curitiba,,,,,,-25.4457098,-49.2946756,2026-05-25T00:21:26.075929+00:00,approved,active,Brazil,community,osm_venues_br_v4,br_00315,br_venues_batch_v4,2026-05-25T00:21:26.075929+00:00,osm_import_terminal_v4,{},venue
Kapele Bar,,,,,,,,-25.4308605,-49.2782777,2026-05-25T00:21:26.075929+00:00,approved,active,Brazil,community,osm_venues_br_v4,br_00316,br_venues_batch_v4,2026-05-25T00:21:26.075929+00:00,osm_import_terminal_v4,{},venue
Zapata Mexican Bar,383 Rua José Sabóia Cortes,,,,,,,-25.4073059,-49.2706459,2026-05-25T00:21:26.075929+00:00,approved,active,Brazil,community,osm_venues_br_v4,br_00317,br_venues_batch_v4,2026-05-25T00:21:26.075929+00:00,osm_import_terminal_v4,{},venue
Bar do Zinho,785 Rua Professora Maria José Barone Fernandes,São Paulo,,02117-022,,,,-23.5194269,-46.5888822,2026-05-25T00:21:26.075929+00:00,approved,active,Brazil,community,osm_venues_br_v4,br_00318,br_venues_batch_v4,2026-05-25T00:21:26.075929+00:00,osm_import_terminal_v4,{},venue
Bar da Vila,966 Rua Professora Maria José Barone Fernandes,São Paulo,,02117-022,,,,-23.5206275,-46.5874138,2026-05-25T00:21:26.075929+00:00,approved,active,Brazil,community,osm_venues_br_v4,br_00319,br_venues_batch_v4,2026-05-25T00:21:26.075929+00:00,osm_import_terminal_v4,{},venue
Jacobina Bar,348 Rua Conselheiro Carrão,Curitiba,,,,,,-25.420892,-49.2545636,2026-05-25T00:21:26.075929+00:00,approved,active,Brazil,community,osm_venues_br_v4,br_00320,br_venues_batch_v4,2026-05-25T00:21:26.075929+00:00,osm_import_terminal_v4,{},venue
Barbarium,1765 Rua Chile,Curitiba,,,,,,-25.4510631,-49.2658985,2026-05-25T00:21:26.075929+00:00,approved,active,Brazil,community,osm_venues_br_v4,br_00321,br_venues_batch_v4,2026-05-25T00:21:26.075929+00:00,osm_import_terminal_v4,{},venue
Bar Invasão do Teatro,154 Rua Amintas de Barros,,,,,,,-25.4275662,-49.2644039,2026-05-25T00:21:26.075929+00:00,approved,active,Brazil,community,osm_venues_br_v4,br_00322,br_venues_batch_v4,2026-05-25T00:21:26.075929+00:00,osm_import_terminal_v4,{},venue
Bar 2,,,,,,,,-19.8456423,-44.0397047,2026-05-25T00:21:26.075929+00:00,approved,active,Brazil,community,osm_venues_br_v4,br_00323,br_venues_batch_v4,2026-05-25T00:21:26.075929+00:00,osm_import_terminal_v4,{},venue
Bar 1,,,,,,,,-19.8448867,-44.0399515,2026-05-25T00:21:26.075929+00:00,approved,active,Brazil,community,osm_venues_br_v4,br_00324,br_venues_batch_v4,2026-05-25T00:21:26.075929+00:00,osm_import_terminal_v4,{},venue
Terapya Bar,1154 Avenida Silva Jardim,,,,,,,-25.4413025,-49.2719835,2026-05-25T00:21:26.075929+00:00,approved,active,Brazil,community,osm_venues_br_v4,br_00325,br_venues_batch_v4,2026-05-25T00:21:26.075929+00:00,osm_import_terminal_v4,{},venue
Bar do Acre,366 Rua do Acre,São Paulo,,03181-100,,,,-23.5591034,-46.582149,2026-05-25T00:21:26.075929+00:00,approved,active,Brazil,community,osm_venues_br_v4,br_00326,br_venues_batch_v4,2026-05-25T00:21:26.075929+00:00,osm_import_terminal_v4,{},venue
Collins Pub,5761 Avenida do Contorno,Belo Horizonte,,,+55 31 3284-4191,,,-19.9398102,-43.9309682,2026-05-25T00:21:26.075929+00:00,approved,active,Brazil,community,osm_venues_br_v4,br_00327,br_venues_batch_v4,2026-05-25T00:21:26.075929+00:00,osm_import_terminal_v4,{},venue
Aqueces Bar,242 Rua Senador Xavier da Silva,Curitiba,,,,https://www.aquecesbar.com.br/,,-25.4211486,-49.2723266,2026-05-25T00:21:26.075929+00:00,approved,active,Brazil,community,osm_venues_br_v4,br_00328,br_venues_batch_v4,2026-05-25T00:21:26.075929+00:00,osm_import_terminal_v4,{},venue
Casa do Barão,,,,,,,,-22.9746243,-43.1900072,2026-05-25T00:21:26.075929+00:00,approved,active,Brazil,community,osm_venues_br_v4,br_00329,br_venues_batch_v4,2026-05-25T00:21:26.075929+00:00,osm_import_terminal_v4,{},venue
Yūbari 夕張,25 Rua Avanhandava,São Paulo,,01306-001,,https://www.instagram.com/yubarisp,,-23.5498093,-46.6451364,2026-05-25T00:21:26.075929+00:00,approved,active,Brazil,community,osm_venues_br_v4,br_00330,br_venues_batch_v4,2026-05-25T00:21:26.075929+00:00,osm_import_terminal_v4,{},venue
Bar do Rock,,,,,,,,-22.9553968,-43.1966846,2026-05-25T00:21:26.075929+00:00,approved,active,Brazil,community,osm_venues_br_v4,br_00331,br_venues_batch_v4,2026-05-25T00:21:26.075929+00:00,osm_import_terminal_v4,{},venue
Bar e Restaurante do Funa,452 Avenida Coronel Aparício Borges,Porto Alegre,,90680-580,,,,-30.0743652,-51.2036674,2026-05-25T00:21:26.075929+00:00,approved,active,Brazil,community,osm_venues_br_v4,br_00332,br_venues_batch_v4,2026-05-25T00:21:26.075929+00:00,osm_import_terminal_v4,{},venue
Mesa Bar,36 Rua Dinarte Ribeiro,Porto Alegre,,90570-050,,,,-30.0229288,-51.2039017,2026-05-25T00:21:26.075929+00:00,approved,active,Brazil,community,osm_venues_br_v4,br_00333,br_venues_batch_v4,2026-05-25T00:21:26.075929+00:00,osm_import_terminal_v4,{},venue
Del Barbiere Bistrô,188 Rua Jerônimo Coelho,Porto Alegre,,90010-241,,,,-30.0324646,-51.2275982,2026-05-25T00:21:26.075929+00:00,approved,active,Brazil,community,osm_venues_br_v4,br_00334,br_venues_batch_v4,2026-05-25T00:21:26.075929+00:00,osm_import_terminal_v4,{},venue
Avenida Bar,2983 Avenida Assis Brasil,Porto Alegre,,91010-002,,,,-30.0106063,-51.157273,2026-05-25T00:21:26.075929+00:00,approved,active,Brazil,community,osm_venues_br_v4,br_00335,br_venues_batch_v4,2026-05-25T00:21:26.075929+00:00,osm_import_terminal_v4,{},venue
Bar do Vandeco,Rua Capital Federal,,,,,,,-23.5389331,-46.6878439,2026-05-25T00:21:26.075929+00:00,approved,active,Brazil,community,osm_venues_br_v4,br_00336,br_venues_batch_v4,2026-05-25T00:21:26.075929+00:00,osm_import_terminal_v4,{},venue
Bar do Adão,,,,,,,,-22.976179,-43.189069,2026-05-25T00:21:26.075929+00:00,approved,active,Brazil,community,osm_venues_br_v4,br_00337,br_venues_batch_v4,2026-05-25T00:21:26.075929+00:00,osm_import_terminal_v4,{},venue
Panamá Bar,,,,,,,,-22.975732,-43.188849,2026-05-25T00:21:26.075929+00:00,approved,active,Brazil,community,osm_venues_br_v4,br_00338,br_venues_batch_v4,2026-05-25T00:21:26.075929+00:00,osm_import_terminal_v4,{},venue
Barônia,254 Rua General Lima e Silva,Porto Alegre,,90050-102,,,,-30.0360161,-51.2242558,2026-05-25T00:21:26.075929+00:00,approved,active,Brazil,community,osm_venues_br_v4,br_00339,br_venues_batch_v4,2026-05-25T00:21:26.075929+00:00,osm_import_terminal_v4,{},venue
Lima's Bar,269 Rua General Lima e Silva,Porto Alegre,,90050-101,+55 51 3061-8585,,,-30.0364009,-51.224029,2026-05-25T00:21:26.075929+00:00,approved,active,Brazil,community,osm_venues_br_v4,br_00340,br_venues_batch_v4,2026-05-25T00:21:26.075929+00:00,osm_import_terminal_v4,{},venue
Bar dos Guri,Rua José de Alencar,,,,,,,-30.0603803,-51.2224566,2026-05-25T00:21:26.075929+00:00,approved,active,Brazil,community,osm_venues_br_v4,br_00341,br_venues_batch_v4,2026-05-25T00:21:26.075929+00:00,osm_import_terminal_v4,{},venue
Bar do Pitiba,,,,,,,,-22.8236127,-43.1768914,2026-05-25T00:21:26.075929+00:00,approved,active,Brazil,community,osm_venues_br_v4,br_00342,br_venues_batch_v4,2026-05-25T00:21:26.075929+00:00,osm_import_terminal_v4,{},venue
Bar do waltinho,,,,,,,,-22.823254,-43.1779537,2026-05-25T00:21:26.075929+00:00,approved,active,Brazil,community,osm_venues_br_v4,br_00343,br_venues_batch_v4,2026-05-25T00:21:26.075929+00:00,osm_import_terminal_v4,{},venue
Bar do Roberto,,,,,,,,-22.8238293,-43.1776835,2026-05-25T00:21:26.075929+00:00,approved,active,Brazil,community,osm_venues_br_v4,br_00344,br_venues_batch_v4,2026-05-25T00:21:26.075929+00:00,osm_import_terminal_v4,{},venue
Bar do Maurício,,,,,,,,-22.8238824,-43.1776295,2026-05-25T00:21:26.075929+00:00,approved,active,Brazil,community,osm_venues_br_v4,br_00345,br_venues_batch_v4,2026-05-25T00:21:26.075929+00:00,osm_import_terminal_v4,{},venue
Bar do Camarão,,,,,,,,-22.8233657,-43.1784481,2026-05-25T00:21:26.075929+00:00,approved,active,Brazil,community,osm_venues_br_v4,br_00346,br_venues_batch_v4,2026-05-25T00:21:26.075929+00:00,osm_import_terminal_v4,{},venue
Bar dos Menine,,,,,,,,-23.5410967,-46.6821556,2026-05-25T00:21:26.075929+00:00,approved,active,Brazil,community,osm_venues_br_v4,br_00347,br_venues_batch_v4,2026-05-25T00:21:26.075929+00:00,osm_import_terminal_v4,{},venue
Ubaldino Bar e Restaurante,,,,,,,,-22.9105763,-43.1871883,2026-05-25T00:21:26.075929+00:00,approved,active,Brazil,community,osm_venues_br_v4,br_00348,br_venues_batch_v4,2026-05-25T00:21:26.075929+00:00,osm_import_terminal_v4,{},venue
Bar do Mário,,,,,,,,-23.5630503,-46.6825837,2026-05-25T00:21:26.075929+00:00,approved,active,Brazil,community,osm_venues_br_v4,br_00349,br_venues_batch_v4,2026-05-25T00:21:26.075929+00:00,osm_import_terminal_v4,{},venue
Bar e Pizzaria J.A.,124 Avenida Monte Cristo,Porto Alegre,,91750-000,,,,-30.1177906,-51.207422,2026-05-25T00:21:26.075929+00:00,approved,active,Brazil,community,osm_venues_br_v4,br_00350,br_venues_batch_v4,2026-05-25T00:21:26.075929+00:00,osm_import_terminal_v4,{},venue
Lagom Brewpub,72 Rua Bento Figueiredo,Porto Alegre,,,+55 51 3062-5045,,,-30.0346236,-51.2087887,2026-05-25T00:21:26.075929+00:00,approved,active,Brazil,community,osm_venues_br_v4,br_00351,br_venues_batch_v4,2026-05-25T00:21:26.075929+00:00,osm_import_terminal_v4,{},venue
Bar do Momo,50 - Loja A Rua General Espírito Santo Cardoso,Rio de Janeiro,,20530-500,+55 (21) 2570-9389,,,-22.9298003,-43.2431359,2026-05-25T00:21:26.075929+00:00,approved,active,Brazil,community,osm_venues_br_v4,br_00352,br_venues_batch_v4,2026-05-25T00:21:26.075929+00:00,osm_import_terminal_v4,{},venue
Bar Entre Folhas,709 Rua Major Lopes,Belo Horizonte,,30330-050,,,,-19.9462999,-43.9355648,2026-05-25T00:21:26.075929+00:00,approved,active,Brazil,community,osm_venues_br_v4,br_00353,br_venues_batch_v4,2026-05-25T00:21:26.075929+00:00,osm_import_terminal_v4,{},venue
Bar 3,,,,,,,,-30.0566578,-51.1721776,2026-05-25T00:21:26.075929+00:00,approved,active,Brazil,community,osm_venues_br_v4,br_00354,br_venues_batch_v4,2026-05-25T00:21:26.075929+00:00,osm_import_terminal_v4,{},venue
Barril 8000,,,,,,,,-22.8336027,-43.318598,2026-05-25T00:21:26.075929+00:00,approved,active,Brazil,community,osm_venues_br_v4,br_00355,br_venues_batch_v4,2026-05-25T00:21:26.075929+00:00,osm_import_terminal_v4,{},venue
B.G. Bar,126 Praça Santos Dumont,Rio de Janeiro,,22470-060,+55 21 2512-0761,https://www.facebook.com/BG-Bar-150791775083188/,,-22.9742545,-43.2271477,2026-05-25T00:21:26.075929+00:00,approved,active,Brazil,community,osm_venues_br_v4,br_00356,br_venues_batch_v4,2026-05-25T00:21:26.075929+00:00,osm_import_terminal_v4,{},venue
Bar Emporio Alfieri,,,,,,,,-23.4806103,-46.6893352,2026-05-25T00:21:26.075929+00:00,approved,active,Brazil,community,osm_venues_br_v4,br_00357,br_venues_batch_v4,2026-05-25T00:21:26.075929+00:00,osm_import_terminal_v4,{},venue
Bar do Titão,,,,,,,,-25.4639322,-49.2741657,2026-05-25T00:21:26.075929+00:00,approved,active,Brazil,community,osm_venues_br_v4,br_00358,br_venues_batch_v4,2026-05-25T00:21:26.075929+00:00,osm_import_terminal_v4,{},venue
Bar do Rafa,1979 Rua das Vertentes,São Paulo,,02251-002,,,,-23.4745917,-46.5848477,2026-05-25T00:21:26.075929+00:00,approved,active,Brazil,community,osm_venues_br_v4,br_00359,br_venues_batch_v4,2026-05-25T00:21:26.075929+00:00,osm_import_terminal_v4,{},venue
Bar Praia de Nazaré,,,,,,,,-22.924452,-43.2238893,2026-05-25T00:21:26.075929+00:00,approved,active,Brazil,community,osm_venues_br_v4,br_00360,br_venues_batch_v4,2026-05-25T00:21:26.075929+00:00,osm_import_terminal_v4,{},venue
Nosso Bar,,,,,,,,-22.910968,-43.1881621,2026-05-25T00:21:26.075929+00:00,approved,active,Brazil,community,osm_venues_br_v4,br_00361,br_venues_batch_v4,2026-05-25T00:21:26.075929+00:00,osm_import_terminal_v4,{},venue
Bar do Zé,50 Rua Marta,São Paulo,,,,,,-23.5309449,-46.6629599,2026-05-25T00:21:26.075929+00:00,approved,active,Brazil,community,osm_venues_br_v4,br_00362,br_venues_batch_v4,2026-05-25T00:21:26.075929+00:00,osm_import_terminal_v4,{},venue
Bar do Bigode,493 Avenida Nova Cantareira,São Paulo,,02331-000,,,,-23.487029,-46.6207194,2026-05-25T00:21:26.075929+00:00,approved,active,Brazil,community,osm_venues_br_v4,br_00363,br_venues_batch_v4,2026-05-25T00:21:26.075929+00:00,osm_import_terminal_v4,{},venue
Bar do Léo,2911 Avenida Corifeu de Azevedo Marques,São Paulo,,05339-000,,,,-23.5707253,-46.7405243,2026-05-25T00:21:26.075929+00:00,approved,active,Brazil,community,osm_venues_br_v4,br_00364,br_venues_batch_v4,2026-05-25T00:21:26.075929+00:00,osm_import_terminal_v4,{},venue
Bar do Chaguinho,,,,,,,,-22.9313191,-43.2016016,2026-05-25T00:21:26.075929+00:00,approved,active,Brazil,community,osm_venues_br_v4,br_00365,br_venues_batch_v4,2026-05-25T00:21:26.075929+00:00,osm_import_terminal_v4,{},venue
Bar do Marcone,,,,,,,,-22.9320948,-43.2021148,2026-05-25T00:21:26.075929+00:00,approved,active,Brazil,community,osm_venues_br_v4,br_00366,br_venues_batch_v4,2026-05-25T00:21:26.075929+00:00,osm_import_terminal_v4,{},venue
Snoopy Bar,,,,,,,,-30.0427464,-51.1907066,2026-05-25T00:21:26.075929+00:00,approved,active,Brazil,community,osm_venues_br_v4,br_00367,br_venues_batch_v4,2026-05-25T00:21:26.075929+00:00,osm_import_terminal_v4,{},venue
Bar e Lanchonete Vitória,,,,,,,,-22.9110212,-43.1853044,2026-05-25T00:21:26.075929+00:00,approved,active,Brazil,community,osm_venues_br_v4,br_00368,br_venues_batch_v4,2026-05-25T00:21:26.075929+00:00,osm_import_terminal_v4,{},venue
Bar do Adão,,,,,,,,-22.8313803,-43.3187724,2026-05-25T00:21:26.075929+00:00,approved,active,Brazil,community,osm_venues_br_v4,br_00369,br_venues_batch_v4,2026-05-25T00:21:26.075929+00:00,osm_import_terminal_v4,{},venue
Barra Escadinha,Rua Francisco Serrador,,,,,,,-22.9110784,-43.1761069,2026-05-25T00:21:26.075929+00:00,approved,active,Brazil,community,osm_venues_br_v4,br_00370,br_venues_batch_v4,2026-05-25T00:21:26.075929+00:00,osm_import_terminal_v4,{},venue
Ydaygoro Sushi Bar,710 Rua Natingui,,,,+55 11 3031-4185,http://www.ydaygoro.com.br,,-23.5530799,-46.6958815,2026-05-25T00:21:26.075929+00:00,approved,active,Brazil,community,osm_venues_br_v4,br_00371,br_venues_batch_v4,2026-05-25T00:21:26.075929+00:00,osm_import_terminal_v4,{},venue
Bar do Juarez,,,,,,,,-23.5900008,-46.6803884,2026-05-25T00:21:26.075929+00:00,approved,active,Brazil,community,osm_venues_br_v4,br_00372,br_venues_batch_v4,2026-05-25T00:21:26.075929+00:00,osm_import_terminal_v4,{},venue
Nola Bar,1156 Rua Mourato Coelho,São Paulo,,05417-012,,,,-23.5578703,-46.6914169,2026-05-25T00:21:26.075929+00:00,approved,active,Brazil,community,osm_venues_br_v4,br_00373,br_venues_batch_v4,2026-05-25T00:21:26.075929+00:00,osm_import_terminal_v4,{},venue
Café e bar Pombal,23 Rua Cardeal Arcoverde,São Paulo,,05407-000,,,,-23.5531114,-46.6739889,2026-05-25T00:21:26.075929+00:00,approved,active,Brazil,community,osm_venues_br_v4,br_00374,br_venues_batch_v4,2026-05-25T00:21:26.075929+00:00,osm_import_terminal_v4,{},venue
Bar do Adão,602 Avenida Gomes Freire,,,,,,,-22.9121243,-43.1834359,2026-05-25T00:21:26.075929+00:00,approved,active,Brazil,community,osm_venues_br_v4,br_00375,br_venues_batch_v4,2026-05-25T00:21:26.075929+00:00,osm_import_terminal_v4,{},venue
Bar de Brahmeiro,,,,,,,,-22.8909204,-43.2943038,2026-05-25T00:21:26.075929+00:00,approved,active,Brazil,community,osm_venues_br_v4,br_00376,br_venues_batch_v4,2026-05-25T00:21:26.075929+00:00,osm_import_terminal_v4,{},venue
Barril 8000,,,,,,,,-22.9037965,-43.296923,2026-05-25T00:21:26.075929+00:00,approved,active,Brazil,community,osm_venues_br_v4,br_00377,br_venues_batch_v4,2026-05-25T00:21:26.075929+00:00,osm_import_terminal_v4,{},venue
Bar do gorginho,,,,,,,,-22.8937794,-43.295781,2026-05-25T00:21:26.075929+00:00,approved,active,Brazil,community,osm_venues_br_v4,br_00378,br_venues_batch_v4,2026-05-25T00:21:26.075929+00:00,osm_import_terminal_v4,{},venue
Bar do Padeiro,Rua Leila Diniz,,,,,,,-19.7984467,-43.9249027,2026-05-25T00:21:26.075929+00:00,approved,active,Brazil,community,osm_venues_br_v4,br_00379,br_venues_batch_v4,2026-05-25T00:21:26.075929+00:00,osm_import_terminal_v4,{},venue
Coreto Bar e Restaurante,Praça Dona Mariquinha Sciascia,São Paulo,,,+55 11 4562-9702,,,-23.4592023,-46.6234776,2026-05-25T00:21:26.075929+00:00,approved,active,Brazil,community,osm_venues_br_v4,br_00380,br_venues_batch_v4,2026-05-25T00:21:26.075929+00:00,osm_import_terminal_v4,{},venue
Free Riders Pub,1561 Rua Frederico Mentz,Porto Alegre,,,,http://freeriders.com.br/,,-29.9958242,-51.2019555,2026-05-25T00:21:26.075929+00:00,approved,active,Brazil,community,osm_venues_br_v4,br_00381,br_venues_batch_v4,2026-05-25T00:21:26.075929+00:00,osm_import_terminal_v4,{},venue
Lima's Bar,112 Rua Bento Freitas,São Paulo,,01220-000,,,,-23.5428641,-46.6455743,2026-05-25T00:21:26.075929+00:00,approved,active,Brazil,community,osm_venues_br_v4,br_00382,br_venues_batch_v4,2026-05-25T00:21:26.075929+00:00,osm_import_terminal_v4,{},venue
Bar Guanabara,128 Avenida São João,São Paulo,,01036-000,1132287400,,,-23.5446837,-46.635862,2026-05-25T00:21:26.075929+00:00,approved,active,Brazil,community,osm_venues_br_v4,br_00383,br_venues_batch_v4,2026-05-25T00:21:26.075929+00:00,osm_import_terminal_v4,{},venue
Paribar,42 praça dom josé gaspar,São Paulo,,,+55 11 3159-0219,https://www.paribar.com.br/,,-23.5464681,-46.6418431,2026-05-25T00:21:26.075929+00:00,approved,active,Brazil,community,osm_venues_br_v4,br_00384,br_venues_batch_v4,2026-05-25T00:21:26.075929+00:00,osm_import_terminal_v4,{},venue
Muju Restobar,684 Rua Coronel Bordini,,,,+55 51 3328-0348,https://www.muju.com.br/,,-30.0238745,-51.1965821,2026-05-25T00:21:26.075929+00:00,approved,active,Brazil,community,osm_venues_br_v4,br_00385,br_venues_batch_v4,2026-05-25T00:21:26.075929+00:00,osm_import_terminal_v4,{},venue
Bar do Didi,178 Rua Bixira,São Paulo,,03119-020,,,,-23.5663105,-46.5905624,2026-05-25T00:21:26.075929+00:00,approved,active,Brazil,community,osm_venues_br_v4,br_00386,br_venues_batch_v4,2026-05-25T00:21:26.075929+00:00,osm_import_terminal_v4,{},venue
Bar do Carlinho,,,,,,,,-25.5052826,-49.2505036,2026-05-25T00:21:26.075929+00:00,approved,active,Brazil,community,osm_venues_br_v4,br_00387,br_venues_batch_v4,2026-05-25T00:21:26.075929+00:00,osm_import_terminal_v4,{},venue
Bar do David,,,,,964831046,,,-22.9607383,-43.1687796,2026-05-25T00:21:26.075929+00:00,approved,active,Brazil,community,osm_venues_br_v4,br_00388,br_venues_batch_v4,2026-05-25T00:21:26.075929+00:00,osm_import_terminal_v4,{},venue
Bar da Rita,Avenida andromeda,,,08330-410,,,,-23.6077443,-46.4567052,2026-05-25T00:21:26.075929+00:00,approved,active,Brazil,community,osm_venues_br_v4,br_00389,br_venues_batch_v4,2026-05-25T00:21:26.075929+00:00,osm_import_terminal_v4,{},venue
Ginger Mamut Bistrô-Bar,217 Rua Tonelero,rio de janeiro,,22030001,+55 21 2548-5314,https://gingermamut.com.br/,,-22.964738,-43.1810165,2026-05-25T00:21:26.075929+00:00,approved,active,Brazil,community,osm_venues_br_v4,br_00390,br_venues_batch_v4,2026-05-25T00:21:26.075929+00:00,osm_import_terminal_v4,{},venue
Bar e Restaurante Universidade,684 Avenida Vital Brasil,São Paulo,,05503-000,,,,-23.570408,-46.7106799,2026-05-25T00:21:26.075929+00:00,approved,active,Brazil,community,osm_venues_br_v4,br_00391,br_venues_batch_v4,2026-05-25T00:21:26.075929+00:00,osm_import_terminal_v4,{},venue
bar teste,222,,,,,,,-19.8071585,-44.020554,2026-05-25T00:21:26.075929+00:00,approved,active,Brazil,community,osm_venues_br_v4,br_00392,br_venues_batch_v4,2026-05-25T00:21:26.075929+00:00,osm_import_terminal_v4,{},venue
Baru,4 Rua Gonçalo de Carvalho,PORTO ALEGRE,,90035-170,+55 51 98133-0286,,,-30.0278702,-51.2141149,2026-05-25T00:21:26.075929+00:00,approved,active,Brazil,community,osm_venues_br_v4,br_00393,br_venues_batch_v4,2026-05-25T00:21:26.075929+00:00,osm_import_terminal_v4,{},venue
Multibar,,,,,,,,-23.5636925,-46.6326856,2026-05-25T00:21:26.075929+00:00,approved,active,Brazil,community,osm_venues_br_v4,br_00394,br_venues_batch_v4,2026-05-25T00:21:26.075929+00:00,osm_import_terminal_v4,{},venue
Empanadas Bar,489 Rua Wisard,São Paulo,,05434-080,+55 11 3032-2116,https://empanadasbar.com.br/,,-23.5565303,-46.6915344,2026-05-25T00:21:26.075929+00:00,approved,active,Brazil,community,osm_venues_br_v4,br_00395,br_venues_batch_v4,2026-05-25T00:21:26.075929+00:00,osm_import_terminal_v4,{},venue
Bar dos Caras,152 Rua Major Dantas Cortez,São Paulo,,02206-000,,,,-23.481558,-46.5995755,2026-05-25T00:21:26.075929+00:00,approved,active,Brazil,community,osm_venues_br_v4,br_00396,br_venues_batch_v4,2026-05-25T00:21:26.075929+00:00,osm_import_terminal_v4,{},venue
Bar de Roque,,,,,,,,-12.7918402,-38.4027044,2026-05-25T00:21:26.075929+00:00,approved,active,Brazil,community,osm_venues_br_v4,br_00397,br_venues_batch_v4,2026-05-25T00:21:26.075929+00:00,osm_import_terminal_v4,{},venue
Bar Amigos do Zé,92 Praça Franklin Roosevelt,São Paulo,,01303-020,+55 11 3257-5888,,,-23.5491537,-46.6463834,2026-05-25T00:21:26.075929+00:00,approved,active,Brazil,community,osm_venues_br_v4,br_00398,br_venues_batch_v4,2026-05-25T00:21:26.075929+00:00,osm_import_terminal_v4,{},venue
Bar e Café Crispiniano,98 Rua Sete de Abril,São Paulo,,01044-000,,,,-23.5467698,-46.6405048,2026-05-25T00:21:26.075929+00:00,approved,active,Brazil,community,osm_venues_br_v4,br_00399,br_venues_batch_v4,2026-05-25T00:21:26.075929+00:00,osm_import_terminal_v4,{},venue
Tan Tan Noddle Bar,153 Rua Fradique Coutinho,São Paulo,,05416-010,,,,-23.5651377,-46.6851973,2026-05-25T00:21:26.075929+00:00,approved,active,Brazil,community,osm_venues_br_v4,br_00400,br_venues_batch_v4,2026-05-25T00:21:26.075929+00:00,osm_import_terminal_v4,{},venue
Bar da Dona Onça,200 Avenida Ipiranga,São Paulo,,01046-010,1132572016,https://www.bardadonaonca.com.br/,,-23.5465557,-46.6448479,2026-05-25T00:21:26.075929+00:00,approved,active,Brazil,community,osm_venues_br_v4,br_00401,br_venues_batch_v4,2026-05-25T00:21:26.075929+00:00,osm_import_terminal_v4,{},venue
BrewDog Bar,41 Rua Coropé,São Paulo,,05426-010,,https://www.facebook.com/brewdogsaopaulo,,-23.5612831,-46.6939527,2026-05-25T00:21:26.075929+00:00,approved,active,Brazil,community,osm_venues_br_v4,br_00402,br_venues_batch_v4,2026-05-25T00:21:26.075929+00:00,osm_import_terminal_v4,{},venue
O Botequim Bar,,,,,,,,-12.7841857,-38.3892527,2026-05-25T00:21:26.075929+00:00,approved,active,Brazil,community,osm_venues_br_v4,br_00403,br_venues_batch_v4,2026-05-25T00:21:26.075929+00:00,osm_import_terminal_v4,{},venue
Taicum Sushi Bar,114 Rua Pirapora,,,04008-060,+55 11 3887-7819,,,-23.581166,-46.6513036,2026-05-25T00:21:26.075929+00:00,approved,active,Brazil,community,osm_venues_br_v4,br_00404,br_venues_batch_v4,2026-05-25T00:21:26.075929+00:00,osm_import_terminal_v4,{},venue
Bar Ambar,129 Rua Cunha Gago,São Paulo,,05421-000,,,,-23.5672653,-46.6905139,2026-05-25T00:21:26.075929+00:00,approved,active,Brazil,community,osm_venues_br_v4,br_00405,br_venues_batch_v4,2026-05-25T00:21:26.075929+00:00,osm_import_terminal_v4,{},venue
Bar Brahma Aeroclube,650 Avenida Olavo Fontoura,São Paulo,,02012-021,+55 11 2089-1127,https://www.barbrahmaaeroclube.com/,,-23.5134619,-46.6344179,2026-05-25T00:21:26.075929+00:00,approved,active,Brazil,community,osm_venues_br_v4,br_00406,br_venues_batch_v4,2026-05-25T00:21:26.075929+00:00,osm_import_terminal_v4,{},venue
