name,sport,place_type,latitude,longitude,address,city,state,zip,indoor,outdoor,verified,source
Cacha de Baloncesto,basketball,pitch,18.2950469,-67.2074583,,,PR,,false,true,false,openstreetmap
Cancha 2,basketball,pitch,18.4229274,-66.4745668,,,PR,,false,true,false,openstreetmap
"Cancha Abraham ""El Chino"" Ayala Díaz",basketball,pitch,18.3677373,-66.1429495,,,PR,,false,true,false,openstreetmap
"Cancha Abraham Alfonso ""Tito"" Pérez Rivera",basketball,pitch,18.3700971,-66.8252808,,,PR,,false,true,false,openstreetmap
"Cancha Adalberto ""Eto"" Siebens",basketball,pitch,18.0300687,-66.7903816,,,PR,,false,true,false,openstreetmap
Cancha Adecay,basketball,pitch,18.1190049,-66.1524002,,,PR,,false,true,false,openstreetmap
Cancha Alberto Zamot Bula,basketball,pitch,18.390807,-66.1417699,,,PR,,false,true,false,openstreetmap
Cancha Alcalde Leovigildo Cotte Torres,basketball,pitch,18.0353714,-67.0116142,,,PR,,false,true,false,openstreetmap
Cancha Aleina Ramírez González,basketball,pitch,17.9999998,-66.805656,,,PR,,false,true,false,openstreetmap
"Cancha Alfredo ""Dule"" Otero",basketball,pitch,18.330144,-66.4088353,,,PR,,false,true,false,openstreetmap
Cancha Ambrosio Medina Quintana,basketball,pitch,18.4587596,-66.9171238,,,PR,,false,true,false,openstreetmap
Cancha Amílcar Freddy Vélez,basketball,pitch,18.0781933,-66.9631514,,,PR,,false,true,false,openstreetmap
Cancha Anacleta Rosario Martínez,basketball,pitch,18.349548,-66.0818796,,,PR,,false,true,false,openstreetmap
"Cancha Anastacio ""Tato"" Pagán",basketball,pitch,18.3584387,-65.7861875,,,PR,,false,true,false,openstreetmap
Cancha Ancones,basketball,pitch,17.9911819,-66.0397038,,,PR,,false,true,false,openstreetmap
Cancha Ancones,basketball,pitch,18.0796206,-67.0442593,,,PR,,false,true,false,openstreetmap
"Cancha Andrés ""Corky"" Ortiz Colón",basketball,pitch,18.213714,-66.0719025,,,PR,,false,true,false,openstreetmap
Cancha Antonio Rivera Vázquez,basketball,pitch,18.3577127,-66.1466579,,,PR,,false,true,false,openstreetmap
Cancha Arleen Morales Colón,basketball,pitch,18.3101826,-66.161307,,,PR,,false,true,false,openstreetmap
"Cancha Asdruval Alvelo Pérez ""Faso""",basketball,pitch,18.2123721,-67.158748,,,PR,,false,true,false,openstreetmap
Cancha Atahualpa Torres Pacheco,basketball,pitch,18.0184075,-66.7936974,,,PR,,false,true,false,openstreetmap
Cancha Awilda Figueroa,basketball,pitch,18.231041,-66.0036803,,,PR,,false,true,false,openstreetmap
Cancha Bajo Techo - Palo Seco,basketball,pitch,18.4614609,-66.1443241,,,PR,,false,true,false,openstreetmap
"Cancha Bajo Techo Alexis ""Samú"" López",basketball,pitch,18.1647015,-65.7473746,,,PR,,false,true,false,openstreetmap
"Cancha Bajo Techo Efraín Ortiz ""Tato""",basketball,pitch,18.1477412,-65.847989,,,PR,,false,true,false,openstreetmap
"Cancha Bajo Techo Octavio ""Tulín"" Colón Tosado",basketball,pitch,18.3690882,-66.5219637,,,PR,,false,true,false,openstreetmap
Cancha Bajo Techo Profesor Raúl Papaleo,basketball,pitch,18.2276527,-66.0355385,,,PR,,false,true,false,openstreetmap
Cancha Bajo Techo de Cambalache,basketball,pitch,18.359832,-65.8827202,,,PR,,false,true,false,openstreetmap
Cancha Bajo Techo de Palmas Bajas,basketball,pitch,18.0128745,-66.118898,,,PR,,false,true,false,openstreetmap
Cancha Barahona,basketball,pitch,18.3540333,-66.4428033,,,PR,,false,true,false,openstreetmap
Cancha Belinda,basketball,pitch,17.9821798,-66.0553709,,,PR,,false,true,false,openstreetmap
"Cancha Benjamín ""Choby"" Ortiz",basketball,pitch,18.2600901,-66.1051391,,,PR,,false,true,false,openstreetmap
Cancha Benjamín Rosa Ortiz,basketball,pitch,18.1140519,-66.1699459,,,PR,,false,true,false,openstreetmap
Cancha Brisas,basketball,pitch,18.2395041,-66.1274154,,,PR,,false,true,false,openstreetmap
Cancha Bruno Cruz Malavé,basketball,pitch,18.1068452,-65.9641322,,,PR,,false,true,false,openstreetmap
Cancha Caracoles II,basketball,pitch,18.0527535,-66.7083649,,,PR,,false,true,false,openstreetmap
Cancha Caracoles III,basketball,pitch,18.0566267,-66.7167558,,,PR,,false,true,false,openstreetmap
"Cancha Carlos I. Rodríguez ""Carlitos""",basketball,pitch,18.3022651,-66.2451199,,,PR,,false,true,false,openstreetmap
Cancha Carlos Rentas Gallardo,basketball,pitch,18.0628646,-66.7107037,,,PR,,false,true,false,openstreetmap
"Cancha Carlos Wilfredo ""Benny"" Cortés Vázquez",basketball,pitch,18.2878367,-67.1411896,,,PR,,false,true,false,openstreetmap
Cancha Carmelo Anthony,basketball,pitch,18.4681807,-66.1135724,,,PR,,false,true,false,openstreetmap
Cancha Carmen Iris Pagán Colón,basketball,pitch,18.2225985,-66.0589885,,,PR,,false,true,false,openstreetmap
Cancha Carreras II,basketball,pitch,18.403058,-66.6823148,,,PR,,false,true,false,openstreetmap
Cancha Cañona,basketball,pitch,18.4033751,-65.9944884,,,PR,,false,true,false,openstreetmap
Cancha Cedro Abajo,basketball,pitch,18.2809761,-66.2718025,,,PR,,false,true,false,openstreetmap
Cancha Cibuco III,basketball,pitch,18.3305919,-66.3612172,,,PR,,false,true,false,openstreetmap
Cancha Cosme Antonio Ortiz Álvarez,basketball,pitch,18.0484383,-66.5478,,,PR,,false,true,false,openstreetmap
Cancha Cristian Agrón Orsini,basketball,pitch,18.289528,-67.189832,,,PR,,false,true,false,openstreetmap
"Cancha Cándido ""Cayito"" del Moral Millán",basketball,pitch,18.1546661,-65.826812,,,PR,,false,true,false,openstreetmap
"Cancha César ""Kory"" Vélez Rodríguez",basketball,pitch,18.0239543,-66.7856493,,,PR,,false,true,false,openstreetmap
Cancha César Torres López Jr.,basketball,pitch,18.0038045,-66.1119367,,,PR,,false,true,false,openstreetmap
"Cancha David ""Wayler"" Dávila",basketball,pitch,18.4278087,-65.8848376,,,PR,,false,true,false,openstreetmap
Cancha David Morales Reillo,basketball,pitch,18.4768678,-66.9094212,,,PR,,false,true,false,openstreetmap
Cancha David Pizarro,basketball,pitch,18.441569,-66.0469227,,,PR,,false,true,false,openstreetmap
"Cancha Doctor José Joaquín López Bidot ""Kinito""",basketball,pitch,18.4766613,-66.8666122,,,PR,,false,true,false,openstreetmap
Cancha Doctor Vicente Morales Lebrón,basketball,pitch,17.9832573,-65.9073511,,,PR,,false,true,false,openstreetmap
Cancha Doña Yeti,basketball,pitch,18.277879,-66.817874,,,PR,,false,true,false,openstreetmap
"Cancha Dr. Miguel A. ""Mikie"" Santos",basketball,pitch,18.0204677,-66.7827036,,,PR,,false,true,false,openstreetmap
Cancha Dr. Pedro Albizu Campos,basketball,pitch,18.0458899,-65.8730169,,,PR,,false,true,false,openstreetmap
"Cancha Eduardo A. Ramos Pérez ""Gerald""",basketball,pitch,18.4106497,-66.9295684,,,PR,,false,true,false,openstreetmap
Cancha Edwin Díaz Colón,basketball,pitch,18.3271933,-66.3993228,,,PR,,false,true,false,openstreetmap
Cancha El Cabo,basketball,pitch,18.4254119,-65.8658419,,,PR,,false,true,false,openstreetmap
Cancha El Deportivo,basketball,pitch,18.2808612,-66.0065231,,,PR,,false,true,false,openstreetmap
Cancha El Guárico,basketball,pitch,18.3396171,-66.2980716,,,PR,,false,true,false,openstreetmap
Cancha El Ramal,basketball,pitch,18.4671975,-67.0374616,,,PR,,false,true,false,openstreetmap
Cancha El Túnel,basketball,pitch,18.4420311,-66.0709797,,,PR,,false,true,false,openstreetmap
"Cancha Emilio ""Millo"" Pérez",basketball,pitch,18.403021,-66.3004674,,,PR,,false,true,false,openstreetmap
Cancha Erick Rosas,basketball,pitch,18.1761693,-67.0991869,,,PR,,false,true,false,openstreetmap
Cancha Extensión Los Pinos,basketball,pitch,18.1432298,-65.8296852,,,PR,,false,true,false,openstreetmap
Cancha Flor María Toledo Escalante,basketball,pitch,18.1248694,-66.1707072,,,PR,,false,true,false,openstreetmap
"Cancha Francis ""Bebo'' Machín Carmona",basketball,pitch,18.2243489,-65.904457,,,PR,,false,true,false,openstreetmap
Cancha Francis Omar Benítez Echevarría,basketball,pitch,18.2751645,-67.1242577,,,PR,,false,true,false,openstreetmap
"Cancha Francisco ""Pancho"" Rivera",basketball,pitch,18.4698376,-66.7548603,,,PR,,false,true,false,openstreetmap
"Cancha Francisco Esteban ""Paco"" Martínez Rivera",basketball,pitch,18.433646,-66.8522683,,,PR,,false,true,false,openstreetmap
Cancha Francisco Surillo Santiago,basketball,pitch,18.3573546,-66.0116004,,,PR,,false,true,false,openstreetmap
Cancha Gelito Ortega,basketball,pitch,18.3025486,-66.24641,,,PR,,false,true,false,openstreetmap
Cancha Geovanni Cyr Jiménez Brain,basketball,pitch,18.4708295,-66.9297629,,,PR,,false,true,false,openstreetmap
"Cancha Gladys ""La Guapa"" Matta",basketball,pitch,18.401716,-66.3025631,,,PR,,false,true,false,openstreetmap
Cancha Graciano Rodríguez,basketball,pitch,18.194406,-67.0441543,,,PR,,false,true,false,openstreetmap
"Cancha Guillermo ""Guillo"" Campos",basketball,pitch,18.3455669,-66.1735487,,,PR,,false,true,false,openstreetmap
"Cancha Guillermo ""Guillo"" Ortiz Negrón",basketball,pitch,18.2379034,-66.3993124,,,PR,,false,true,false,openstreetmap
"Cancha Hediberto ""Eddie"" Vargas Rodríguez",basketball,pitch,17.9695527,-66.9072805,,,PR,,false,true,false,openstreetmap
Cancha Hermanos Padilla,basketball,pitch,18.3898097,-66.2474986,,,PR,,false,true,false,openstreetmap
Cancha Hiram Caraballo,basketball,pitch,18.2643155,-65.9418898,,,PR,,false,true,false,openstreetmap
Cancha Honorable Héctor L. Colón Mendoza,basketball,pitch,18.031536,-66.1717702,,,PR,,false,true,false,openstreetmap
Cancha Héctor Luis Rojas Dávila,basketball,pitch,18.4419345,-66.9317355,,,PR,,false,true,false,openstreetmap
"Cancha Héctor M. ""Conchy"" Ortiz Justiniano",basketball,pitch,18.1796286,-67.154375,,,PR,,false,true,false,openstreetmap
"Cancha Iris Milagros ""Chiquita"" de Jesús",basketball,pitch,18.4598153,-66.9172753,,,PR,,false,true,false,openstreetmap
"Cancha Irma García Talavera ""Nenita""",basketball,pitch,18.2980713,-67.1844957,,,PR,,false,true,false,openstreetmap
Cancha Irving Barea Rosa,basketball,pitch,18.0909266,-67.1480556,,,PR,,false,true,false,openstreetmap
Cancha Irving Colón Santiago,basketball,pitch,18.0266401,-65.853882,,,PR,,false,true,false,openstreetmap
Cancha Isaac Rosario,basketball,pitch,18.4517869,-66.5433982,,,PR,,false,true,false,openstreetmap
"Cancha Ismael ""Trucutú"" Oquendo",basketball,pitch,18.4177199,-66.3152296,,,PR,,false,true,false,openstreetmap
Cancha Ismael Benabe,basketball,pitch,18.3682629,-65.7205432,,,PR,,false,true,false,openstreetmap
Cancha Ismael “Saby” Díaz Vázquez,basketball,pitch,18.3550333,-66.9532207,,,PR,,false,true,false,openstreetmap
Cancha Iván Rogelio Cruz Pérez,basketball,pitch,18.4776765,-66.8548441,,,PR,,false,true,false,openstreetmap
Cancha Jaime Herrans,basketball,pitch,18.4423034,-66.2549669,,,PR,,false,true,false,openstreetmap
Cancha Jeanniel Omar Rivera Ocasio,basketball,pitch,18.4443164,-66.3135018,,,PR,,false,true,false,openstreetmap
"Cancha Jesús ""Papo"" Dasta",basketball,pitch,18.4214823,-66.744463,,,PR,,false,true,false,openstreetmap
Cancha Joaquín Hernández Villalba,basketball,pitch,18.279967,-66.042024,,,PR,,false,true,false,openstreetmap
Cancha Jofraín Rivera Ayala,basketball,pitch,18.3040271,-66.5324005,,,PR,,false,true,false,openstreetmap
Cancha John Ruiz y Helson Rodríguez,basketball,pitch,18.0360795,-66.9083512,,,PR,,false,true,false,openstreetmap
"Cancha Jorge ""Nono"" Tulio Rodríguez Morales",basketball,pitch,18.4149163,-66.4846588,,,PR,,false,true,false,openstreetmap
Cancha Jorge Iván Torres Dávila,basketball,pitch,18.206599,-65.7079209,,,PR,,false,true,false,openstreetmap
Cancha Josué Bandas,basketball,pitch,18.0794532,-67.0501354,,,PR,,false,true,false,openstreetmap
"Cancha José ""Joe"" Hatton  Gotay",basketball,pitch,17.9868115,-66.6553728,,,PR,,false,true,false,openstreetmap
"Cancha José ""Pito"" Montes",basketball,pitch,18.3203928,-65.8713714,,,PR,,false,true,false,openstreetmap
"Cancha José ""Pocho"" Medina Díaz",basketball,pitch,18.3294949,-66.270696,,,PR,,false,true,false,openstreetmap
"Cancha José ""Tonicito"" Cordero",basketball,pitch,18.4853661,-66.787821,,,PR,,false,true,false,openstreetmap
"Cancha José A. Torres Ruiz ""Cheo""",basketball,pitch,18.0009278,-66.8753439,,,PR,,false,true,false,openstreetmap
"Cancha José Antonio Valentín Rosa ""Capullo""",basketball,pitch,18.4270944,-66.8657407,,,PR,,false,true,false,openstreetmap
Cancha José Guillermo Malavé Torres,basketball,pitch,18.1987769,-67.1278588,,,PR,,false,true,false,openstreetmap
"Cancha José Juan ""Chely"" Báez Yambó",basketball,pitch,18.3692215,-66.7921583,,,PR,,false,true,false,openstreetmap
"Cancha Juan Eugenio ""Efigenio"" Cortés Bonilla",basketball,pitch,18.3156065,-67.1295074,,,PR,,false,true,false,openstreetmap
Cancha Juan J. Santiago Torres,basketball,pitch,18.2853108,-66.7993857,,,PR,,false,true,false,openstreetmap
Cancha Juan Viera,basketball,pitch,18.1935591,-65.8853782,,,PR,,false,true,false,openstreetmap
Cancha Juanito Cabello,basketball,pitch,18.1829583,-66.1604549,,,PR,,false,true,false,openstreetmap
Cancha Julio Vega Vázquez,basketball,pitch,18.0774849,-67.034071,,,PR,,false,true,false,openstreetmap
Cancha La Inmaculada,basketball,pitch,18.4170209,-66.3175999,,,PR,,false,true,false,openstreetmap
Cancha La Playa,basketball,pitch,17.9925728,-65.888604,,,PR,,false,true,false,openstreetmap
Cancha La Veguita,basketball,pitch,18.1386839,-66.1681279,,,PR,,false,true,false,openstreetmap
Cancha Las Curias,basketball,pitch,18.3440771,-66.0489312,,,PR,,false,true,false,openstreetmap
Cancha Lincoln,basketball,pitch,18.4730093,-66.7131558,,,PR,,false,true,false,openstreetmap
Cancha Lobos,basketball,pitch,18.2886271,-67.191859,,,PR,,false,true,false,openstreetmap
Cancha Los Avatar,basketball,pitch,18.4464632,-66.2258447,,,PR,,false,true,false,openstreetmap
"Cancha Luis A. ""Pucho"" Santana Marrero",basketball,pitch,18.0587328,-66.979902,,,PR,,false,true,false,openstreetmap
Cancha Luis Brignoni Álvarez,basketball,pitch,18.4208085,-66.1685319,,,PR,,false,true,false,openstreetmap
Cancha Luis H. Rodríguez Correa,basketball,pitch,18.4271886,-66.496695,,,PR,,false,true,false,openstreetmap
"Cancha Luis Miguel García López ""Sitín""",basketball,pitch,18.4542538,-66.7407828,,,PR,,false,true,false,openstreetmap
Cancha Luis Rodríguez,basketball,pitch,17.9964754,-66.3411631,,,PR,,false,true,false,openstreetmap
Cancha Luis Ángel Román Delgado,basketball,pitch,18.4848469,-66.8759709,,,PR,,false,true,false,openstreetmap
Cancha Luis Ángel Toucet Nieves,basketball,pitch,18.0659228,-66.7241295,,,PR,,false,true,false,openstreetmap
Cancha Luz Eneida Sánchez Díaz,basketball,pitch,18.1537789,-65.9120247,,,PR,,false,true,false,openstreetmap
"Cancha Manuel ""Manny"" Siaca Ramos",basketball,pitch,18.4487868,-66.1814512,,,PR,,false,true,false,openstreetmap
"Cancha Manuel ""Manolín"" Díaz",basketball,pitch,18.1220027,-66.5000784,,,PR,,false,true,false,openstreetmap
"Cancha Manuel Figueroa ""Popeye""",basketball,pitch,18.4099419,-66.2214441,,,PR,,false,true,false,openstreetmap
Cancha Manuel López Vargas,basketball,pitch,18.2750426,-66.7111162,,,PR,,false,true,false,openstreetmap
Cancha Marisabel García Agosto,basketball,pitch,18.3524619,-66.1022669,25 Calle Pomarrosa,,PR,,false,true,false,openstreetmap
Cancha Marisandra Cintrón Meléndez,basketball,pitch,18.3587929,-66.2271035,,,PR,,false,true,false,openstreetmap
"Cancha María ""Tita"" Cabán",basketball,pitch,18.4468551,-66.0814863,,,PR,,true,false,false,openstreetmap
Cancha María Digna Martínez Padilla,basketball,pitch,18.0241372,-66.3337552,,,PR,,false,true,false,openstreetmap
Cancha María Dolores Ayala Porrata,basketball,pitch,18.326154,-65.644627,,,PR,,false,true,false,openstreetmap
Cancha Mata de Plátano,basketball,pitch,18.3570073,-65.7485655,,,PR,,false,true,false,openstreetmap
Cancha Melvin Rivera Medina,basketball,pitch,18.4713631,-66.752849,,,PR,,false,true,false,openstreetmap
Cancha Michael Santana,basketball,pitch,18.4182589,-66.2180388,,,PR,,false,true,false,openstreetmap
Cancha Mickey Coll,basketball,pitch,18.4991229,-67.0218787,,,PR,,false,true,false,openstreetmap
Cancha Migdalia Hernández Deliz,basketball,pitch,18.4781596,-66.9354381,,,PR,,false,true,false,openstreetmap
"Cancha Miguel A. ""Miguelón"" Merced Almenas",basketball,pitch,18.2544087,-66.1061876,,,PR,,false,true,false,openstreetmap
Cancha Miguel A. Clemente Pérez,basketball,pitch,18.4223127,-65.9836387,,,PR,,false,true,false,openstreetmap
Cancha Miguel Barbosa Figueroa,basketball,pitch,18.2370121,-66.0456849,,,PR,,false,true,false,openstreetmap
Cancha Miguel Marrero,basketball,pitch,18.3970188,-66.2601452,,,PR,,false,true,false,openstreetmap
Cancha Miguel Tacoronte,basketball,pitch,18.2985704,-66.8840015,,,PR,,false,true,false,openstreetmap
Cancha Miguel Ángel Cruz Cortés,basketball,pitch,18.4110997,-66.8571581,,,PR,,false,true,false,openstreetmap
Cancha Miguel Ángel Oquendo González,basketball,pitch,18.467544,-66.8512269,,,PR,,false,true,false,openstreetmap
Cancha Miguelina Colón Aledaña,basketball,pitch,18.4713579,-66.7524552,,,PR,,false,true,false,openstreetmap
Cancha Mirador Echevarría,basketball,pitch,18.1086161,-66.1708727,,,PR,,false,true,false,openstreetmap
Cancha Miriam Chardón,basketball,pitch,18.0206088,-66.6029294,,,PR,,false,true,false,openstreetmap
Cancha Mite Pizarro,basketball,pitch,18.1862413,-65.8705604,,,PR,,false,true,false,openstreetmap
Cancha Moisés Navedo,basketball,pitch,18.4493517,-66.3924965,,,PR,,false,true,false,openstreetmap
Cancha Municipal,basketball,pitch,18.3917099,-67.1095884,,,PR,,false,true,false,openstreetmap
"Cancha Municipal Francisco ""Pancho"" Padilla",basketball,pitch,18.4559158,-66.7241971,,,PR,,false,true,false,openstreetmap
"Cancha Nelson ""Tuti"" Negrón",basketball,pitch,18.1790083,-65.8647738,,,PR,,false,true,false,openstreetmap
Cancha Nelson Alers González,basketball,pitch,18.378168,-67.2009755,,,PR,,false,true,false,openstreetmap
Cancha Nicolás Maldonado,basketball,pitch,18.4211605,-66.5719115,,,PR,,false,true,false,openstreetmap
Cancha Noel Torres Rivera,basketball,pitch,18.3022449,-66.9548156,,,PR,,false,true,false,openstreetmap
Cancha Noel Velázquez,basketball,pitch,18.073649,-65.8966338,,,PR,,false,true,false,openstreetmap
Cancha Néstor Milete,basketball,pitch,18.3765236,-65.8343042,,,PR,,false,true,false,openstreetmap
"Cancha Orlando ""Rajao"" Ramírez",basketball,pitch,18.1187686,-67.0017462,,,PR,,false,true,false,openstreetmap
Cancha Pablo Ávila González,basketball,pitch,18.4863404,-66.846053,,,PR,,false,true,false,openstreetmap
Cancha Parcelas Acevedo,basketball,pitch,18.4003085,-67.1244789,,,PR,,false,true,false,openstreetmap
Cancha Parkhurst,basketball,pitch,18.177617,-65.871894,,,PR,,false,true,false,openstreetmap
Cancha Pascual Vega Ramírez,basketball,pitch,18.0798268,-66.9637373,,,PR,,false,true,false,openstreetmap
"Cancha Pedro ""Cuco"" Ortiz",basketball,pitch,18.3816051,-66.1325994,,,PR,,false,true,false,openstreetmap
Cancha Pedro Hernández,basketball,pitch,18.4778884,-66.9384863,,,PR,,false,true,false,openstreetmap
Cancha Pedro Pérez Pérez,basketball,pitch,18.4551691,-66.9542768,,,PR,,false,true,false,openstreetmap
Cancha Pedro Pérez Pérez,basketball,pitch,18.4296147,-66.9340179,,,PR,,false,true,false,openstreetmap
Cancha Pedro Ramos Ramos,basketball,pitch,18.4668029,-66.8439876,,,PR,,false,true,false,openstreetmap
Cancha Piñales,basketball,pitch,18.3005858,-67.1727497,,,PR,,false,true,false,openstreetmap
Cancha Piñas Arriba,basketball,pitch,18.1856199,-66.2296261,,,PR,,false,true,false,openstreetmap
Cancha Prof. Alcides Curet Torres,basketball,pitch,18.0794651,-66.9626359,,,PR,,false,true,false,openstreetmap
Cancha Prof. Edwin Albarrán Salcedo,basketball,pitch,18.0659516,-66.7319294,,,PR,,false,true,false,openstreetmap
Cancha Prof. Santos Rivera Vega,basketball,pitch,18.0496581,-67.0405975,,,PR,,false,true,false,openstreetmap
Cancha Profesor Miguel A. Ojeda Trinidad,basketball,pitch,18.4229462,-66.4809106,,,PR,,false,true,false,openstreetmap
Cancha Profesor Víctor I. Hugo Sepúlveda,basketball,pitch,18.1694781,-66.7207901,,,PR,,false,true,false,openstreetmap
Cancha Profesora Juana Cándida González Irizarry,basketball,pitch,18.1684681,-65.7792227,,,PR,,false,true,false,openstreetmap
Cancha Puerta de la Bahía,basketball,pitch,18.4485718,-66.0810273,,,PR,,false,true,false,openstreetmap
Cancha Rafael Antonio Chico Cordero,basketball,pitch,18.4663348,-66.8747306,,,PR,,false,true,false,openstreetmap
Cancha Rafael Morell Delgado,basketball,pitch,18.4112772,-66.0918664,,,PR,,false,true,false,openstreetmap
"Cancha Ramón ""Tigre"" Siragusa",basketball,pitch,18.4235637,-66.4743553,,,PR,,false,true,false,openstreetmap
Cancha Raúl A. Agosto García,basketball,pitch,18.4094165,-65.9604075,,,PR,,false,true,false,openstreetmap
Cancha Raúl Jiménez Negrón,basketball,pitch,18.3960742,-66.2166065,,,PR,,false,true,false,openstreetmap
Cancha Raúl Mendoza Santiago,basketball,pitch,18.5077311,-67.0228637,,,PR,,false,true,false,openstreetmap
Cancha Representante Carlos J. Vargas Ferrer,basketball,pitch,18.1757004,-66.1721984,,,PR,,false,true,false,openstreetmap
Cancha Reverendo Remigio González,basketball,pitch,18.3080027,-65.9977858,,,PR,,false,true,false,openstreetmap
Cancha Roberto Agosto Arrigoitia,basketball,pitch,18.193838,-65.8673044,,,PR,,false,true,false,openstreetmap
Cancha Roberto Silva Gómez,basketball,pitch,18.1174351,-65.9898259,,,PR,,false,true,false,openstreetmap
Cancha Robin Ocasio Torres,basketball,pitch,17.9881243,-66.9167954,,,PR,,false,true,false,openstreetmap
Cancha Roosevelt,basketball,pitch,18.1955889,-65.9640138,,,PR,,false,true,false,openstreetmap
"Cancha Rosaura ""Rosín"" Pérez Cintrón",basketball,pitch,18.1894379,-65.8945253,,,PR,,false,true,false,openstreetmap
Cancha Rubén Quiñones Piñeiro,basketball,pitch,18.0080442,-66.6350638,,,PR,,false,true,false,openstreetmap
Cancha Ruth Maritza Vásquez,basketball,pitch,18.2300225,-66.0417469,,,PR,,false,true,false,openstreetmap
Cancha Ryan Hiram Rodríguez Davison,basketball,pitch,18.3607376,-66.832064,,,PR,,false,true,false,openstreetmap
Cancha Santiago Vega,basketball,pitch,18.3872245,-66.8180452,,,PR,,false,true,false,openstreetmap
"Cancha Santos ""Titito"" Rivera",basketball,pitch,18.217726,-66.5970369,,,PR,,false,true,false,openstreetmap
Cancha Sector El Roble,basketball,pitch,18.1538409,-66.0947758,,,PR,,false,true,false,openstreetmap
Cancha Sector Medina,basketball,pitch,18.3272683,-65.8580224,,,PR,,false,true,false,openstreetmap
Cancha Shanghái,basketball,pitch,18.4465309,-66.0465569,,,PR,,true,false,false,openstreetmap
Cancha Simeón Villanueva Ramírez,basketball,pitch,18.3629921,-67.1706492,,,PR,,false,true,false,openstreetmap
Cancha Sixto Valentín,basketball,pitch,18.4072228,-66.6980821,,,PR,,false,true,false,openstreetmap
Cancha Steven Cruzado Torres,basketball,pitch,18.0629281,-67.0142254,,,PR,,false,true,false,openstreetmap
"Cancha Teniente Coronel Frank Román Rodríguez ""Frankie""",basketball,pitch,18.1031067,-66.957706,,,PR,,false,true,false,openstreetmap
Cancha Tokio,basketball,pitch,18.0532303,-67.0566328,,,PR,,false,true,false,openstreetmap
"Cancha Tomás ""Guabina"" Gutiérrez Ferrer",basketball,pitch,17.9523676,-66.1804681,,,PR,,false,true,false,openstreetmap
Cancha Torre del Norte,basketball,pitch,18.4026599,-66.0523929,,,PR,,false,true,false,openstreetmap
Cancha Tras Talleres,basketball,pitch,18.4446599,-66.0801007,,,PR,,false,true,false,openstreetmap
Cancha URB.Valles de Santa Olaya,basketball,pitch,18.323259,-66.1489089,Calle 8,,PR,,false,true,false,openstreetmap
Cancha Ubaldino Ramírez de Arellano,basketball,pitch,18.0829751,-67.0459184,,,PR,,false,true,false,openstreetmap
Cancha Villa Rosa II,basketball,pitch,17.9774904,-66.1030204,,,PR,,false,true,false,openstreetmap
Cancha Víctor Antonio López López,basketball,pitch,18.4715013,-66.8705006,,,PR,,false,true,false,openstreetmap
Cancha Víctor M. Marchand,basketball,pitch,18.4082205,-66.3248686,,,PR,,false,true,false,openstreetmap
Cancha Víctor Manuel Madera,basketball,sports_hall,17.9952201,-66.6065357,,,PR,,false,true,false,openstreetmap
"Cancha Wilfredo ""Wicky"" Justiniano Irizarry",basketball,pitch,18.1602863,-67.0788391,,,PR,,false,true,false,openstreetmap
Cancha Wilfredo Berrenguer,basketball,pitch,18.3459527,-66.2706809,,,PR,,false,true,false,openstreetmap
"Cancha William ""Billy"" Baun",basketball,pitch,18.4034628,-66.1403411,,,PR,,false,true,false,openstreetmap
Cancha Yahaira Liz Ortiz Piñero,basketball,pitch,18.2557812,-65.9643496,,,PR,,false,true,false,openstreetmap
Cancha Yhuvier I. Vázquez,basketball,pitch,18.3863013,-66.165285,,,PR,,false,true,false,openstreetmap
Cancha Zenón Lasalle,basketball,pitch,18.342784,-66.7908185,,,PR,,false,true,false,openstreetmap
Cancha Zoilo Colón,basketball,pitch,17.9581631,-66.1663946,,,PR,,false,true,false,openstreetmap
Cancha de Baloncesto,basketball,pitch,18.2943462,-67.1989041,,,PR,,false,true,false,openstreetmap
Cancha de Baloncesto,basketball,pitch,18.1191835,-66.1591884,,,PR,,false,true,false,openstreetmap
Cancha de Baloncesto,basketball,pitch,18.293716,-67.2023311,,,PR,,false,true,false,openstreetmap
Cancha de Baloncesto,basketball,pitch,18.2934988,-67.2023702,,,PR,,false,true,false,openstreetmap
Cancha de Baloncesto Barrio Las Ollas,basketball,pitch,18.0118156,-66.4235157,,,PR,,false,true,false,openstreetmap
Cancha de Baloncesto Coto Laurel,basketball,pitch,18.0355579,-66.5446012,,,PR,,false,true,false,openstreetmap
Cancha de Baloncesto Jose Mercado,basketball,pitch,18.2161787,-66.0142245,,,PR,,false,true,false,openstreetmap
Cancha de Baloncesto de Horizontes,basketball,pitch,18.2468923,-66.0003343,,,PR,,false,true,false,openstreetmap
Cancha de Cedros,basketball,pitch,18.296767,-65.914514,,,PR,,false,true,false,openstreetmap
Cancha de Cubuy,basketball,pitch,18.272849,-65.8798386,,,PR,,false,true,false,openstreetmap
Cancha de Rincón,basketball,pitch,18.234697,-65.9815865,,,PR,,false,true,false,openstreetmap
Cancha de baloncesto,basketball,pitch,18.0875251,-67.9391352,,,PR,,false,true,false,openstreetmap
Cancha de la Altura,basketball,pitch,18.2757018,-66.7847915,,,PR,,false,true,false,openstreetmap
Cancha de la Calle 10,basketball,pitch,18.4328586,-66.0558517,,,PR,,false,true,false,openstreetmap
Cancha de la Comunidad,basketball,pitch,18.2405842,-65.7454822,,,PR,,false,true,false,openstreetmap
Cancha del Este Jesús Manuel García Ramos,basketball,pitch,18.4614752,-66.277417,,,PR,,false,true,false,openstreetmap
"Cancha Ángel ""Coco"" Camacho",basketball,pitch,18.154744,-66.2336092,,,PR,,false,true,false,openstreetmap
"Cancha Ángel ""Pichy"" Santiago Pagán",basketball,pitch,18.0937776,-66.9236092,,,PR,,false,true,false,openstreetmap
Cancha Ángel Hommy de Jesús Velázquez,basketball,pitch,18.2365167,-65.8546492,,,PR,,false,true,false,openstreetmap
Cancha Ángel L. Cuevas,basketball,pitch,18.2847383,-66.7510673,,,PR,,false,true,false,openstreetmap
Cancha Ángel L. Rodríguez Rivera,basketball,pitch,18.3886538,-66.3824072,,,PR,,false,true,false,openstreetmap
Cancha Ángel Luis Ortiz Díaz,basketball,pitch,18.3358621,-65.9778932,,,PR,,false,true,false,openstreetmap
Cancha Ángel Rodríguez Reinosa,basketball,pitch,18.1841657,-65.8676252,,,PR,,false,true,false,openstreetmap
Cancha Ángel Tosado Aldiva,basketball,pitch,18.46023,-66.8554075,,,PR,,false,true,false,openstreetmap
"Cancha Óscar Martínez Figueroa ""El Colorao""",basketball,pitch,18.1847805,-65.8469684,,,PR,,false,true,false,openstreetmap
Centro de Usos Múltiples Ernesto Márquez Santos,basketball,pitch,18.2210967,-66.1714529,,,PR,,false,true,false,openstreetmap
Colegio San Vicente Ferrer,basketball,pitch,18.4402295,-66.1186845,,,PR,,false,true,false,openstreetmap
Coliseo Rafael A. Mangual,basketball,stadium,18.2130089,-67.1439427,,,PR,,false,true,false,openstreetmap
La Avalancha,basketball,pitch,18.4303226,-66.0460297,,,PR,,false,true,false,openstreetmap
Las Cobras Basketball Court,basketball,pitch,18.4418044,-66.1862205,,,PR,,false,true,false,openstreetmap
Moca Hoops Basketball Club,basketball,pitch,18.3997695,-67.1199578,,,PR,,false,true,false,openstreetmap
Paseo Alta Vista Basketball,basketball,pitch,18.3572902,-66.2044333,Paseo Palmas,,PR,,false,true,false,openstreetmap
Sabanerra Courts,basketball,pitch,18.4456539,-66.2666603,,,PR,,false,true,false,openstreetmap
UGHS Court,basketball,pitch,18.4051346,-66.0658818,,,PR,,false,true,false,openstreetmap
Venus Gardens Sur Court,basketball,pitch,18.37078,-66.0363545,,,PR,,false,true,false,openstreetmap
Basketball court,basketball,pitch,18.3922567,-67.1659773,Carretera 439,Aguada,PR,00602,false,true,false,openstreetmap
"Coliseo Ismael ""Chavalillo"" Delgado",basketball,pitch,18.3781202,-67.1984751,Avenida Nativo Alers,Aguada,PR,00602,false,true,false,openstreetmap
Coliseo Luis T. Díaz,basketball,pitch,18.4261659,-67.1550521,Paseo Real Marina,Aguadilla,PR,00603,false,true,false,openstreetmap
Cancha Bajo Techo La Puntilla,basketball,pitch,18.4437111,-66.1135516,Calle Recreo,Cataño,PR,00962,false,true,false,openstreetmap
Cancha Bajo Techo de Palmas Altas,basketball,pitch,18.0309924,-66.1311328,Carretera 15,Guayama,PR,00784,false,true,false,openstreetmap
Cancha de Santa Rosa 1,basketball,pitch,18.3445837,-66.1212215,,Guaynabo,PR,00971,false,true,false,openstreetmap
Cancha Urb. Jardines,basketball,pitch,18.4298998,-65.8767064,Carretera 187,Loíza,PR,00772,false,true,false,openstreetmap
"Cancha José Luis ""Wito"" Martínez",basketball,pitch,18.0398112,-66.9405318,Carretera Rotario,Sabana Grande,PR,00637,false,true,false,openstreetmap
Cancha Nilmarie Santini Martín,basketball,pitch,18.4386838,-66.0677131,Calle Los Ángeles,San Juan,PR,00909,false,true,false,openstreetmap
"Cancha Félix ""Felo"" Rivera",basketball,pitch,18.3650721,-66.2950324,PR-823,Toa Alta,PR,00953,false,true,false,openstreetmap
Cancha Extensión Santa Ana,basketball,pitch,18.4181697,-66.3135168,Calle Amatista,Vega Alta,PR,00692,false,true,false,openstreetmap
