venue_name,address,city,state,zip_code,phone,website,sports_supported,latitude,longitude,approved_at,photo_review_status,admin_status,country,origin_type,community_source,community_source_id,community_seed_batch,community_seeded_at,community_curated_by,community_provenance,place_type
O'Callaghans Shamrock Pub,,,,,+41 44 482 10 62,http://www.shamrock-irishpub.ch/,,47.3389071,8.5303237,2026-05-24T23:22:05.802996+00:00,approved,active,Switzerland,community,osm_venues_ch_v4,ch_00001,ch_venues_batch_v4,2026-05-24T23:22:05.802996+00:00,osm_import_terminal_v4,{},venue
Mellow Bar,,,,,,,,47.3406107,8.5298134,2026-05-24T23:22:05.802996+00:00,approved,active,Switzerland,community,osm_venues_ch_v4,ch_00002,ch_venues_batch_v4,2026-05-24T23:22:05.802996+00:00,osm_import_terminal_v4,{},venue
Sprüngli Café-Bar,21 Bahnhofstrasse,Zürich,,8001,,,,47.3692939,8.5392157,2026-05-24T23:22:05.802996+00:00,approved,active,Switzerland,community,osm_venues_ch_v4,ch_00003,ch_venues_batch_v4,2026-05-24T23:22:05.802996+00:00,osm_import_terminal_v4,{},venue
Big Ben Westside Pub,234 Hardstrasse,Zürich,,8005,+41 44 271 02 66,https://www.bigbenwestside.ch/,,47.3872345,8.519462,2026-05-24T23:22:05.802996+00:00,approved,active,Switzerland,community,osm_venues_ch_v4,ch_00004,ch_venues_batch_v4,2026-05-24T23:22:05.802996+00:00,osm_import_terminal_v4,{},venue
Café Bar ODEON,2 Limmatquai,Zürich,,8001,,https://odeon.ch/,,47.3677942,8.5451446,2026-05-24T23:22:05.802996+00:00,approved,active,Switzerland,community,osm_venues_ch_v4,ch_00005,ch_venues_batch_v4,2026-05-24T23:22:05.802996+00:00,osm_import_terminal_v4,{},venue
Drinx Bar db,24 Dufourstrasse,Zürich,,8008,,https://www.drinxbar.ch/,,47.3637126,8.547619,2026-05-24T23:22:05.802996+00:00,approved,active,Switzerland,community,osm_venues_ch_v4,ch_00006,ch_venues_batch_v4,2026-05-24T23:22:05.802996+00:00,osm_import_terminal_v4,{},venue
Hotel Hechtplatz Bar,,,,,,,,47.3682148,8.5452505,2026-05-24T23:22:05.802996+00:00,approved,active,Switzerland,community,osm_venues_ch_v4,ch_00007,ch_venues_batch_v4,2026-05-24T23:22:05.802996+00:00,osm_import_terminal_v4,{},venue
Milchbar,16 Kappelergasse,Zürich,,8001,,https://www.milchbar.ch/,,47.3689961,8.5402339,2026-05-24T23:22:05.802996+00:00,approved,active,Switzerland,community,osm_venues_ch_v4,ch_00008,ch_venues_batch_v4,2026-05-24T23:22:05.802996+00:00,osm_import_terminal_v4,{},venue
Old Fashion Bar,,,,,+41 44 225 18 86,https://old-fashion-bar.ch/,,47.3686626,8.5407519,2026-05-24T23:22:05.802996+00:00,approved,active,Switzerland,community,osm_venues_ch_v4,ch_00009,ch_venues_batch_v4,2026-05-24T23:22:05.802996+00:00,osm_import_terminal_v4,{},venue
Negishi sushi bar,22 Stadelhoferstrasse,Zürich,,8001,,,,47.3671507,8.547428,2026-05-24T23:22:05.802996+00:00,approved,active,Switzerland,community,osm_venues_ch_v4,ch_00010,ch_venues_batch_v4,2026-05-24T23:22:05.802996+00:00,osm_import_terminal_v4,{},venue
Bar Lounge Tietzes,,,,,,,,47.3440548,8.5670721,2026-05-24T23:22:05.802996+00:00,approved,active,Switzerland,community,osm_venues_ch_v4,ch_00011,ch_venues_batch_v4,2026-05-24T23:22:05.802996+00:00,osm_import_terminal_v4,{},venue
Oak Bar,,,,,,,,47.3675501,8.5375522,2026-05-24T23:22:05.802996+00:00,approved,active,Switzerland,community,osm_venues_ch_v4,ch_00012,ch_venues_batch_v4,2026-05-24T23:22:05.802996+00:00,osm_import_terminal_v4,{},venue
FLOR Café Bar,63 Seefeldstrasse,Zürich,,8008,,https://sorellhotels.com/de/seefeld/speis-trank/flor-cafe-bar,,47.3615761,8.5513602,2026-05-24T23:22:05.802996+00:00,approved,active,Switzerland,community,osm_venues_ch_v4,ch_00013,ch_venues_batch_v4,2026-05-24T23:22:05.802996+00:00,osm_import_terminal_v4,{},venue
Dupont Brasserie & Bar,4 Beatenplatz,Zürich,,8001,,https://dupont.ch/,,47.3761856,8.5413414,2026-05-24T23:22:05.802996+00:00,approved,active,Switzerland,community,osm_venues_ch_v4,ch_00014,ch_venues_batch_v4,2026-05-24T23:22:05.802996+00:00,osm_import_terminal_v4,{},venue
Schminkbar,,,,,,,,47.375762,8.5402732,2026-05-24T23:22:05.802996+00:00,approved,active,Switzerland,community,osm_venues_ch_v4,ch_00015,ch_venues_batch_v4,2026-05-24T23:22:05.802996+00:00,osm_import_terminal_v4,{},venue
Baryton,8 Schweizergasse,Zürich,,8001,,,,47.37605,8.5383251,2026-05-24T23:22:05.802996+00:00,approved,active,Switzerland,community,osm_venues_ch_v4,ch_00016,ch_venues_batch_v4,2026-05-24T23:22:05.802996+00:00,osm_import_terminal_v4,{},venue
Almodo Bar,,,,,,https://almodobar.com/,,47.3669773,8.5333873,2026-05-24T23:22:05.802996+00:00,approved,active,Switzerland,community,osm_venues_ch_v4,ch_00017,ch_venues_batch_v4,2026-05-24T23:22:05.802996+00:00,osm_import_terminal_v4,{},venue
Barfly'z,21 Gotthardstrasse,,,,+41 44 202 00 11,https://barflyz.ch/,,47.365884,8.5367894,2026-05-24T23:22:05.802996+00:00,approved,active,Switzerland,community,osm_venues_ch_v4,ch_00018,ch_venues_batch_v4,2026-05-24T23:22:05.802996+00:00,osm_import_terminal_v4,{},venue
Plaza Bar,109 Badenerstrasse,Zürich,,8004,,https://www.plaza-zurich.ch/programm-bar,,47.3741673,8.524726,2026-05-24T23:22:05.802996+00:00,approved,active,Switzerland,community,osm_venues_ch_v4,ch_00019,ch_venues_batch_v4,2026-05-24T23:22:05.802996+00:00,osm_import_terminal_v4,{},venue
Quartier 5 Restaurant & Bar,126 Hardturmstrasse,Zürich,,8005,+41 44 440 66 77,https://quartier5.ch/,,47.393791,8.5132196,2026-05-24T23:22:05.802996+00:00,approved,active,Switzerland,community,osm_venues_ch_v4,ch_00020,ch_venues_batch_v4,2026-05-24T23:22:05.802996+00:00,osm_import_terminal_v4,{},venue
Sport,,,,,,https://www.sport-bar.ch/,,47.3756046,8.5245573,2026-05-24T23:22:05.802996+00:00,approved,active,Switzerland,community,osm_venues_ch_v4,ch_00021,ch_venues_batch_v4,2026-05-24T23:22:05.802996+00:00,osm_import_terminal_v4,{},venue
Jaime El Barco,5 Otto-Schütz-Weg,Zürich,,8050,+41 44 310 21 70,https://www.jaime.ch/,,47.4148171,8.5408969,2026-05-24T23:22:05.802996+00:00,approved,active,Switzerland,community,osm_venues_ch_v4,ch_00022,ch_venues_batch_v4,2026-05-24T23:22:05.802996+00:00,osm_import_terminal_v4,{},venue
Kitchen & Bar by Courtyard,19 Max-Bill-Platz,Zürich,,8050,+41 44 564 03 31,http://www.marriott.com/hotel-restaurants/zrhcy-courtyard-zurich-north/bistro---eat.drink.connect./128325/home-page.mi,,47.4143135,8.5408549,2026-05-24T23:22:05.802996+00:00,approved,active,Switzerland,community,osm_venues_ch_v4,ch_00023,ch_venues_batch_v4,2026-05-24T23:22:05.802996+00:00,osm_import_terminal_v4,{},venue
La Baracca,103 Kanzleistrasse,,,,+41 43 811 80 04,www.osteria-santobevitore.ch/#la-baracca-ristorante,,47.3761736,8.522301,2026-05-24T23:22:05.802996+00:00,approved,active,Switzerland,community,osm_venues_ch_v4,ch_00024,ch_venues_batch_v4,2026-05-24T23:22:05.802996+00:00,osm_import_terminal_v4,{},venue
Dali's Bar,,,,,,https://www.dalis.ch/,,47.3748228,8.5178061,2026-05-24T23:22:05.802996+00:00,approved,active,Switzerland,community,osm_venues_ch_v4,ch_00025,ch_venues_batch_v4,2026-05-24T23:22:05.802996+00:00,osm_import_terminal_v4,{},venue
Bar Stadio,,,,,,,,47.3748899,8.5185444,2026-05-24T23:22:05.802996+00:00,approved,active,Switzerland,community,osm_venues_ch_v4,ch_00026,ch_venues_batch_v4,2026-05-24T23:22:05.802996+00:00,osm_import_terminal_v4,{},venue
CaBaRe,40 Rütihofstrasse,Zürich,,8049,+41 44 558 80 80,https://cabare.ch/,,47.4138889,8.4774567,2026-05-24T23:22:05.802996+00:00,approved,active,Switzerland,community,osm_venues_ch_v4,ch_00027,ch_venues_batch_v4,2026-05-24T23:22:05.802996+00:00,osm_import_terminal_v4,{},venue
Gräbli-Bar,66 Niederdorfstrasse,Zürich,,8001,,http://www.graebli-bar.ch/,,47.3755965,8.5441089,2026-05-24T23:22:05.802996+00:00,approved,active,Switzerland,community,osm_venues_ch_v4,ch_00028,ch_venues_batch_v4,2026-05-24T23:22:05.802996+00:00,osm_import_terminal_v4,{},venue
Play Bar,,,,,,https://playbar.ch/,,47.3762277,8.5146317,2026-05-24T23:22:05.802996+00:00,approved,active,Switzerland,community,osm_venues_ch_v4,ch_00029,ch_venues_batch_v4,2026-05-24T23:22:05.802996+00:00,osm_import_terminal_v4,{},venue
bQm Kulturcafé & Bar,34 Leonhardstrasse,Zürich,,8092,+41 44 632 75 03,https://www.bqm-bar.ch/,,47.3759249,8.5466398,2026-05-24T23:22:05.802996+00:00,approved,active,Switzerland,community,osm_venues_ch_v4,ch_00030,ch_venues_batch_v4,2026-05-24T23:22:05.802996+00:00,osm_import_terminal_v4,{},venue
Tannenbar,Tannenstrasse,,,,+41 44 632 62 55,https://ethz.ch/de/campus/erleben/gastronomie-und-einkaufen/gastronomie/restaurants-und-cafeterias/zentrum/tannenbar.html,,47.3773953,8.5478673,2026-05-24T23:22:05.802996+00:00,approved,active,Switzerland,community,osm_venues_ch_v4,ch_00031,ch_venues_batch_v4,2026-05-24T23:22:05.802996+00:00,osm_import_terminal_v4,{},venue
Clausiusbar,Tannenstrasse,,,,,https://web.sv-restaurant.ch/stores/42011/details,,47.3772558,8.5470004,2026-05-24T23:22:05.802996+00:00,approved,active,Switzerland,community,osm_venues_ch_v4,ch_00032,ch_venues_batch_v4,2026-05-24T23:22:05.802996+00:00,osm_import_terminal_v4,{},venue
Ristorante Bar Certo,5 Strassburgstrasse,Zürich,,8004,,https://casa-certo.ch/,,47.372245,8.5289743,2026-05-24T23:22:05.802996+00:00,approved,active,Switzerland,community,osm_venues_ch_v4,ch_00033,ch_venues_batch_v4,2026-05-24T23:22:05.802996+00:00,osm_import_terminal_v4,{},venue
Pelikanbar,Pelikanplatz,Zürich,,8001,,https://kaufleuten.ch/pelikanbar,,47.3717506,8.5364943,2026-05-24T23:22:05.802996+00:00,approved,active,Switzerland,community,osm_venues_ch_v4,ch_00034,ch_venues_batch_v4,2026-05-24T23:22:05.802996+00:00,osm_import_terminal_v4,{},venue
Rösslibar,3 Rössligasse,,,,,https://roessli-bar.ch/,,47.3692463,8.5443681,2026-05-24T23:22:05.802996+00:00,approved,active,Switzerland,community,osm_venues_ch_v4,ch_00035,ch_venues_batch_v4,2026-05-24T23:22:05.802996+00:00,osm_import_terminal_v4,{},venue
Piadina Bar,2 Niederdorfstrasse,Zürich,,8001,+41 44 251 65 94,https://www.piadina-bar-margherita.ch/,,47.37272,8.5438402,2026-05-24T23:22:05.802996+00:00,approved,active,Switzerland,community,osm_venues_ch_v4,ch_00036,ch_venues_batch_v4,2026-05-24T23:22:05.802996+00:00,osm_import_terminal_v4,{},venue
Big Ben Pub,52 Niederdorfstrasse,Zürich,,8001,+41 44 262 15 85,https://bigbenpubzurich.ch/,,47.3751577,8.5439328,2026-05-24T23:22:05.802996+00:00,approved,active,Switzerland,community,osm_venues_ch_v4,ch_00037,ch_venues_batch_v4,2026-05-24T23:22:05.802996+00:00,osm_import_terminal_v4,{},venue
Cana Bar,,,,,,,,47.374669,8.5439064,2026-05-24T23:22:05.802996+00:00,approved,active,Switzerland,community,osm_venues_ch_v4,ch_00038,ch_venues_batch_v4,2026-05-24T23:22:05.802996+00:00,osm_import_terminal_v4,{},venue
Züri Bar,,,,,,,,47.3739069,8.543775,2026-05-24T23:22:05.802996+00:00,approved,active,Switzerland,community,osm_venues_ch_v4,ch_00039,ch_venues_batch_v4,2026-05-24T23:22:05.802996+00:00,osm_import_terminal_v4,{},venue
BarMünster,,,,,,,,47.3716752,8.5438869,2026-05-24T23:22:05.802996+00:00,approved,active,Switzerland,community,osm_venues_ch_v4,ch_00040,ch_venues_batch_v4,2026-05-24T23:22:05.802996+00:00,osm_import_terminal_v4,{},venue
RestaurantBar,335 Schaffhauserstrasse,Zürich,,8050,,,,47.4085258,8.5464126,2026-05-24T23:22:05.802996+00:00,approved,active,Switzerland,community,osm_venues_ch_v4,ch_00041,ch_venues_batch_v4,2026-05-24T23:22:05.802996+00:00,osm_import_terminal_v4,{},venue
barfüsser,4 Zürichstrasse,Adliswil,,8134,+41 44 521 44 00,https://www.barfuesser.ch/de/restaurant-adliswil,,47.3124603,8.5274193,2026-05-24T23:22:05.802996+00:00,approved,active,Switzerland,community,osm_venues_ch_v4,ch_00042,ch_venues_batch_v4,2026-05-24T23:22:05.802996+00:00,osm_import_terminal_v4,{},venue
Bar & Kiosk Flussbad Unterer Letten,,Zürich,,,,,,47.3893649,8.5297423,2026-05-24T23:22:05.802996+00:00,approved,active,Switzerland,community,osm_venues_ch_v4,ch_00043,ch_venues_batch_v4,2026-05-24T23:22:05.802996+00:00,osm_import_terminal_v4,{},venue
Matahari Bar,237 Langstrasse,,,8005,,https://www.matahari-bar.ch,,47.3840524,8.5309307,2026-05-24T23:22:05.802996+00:00,approved,active,Switzerland,community,osm_venues_ch_v4,ch_00044,ch_venues_batch_v4,2026-05-24T23:22:05.802996+00:00,osm_import_terminal_v4,{},venue
Xenix Bar,,Zürich,,8004,,,,47.375227,8.5260558,2026-05-24T23:22:05.802996+00:00,approved,active,Switzerland,community,osm_venues_ch_v4,ch_00045,ch_venues_batch_v4,2026-05-24T23:22:05.802996+00:00,osm_import_terminal_v4,{},venue
Bar Tabac le Franc,88 Chemin de l'Église,,,,,,,46.2549486,6.08005,2026-05-24T23:22:05.802996+00:00,approved,active,Switzerland,community,osm_venues_ch_v4,ch_00046,ch_venues_batch_v4,2026-05-24T23:22:05.802996+00:00,osm_import_terminal_v4,{},venue
DoubleU Bar,,,,,,,,47.3737813,8.5434837,2026-05-24T23:22:05.802996+00:00,approved,active,Switzerland,community,osm_venues_ch_v4,ch_00047,ch_venues_batch_v4,2026-05-24T23:22:05.802996+00:00,osm_import_terminal_v4,{},venue
Grande Cafe & Bar,118 Limmatquai,,,,,https://grande.bar/,,47.3754177,8.543598,2026-05-24T23:22:05.802996+00:00,approved,active,Switzerland,community,osm_venues_ch_v4,ch_00048,ch_venues_batch_v4,2026-05-24T23:22:05.802996+00:00,osm_import_terminal_v4,{},venue
Villa Barone,,,,,,https://xn--villa-barone-dbendorf-mic.ch/,,47.3968792,8.6173975,2026-05-24T23:22:05.802996+00:00,approved,active,Switzerland,community,osm_venues_ch_v4,ch_00049,ch_venues_batch_v4,2026-05-24T23:22:05.802996+00:00,osm_import_terminal_v4,{},venue
Total Bar,19 Tellstrasse,Zürich,,8004,,https://www.totalbar.ch,,47.3787873,8.5288027,2026-05-24T23:22:05.802996+00:00,approved,active,Switzerland,community,osm_venues_ch_v4,ch_00050,ch_venues_batch_v4,2026-05-24T23:22:05.802996+00:00,osm_import_terminal_v4,{},venue
Mars Bar,15 Neufrankengasse,Zürich,,8004,,http://www.marsbar.ch/,,47.3804729,8.5270494,2026-05-24T23:22:05.802996+00:00,approved,active,Switzerland,community,osm_venues_ch_v4,ch_00051,ch_venues_batch_v4,2026-05-24T23:22:05.802996+00:00,osm_import_terminal_v4,{},venue
Satay Bar,,,,,,,,47.3831612,8.5001075,2026-05-24T23:22:05.802996+00:00,approved,active,Switzerland,community,osm_venues_ch_v4,ch_00052,ch_venues_batch_v4,2026-05-24T23:22:05.802996+00:00,osm_import_terminal_v4,{},venue
Oliver Twist Pub,6 Rindermarkt,,,,+41 44 252 47 10,,,47.3722957,8.544277,2026-05-24T23:22:05.802996+00:00,approved,active,Switzerland,community,osm_venues_ch_v4,ch_00053,ch_venues_batch_v4,2026-05-24T23:22:05.802996+00:00,osm_import_terminal_v4,{},venue
01bar,,,,,,,,47.373723,8.5430379,2026-05-24T23:22:05.802996+00:00,approved,active,Switzerland,community,osm_venues_ch_v4,ch_00054,ch_venues_batch_v4,2026-05-24T23:22:05.802996+00:00,osm_import_terminal_v4,{},venue
Saatlen Pub,,,,,,,,47.4052643,8.5710094,2026-05-24T23:22:05.802996+00:00,approved,active,Switzerland,community,osm_venues_ch_v4,ch_00055,ch_venues_batch_v4,2026-05-24T23:22:05.802996+00:00,osm_import_terminal_v4,{},venue
Coco Grill & Bar,1a Bleicherweg,Zürich,,8001,+41 44 211 98 98,https://www.restaurant-coco.ch/,,47.3689525,8.5384389,2026-05-24T23:22:05.802996+00:00,approved,active,Switzerland,community,osm_venues_ch_v4,ch_00056,ch_venues_batch_v4,2026-05-24T23:22:05.802996+00:00,osm_import_terminal_v4,{},venue
Alexis Bar,,,,,,,,47.3746263,8.5439159,2026-05-24T23:22:05.802996+00:00,approved,active,Switzerland,community,osm_venues_ch_v4,ch_00057,ch_venues_batch_v4,2026-05-24T23:22:05.802996+00:00,osm_import_terminal_v4,{},venue
Safari Bar,,,,,,,,47.3755066,8.5444788,2026-05-24T23:22:05.802996+00:00,approved,active,Switzerland,community,osm_venues_ch_v4,ch_00058,ch_venues_batch_v4,2026-05-24T23:22:05.802996+00:00,osm_import_terminal_v4,{},venue
Amazonia Bar,11 Sihlhallenstrasse,,,,,https://amazonia-bar.ch/,,47.3797682,8.5267148,2026-05-24T23:22:05.802996+00:00,approved,active,Switzerland,community,osm_venues_ch_v4,ch_00059,ch_venues_batch_v4,2026-05-24T23:22:05.802996+00:00,osm_import_terminal_v4,{},venue
Lambada Bar Club,43 Dienerstrasse,Zürich,,,,,,47.3784465,8.5268634,2026-05-24T23:22:05.802996+00:00,approved,active,Switzerland,community,osm_venues_ch_v4,ch_00060,ch_venues_batch_v4,2026-05-24T23:22:05.802996+00:00,osm_import_terminal_v4,{},venue
Longstreet Bar Club,92 Langstrasse,,,,,,,47.3781306,8.5269419,2026-05-24T23:22:05.802996+00:00,approved,active,Switzerland,community,osm_venues_ch_v4,ch_00061,ch_venues_batch_v4,2026-05-24T23:22:05.802996+00:00,osm_import_terminal_v4,{},venue
Green Mango Internet Cafe Bar,,,,,,,,47.3774342,8.5265204,2026-05-24T23:22:05.802996+00:00,approved,active,Switzerland,community,osm_venues_ch_v4,ch_00062,ch_venues_batch_v4,2026-05-24T23:22:05.802996+00:00,osm_import_terminal_v4,{},venue
Trübli Bar,67 Zeughausstrasse,,,,,,,47.3765636,8.5290029,2026-05-24T23:22:05.802996+00:00,approved,active,Switzerland,community,osm_venues_ch_v4,ch_00063,ch_venues_batch_v4,2026-05-24T23:22:05.802996+00:00,osm_import_terminal_v4,{},venue
Lugano Bar,108 Langstrasse,,,,,,,47.378784,8.5273116,2026-05-24T23:22:05.802996+00:00,approved,active,Switzerland,community,osm_venues_ch_v4,ch_00064,ch_venues_batch_v4,2026-05-24T23:22:05.802996+00:00,osm_import_terminal_v4,{},venue
Coconut Bar,,,,,,,,47.4005991,8.6066117,2026-05-24T23:22:05.802996+00:00,approved,active,Switzerland,community,osm_venues_ch_v4,ch_00065,ch_venues_batch_v4,2026-05-24T23:22:05.802996+00:00,osm_import_terminal_v4,{},venue
Ambrosi Coffee Bar,37 Viaduktstrasse,Zürich,,8005,+41 43 960 36 06,https://www.ambrosi.ch/,,47.3870494,8.5243741,2026-05-24T23:22:05.802996+00:00,approved,active,Switzerland,community,osm_venues_ch_v4,ch_00066,ch_venues_batch_v4,2026-05-24T23:22:05.802996+00:00,osm_import_terminal_v4,{},venue
Bar Zürichberg,21 Orellistrasse,Zürich,,8044,+41 44 268 35 35,https://www.zuerichberg.ch/bar,,47.3824554,8.5671437,2026-05-24T23:22:05.802996+00:00,approved,active,Switzerland,community,osm_venues_ch_v4,ch_00067,ch_venues_batch_v4,2026-05-24T23:22:05.802996+00:00,osm_import_terminal_v4,{},venue
Rimini Bar,10 Badweg,Zürich,,8001,,http://www.rimini.ch/,,47.3715541,8.5329039,2026-05-24T23:22:05.802996+00:00,approved,active,Switzerland,community,osm_venues_ch_v4,ch_00068,ch_venues_batch_v4,2026-05-24T23:22:05.802996+00:00,osm_import_terminal_v4,{},venue
Serpent Bar,,,,,,,,46.2282356,6.1428319,2026-05-24T23:22:05.802996+00:00,approved,active,Switzerland,community,osm_venues_ch_v4,ch_00069,ch_venues_batch_v4,2026-05-24T23:22:05.802996+00:00,osm_import_terminal_v4,{},venue
Bar des Délégués - 3ème étage,,,,,,,,46.2257062,6.1407307,2026-05-24T23:22:05.802996+00:00,approved,active,Switzerland,community,osm_venues_ch_v4,ch_00070,ch_venues_batch_v4,2026-05-24T23:22:05.802996+00:00,osm_import_terminal_v4,{},venue
Berta Bar,26 Bertastrasse,Zürich,,8003,,https://www.bertabar.ch/,,47.3744151,8.5141933,2026-05-24T23:22:05.802996+00:00,approved,active,Switzerland,community,osm_venues_ch_v4,ch_00071,ch_venues_batch_v4,2026-05-24T23:22:05.802996+00:00,osm_import_terminal_v4,{},venue
Vasco's Bar,20 Bäckerstrasse,,,,,,,47.3744297,8.5298014,2026-05-24T23:22:05.802996+00:00,approved,active,Switzerland,community,osm_venues_ch_v4,ch_00072,ch_venues_batch_v4,2026-05-24T23:22:05.802996+00:00,osm_import_terminal_v4,{},venue
Sherif's Bar,,,,,,,,47.3742758,8.5299844,2026-05-24T23:22:05.802996+00:00,approved,active,Switzerland,community,osm_venues_ch_v4,ch_00073,ch_venues_batch_v4,2026-05-24T23:22:05.802996+00:00,osm_import_terminal_v4,{},venue
Lou's Restaurant & Bar,106 Zweierstrasse,Zürich,,8003,+41 44 451 07 07,https://www.lous-restaurant.ch/,,47.3717267,8.5214185,2026-05-24T23:22:05.802996+00:00,approved,active,Switzerland,community,osm_venues_ch_v4,ch_00074,ch_venues_batch_v4,2026-05-24T23:22:05.802996+00:00,osm_import_terminal_v4,{},venue
Art 4 Bar,,,,,,,,47.3774238,8.5292763,2026-05-24T23:22:05.802996+00:00,approved,active,Switzerland,community,osm_venues_ch_v4,ch_00075,ch_venues_batch_v4,2026-05-24T23:22:05.802996+00:00,osm_import_terminal_v4,{},venue
Aelpli Bar,,,,,,,,47.3713868,8.5435505,2026-05-24T23:22:05.802996+00:00,approved,active,Switzerland,community,osm_venues_ch_v4,ch_00076,ch_venues_batch_v4,2026-05-24T23:22:05.802996+00:00,osm_import_terminal_v4,{},venue
CafeBar,,,,,,https://ethz.ch/de/campus/erleben/gastronomie-und-einkaufen/gastronomie/restaurants-und-cafeterias/zentrum/cafebar.html,,47.3763204,8.5480366,2026-05-24T23:22:05.802996+00:00,approved,active,Switzerland,community,osm_venues_ch_v4,ch_00077,ch_venues_batch_v4,2026-05-24T23:22:05.802996+00:00,osm_import_terminal_v4,{},venue
Savoy Brasserie & Bar,,,,,,,,47.3699603,8.5396803,2026-05-24T23:22:05.802996+00:00,approved,active,Switzerland,community,osm_venues_ch_v4,ch_00078,ch_venues_batch_v4,2026-05-24T23:22:05.802996+00:00,osm_import_terminal_v4,{},venue
Gamper Bar,75 Dienerstrasse,Zürich,,8004,,,,47.3792989,8.525277,2026-05-24T23:22:05.802996+00:00,approved,active,Switzerland,community,osm_venues_ch_v4,ch_00079,ch_venues_batch_v4,2026-05-24T23:22:05.802996+00:00,osm_import_terminal_v4,{},venue
Hotel Bar,,,,,,,,47.3805262,8.5252271,2026-05-24T23:22:05.802996+00:00,approved,active,Switzerland,community,osm_venues_ch_v4,ch_00080,ch_venues_batch_v4,2026-05-24T23:22:05.802996+00:00,osm_import_terminal_v4,{},venue
Old Gregory Pub,6 Schöneggstrasse,Zürich,,8004,+41 44 241 22 02,https://www.oldgregorypub.ch/,,47.3799256,8.5274015,2026-05-24T23:22:05.802996+00:00,approved,active,Switzerland,community,osm_venues_ch_v4,ch_00081,ch_venues_batch_v4,2026-05-24T23:22:05.802996+00:00,osm_import_terminal_v4,{},venue
The Spot Bar,22 Rolandstrasse,Zürich,,,,https://www.kaiserfranz.li/,,47.379506,8.5260401,2026-05-24T23:22:05.802996+00:00,approved,active,Switzerland,community,osm_venues_ch_v4,ch_00082,ch_venues_batch_v4,2026-05-24T23:22:05.802996+00:00,osm_import_terminal_v4,{},venue
Toro Bar,,,,,,https://www.torobar.com/,,47.3803358,8.5261534,2026-05-24T23:22:05.802996+00:00,approved,active,Switzerland,community,osm_venues_ch_v4,ch_00083,ch_venues_batch_v4,2026-05-24T23:22:05.802996+00:00,osm_import_terminal_v4,{},venue
Bar 63 chez Sylvia,,,,,,https://bar63.ch/,,47.3792854,8.5260935,2026-05-24T23:22:05.802996+00:00,approved,active,Switzerland,community,osm_venues_ch_v4,ch_00084,ch_venues_batch_v4,2026-05-24T23:22:05.802996+00:00,osm_import_terminal_v4,{},venue
Golden Gate Bar,15 Schöneggstrasse,Zürich,,8004,,http://www.goldengate-bar.ch/,,47.3799979,8.5267203,2026-05-24T23:22:05.802996+00:00,approved,active,Switzerland,community,osm_venues_ch_v4,ch_00085,ch_venues_batch_v4,2026-05-24T23:22:05.802996+00:00,osm_import_terminal_v4,{},venue
Macuto's Bar,,,,,,,,47.3786157,8.5265819,2026-05-24T23:22:05.802996+00:00,approved,active,Switzerland,community,osm_venues_ch_v4,ch_00086,ch_venues_batch_v4,2026-05-24T23:22:05.802996+00:00,osm_import_terminal_v4,{},venue
Le Baroque,56 Rue du Rhône,Genève,,1204,+41 22 310 39 90,https://www.lebaroquerestaurant.com/,,46.2040528,6.1476351,2026-05-24T23:22:05.802996+00:00,approved,active,Switzerland,community,osm_venues_ch_v4,ch_00087,ch_venues_batch_v4,2026-05-24T23:22:05.802996+00:00,osm_import_terminal_v4,{},venue
Barranco,141 Sihlfeldstrasse,Zürich,,8004,,https://www.barranco.ch/,,47.3792301,8.5158016,2026-05-24T23:22:05.802996+00:00,approved,active,Switzerland,community,osm_venues_ch_v4,ch_00088,ch_venues_batch_v4,2026-05-24T23:22:05.802996+00:00,osm_import_terminal_v4,{},venue
Bederbar,,,,,,https://bederhof.ch/,,47.3624835,8.5267513,2026-05-24T23:22:05.802996+00:00,approved,active,Switzerland,community,osm_venues_ch_v4,ch_00089,ch_venues_batch_v4,2026-05-24T23:22:05.802996+00:00,osm_import_terminal_v4,{},venue
Au coin du bar,17 Rue François-Versonnex,Genève,,1207,,https://www.aucoindubar.ch/,,46.2028316,6.1564015,2026-05-24T23:22:05.802996+00:00,approved,active,Switzerland,community,osm_venues_ch_v4,ch_00090,ch_venues_batch_v4,2026-05-24T23:22:05.802996+00:00,osm_import_terminal_v4,{},venue
Bar Basso,59 Sihlstrasse,,,,,https://barbasso.ch/,,47.372591,8.5334781,2026-05-24T23:22:05.802996+00:00,approved,active,Switzerland,community,osm_venues_ch_v4,ch_00091,ch_venues_batch_v4,2026-05-24T23:22:05.802996+00:00,osm_import_terminal_v4,{},venue
Petra's Tip Top Bar,13 Seilergraben,,,,,https://tip-top-bar.ch,,47.3735982,8.546581,2026-05-24T23:22:05.802996+00:00,approved,active,Switzerland,community,osm_venues_ch_v4,ch_00092,ch_venues_batch_v4,2026-05-24T23:22:05.802996+00:00,osm_import_terminal_v4,{},venue
Barcelona Restaurant,188 Hofwiesenstrasse,,,,+41 44 364 45 77,https://barcelonarestaurant.ch/,,47.4020484,8.5353195,2026-05-24T23:22:05.802996+00:00,approved,active,Switzerland,community,osm_venues_ch_v4,ch_00093,ch_venues_batch_v4,2026-05-24T23:22:05.802996+00:00,osm_import_terminal_v4,{},venue
Grand Duke Pub,8 Rue de-Monthoux,,,1201,+41 22 732 74 73,,,46.2103144,6.1495518,2026-05-24T23:22:05.802996+00:00,approved,active,Switzerland,community,osm_venues_ch_v4,ch_00094,ch_venues_batch_v4,2026-05-24T23:22:05.802996+00:00,osm_import_terminal_v4,{},venue
Goethe Bar,10 Sechseläutenplatz,Zürich,,8001,,https://www.brasserie-schiller.ch/,,47.3655117,8.5473418,2026-05-24T23:22:05.802996+00:00,approved,active,Switzerland,community,osm_venues_ch_v4,ch_00095,ch_venues_batch_v4,2026-05-24T23:22:05.802996+00:00,osm_import_terminal_v4,{},venue
Kennedy's Irish Pub,14 Freischützgasse,,,8004,,https://www.kennedys.ch/,,47.3773415,8.5332076,2026-05-24T23:22:05.802996+00:00,approved,active,Switzerland,community,osm_venues_ch_v4,ch_00096,ch_venues_batch_v4,2026-05-24T23:22:05.802996+00:00,osm_import_terminal_v4,{},venue
New Navy Bar,,,,,,,,46.1997457,6.1484877,2026-05-24T23:22:05.802996+00:00,approved,active,Switzerland,community,osm_venues_ch_v4,ch_00097,ch_venues_batch_v4,2026-05-24T23:22:05.802996+00:00,osm_import_terminal_v4,{},venue
Le Poids Public,23 Rue de la Filature,Carouge GE,,1227,,,,46.1857639,6.141089,2026-05-24T23:22:05.802996+00:00,approved,active,Switzerland,community,osm_venues_ch_v4,ch_00098,ch_venues_batch_v4,2026-05-24T23:22:05.802996+00:00,osm_import_terminal_v4,{},venue
Mahsen Shisha Bar,,,,,,,,47.4141779,8.5468304,2026-05-24T23:22:05.802996+00:00,approved,active,Switzerland,community,osm_venues_ch_v4,ch_00099,ch_venues_batch_v4,2026-05-24T23:22:05.802996+00:00,osm_import_terminal_v4,{},venue
Cooper's Pub,359 Schaffhauserstrasse,Zürich,,8050,,https://coopers-pub.ch/,,47.4106547,8.5463538,2026-05-24T23:22:05.802996+00:00,approved,active,Switzerland,community,osm_venues_ch_v4,ch_00100,ch_venues_batch_v4,2026-05-24T23:22:05.802996+00:00,osm_import_terminal_v4,{},venue
Malabar,,,,,+41 44 311 31 17,https://www.malabar-restaurant.ch/,,47.4105086,8.548421,2026-05-24T23:22:05.802996+00:00,approved,active,Switzerland,community,osm_venues_ch_v4,ch_00101,ch_venues_batch_v4,2026-05-24T23:22:05.802996+00:00,osm_import_terminal_v4,{},venue
Bar Grill '72,,,,,,,,46.1925752,6.1437585,2026-05-24T23:22:05.802996+00:00,approved,active,Switzerland,community,osm_venues_ch_v4,ch_00102,ch_venues_batch_v4,2026-05-24T23:22:05.802996+00:00,osm_import_terminal_v4,{},venue
Bar à Thym,,,,,,,,46.1882725,6.13706,2026-05-24T23:22:05.802996+00:00,approved,active,Switzerland,community,osm_venues_ch_v4,ch_00103,ch_venues_batch_v4,2026-05-24T23:22:05.802996+00:00,osm_import_terminal_v4,{},venue
Buena Vista Cafebar,6 Lindenplatz,Zürich,,8048,,,,47.3876933,8.4855445,2026-05-24T23:22:05.802996+00:00,approved,active,Switzerland,community,osm_venues_ch_v4,ch_00104,ch_venues_batch_v4,2026-05-24T23:22:05.802996+00:00,osm_import_terminal_v4,{},venue
Mr Pickwick Pub,80 Rue de Lausanne,Genève,,1202,,https://www.mrpickwick.ch/,,46.2164289,6.1478826,2026-05-24T23:22:05.802996+00:00,approved,active,Switzerland,community,osm_venues_ch_v4,ch_00105,ch_venues_batch_v4,2026-05-24T23:22:05.802996+00:00,osm_import_terminal_v4,{},venue
bar zueri west,,,,,,,,47.3885319,8.4865979,2026-05-24T23:22:05.802996+00:00,approved,active,Switzerland,community,osm_venues_ch_v4,ch_00106,ch_venues_batch_v4,2026-05-24T23:22:05.802996+00:00,osm_import_terminal_v4,{},venue
Bar Palette - 6ème étage,,,,,,,,46.228919,6.1422417,2026-05-24T23:22:05.802996+00:00,approved,active,Switzerland,community,osm_venues_ch_v4,ch_00107,ch_venues_batch_v4,2026-05-24T23:22:05.802996+00:00,osm_import_terminal_v4,{},venue
Café de la République,,,,,,,,46.1845401,6.174362,2026-05-24T23:22:05.802996+00:00,approved,active,Switzerland,community,osm_venues_ch_v4,ch_00108,ch_venues_batch_v4,2026-05-24T23:22:05.802996+00:00,osm_import_terminal_v4,{},venue
Darbar,1 Zollikerstrasse,Zürich,,8008,,https://www.darbar.ch/,,47.3642732,8.5548578,2026-05-24T23:22:05.802996+00:00,approved,active,Switzerland,community,osm_venues_ch_v4,ch_00109,ch_venues_batch_v4,2026-05-24T23:22:05.802996+00:00,osm_import_terminal_v4,{},venue
Morena Bar,1 Avenue Wendt,Genève,,,,,,46.2086095,6.1266677,2026-05-24T23:22:05.802996+00:00,approved,active,Switzerland,community,osm_venues_ch_v4,ch_00110,ch_venues_batch_v4,2026-05-24T23:22:05.802996+00:00,osm_import_terminal_v4,{},venue
Bar am Egge,,,,,,https://baramegge.ch,,47.369497,8.557336,2026-05-24T23:22:05.802996+00:00,approved,active,Switzerland,community,osm_venues_ch_v4,ch_00111,ch_venues_batch_v4,2026-05-24T23:22:05.802996+00:00,osm_import_terminal_v4,{},venue
Little Barrel,15 Rue du Lac,Genève,,,,,,46.2041772,6.157633,2026-05-24T23:22:05.802996+00:00,approved,active,Switzerland,community,osm_venues_ch_v4,ch_00112,ch_venues_batch_v4,2026-05-24T23:22:05.802996+00:00,osm_import_terminal_v4,{},venue
LOONI'S Café & Bar,36 Soodring,Adliswil,,8134,+41 44 710 15 15,https://www.loonis.ch/,,47.3158478,8.521219,2026-05-24T23:22:05.802996+00:00,approved,active,Switzerland,community,osm_venues_ch_v4,ch_00113,ch_venues_batch_v4,2026-05-24T23:22:05.802996+00:00,osm_import_terminal_v4,{},venue
Sip's Pub,380 Siewerdtstrasse,Zürich,,8050,,,,47.4121977,8.5468763,2026-05-24T23:22:05.802996+00:00,approved,active,Switzerland,community,osm_venues_ch_v4,ch_00114,ch_venues_batch_v4,2026-05-24T23:22:05.802996+00:00,osm_import_terminal_v4,{},venue
Konrad Kaffee- & Cocktailbar (ex 0815),,,,,,https://konrad.bar/,,47.3768147,8.538892,2026-05-24T23:22:05.802996+00:00,approved,active,Switzerland,community,osm_venues_ch_v4,ch_00115,ch_venues_batch_v4,2026-05-24T23:22:05.802996+00:00,osm_import_terminal_v4,{},venue
Churrasco Steakhouse & Bar,9 Glockengasse,Zürich,,8001,+41 44 221 11 44,https://churrasco.ch/,,47.3719325,8.5402773,2026-05-24T23:22:05.802996+00:00,approved,active,Switzerland,community,osm_venues_ch_v4,ch_00116,ch_venues_batch_v4,2026-05-24T23:22:05.802996+00:00,osm_import_terminal_v4,{},venue
Sport Restaurant Heerenschürli,20 Helen-Keller-Strasse,Zürich,,8051,+41 43 321 63 57,https://www.srh12.ch/,,47.4021219,8.5950897,2026-05-24T23:22:05.802996+00:00,approved,active,Switzerland,community,osm_venues_ch_v4,ch_00117,ch_venues_batch_v4,2026-05-24T23:22:05.802996+00:00,osm_import_terminal_v4,{},venue
Wohnzimmerbar,10 Kalkbreitestrasse,Zürich,,8003,,https://www.wohnzimmerbar.ch/,,47.3741237,8.5200665,2026-05-24T23:22:05.802996+00:00,approved,active,Switzerland,community,osm_venues_ch_v4,ch_00118,ch_venues_batch_v4,2026-05-24T23:22:05.802996+00:00,osm_import_terminal_v4,{},venue
Felix Bar,8 Kalkbreitestrasse,Zürich,,8003,,https://felix-zuerich.ch/,,47.3742488,8.5209052,2026-05-24T23:22:05.802996+00:00,approved,active,Switzerland,community,osm_venues_ch_v4,ch_00119,ch_venues_batch_v4,2026-05-24T23:22:05.802996+00:00,osm_import_terminal_v4,{},venue
miyo cafebar,11 Hafnerstrasse,Zürich,,8005,,https://www.instagram.com/miyo_cafebar/,,47.380794,8.5346589,2026-05-24T23:22:05.802996+00:00,approved,active,Switzerland,community,osm_venues_ch_v4,ch_00120,ch_venues_batch_v4,2026-05-24T23:22:05.802996+00:00,osm_import_terminal_v4,{},venue
Penalty Restaurant Bar,,,,,,,,47.3714333,8.5285099,2026-05-24T23:22:05.802996+00:00,approved,active,Switzerland,community,osm_venues_ch_v4,ch_00121,ch_venues_batch_v4,2026-05-24T23:22:05.802996+00:00,osm_import_terminal_v4,{},venue
Bar OTRO,,,,,,https://www.otro.bar/,,47.3784483,8.5287399,2026-05-24T23:22:05.802996+00:00,approved,active,Switzerland,community,osm_venues_ch_v4,ch_00122,ch_venues_batch_v4,2026-05-24T23:22:05.802996+00:00,osm_import_terminal_v4,{},venue
Eden Kitchen & Bar,45 Utoquai,,,,+41 44 266 25 25,https://www.lareserve-zurich.com/de/restaurants/eden-kitchen-and-bar/,,47.3627091,8.5473718,2026-05-24T23:22:05.802996+00:00,approved,active,Switzerland,community,osm_venues_ch_v4,ch_00123,ch_venues_batch_v4,2026-05-24T23:22:05.802996+00:00,osm_import_terminal_v4,{},venue
La Ola Bar,85 Sihlfeldstrasse,Zürich,,8004,,,,47.3761962,8.5162805,2026-05-24T23:22:05.802996+00:00,approved,active,Switzerland,community,osm_venues_ch_v4,ch_00124,ch_venues_batch_v4,2026-05-24T23:22:05.802996+00:00,osm_import_terminal_v4,{},venue
Seefeldbar,188 Seefeldstrasse,Zürich,,8008,,,,47.3547507,8.5571903,2026-05-24T23:22:05.802996+00:00,approved,active,Switzerland,community,osm_venues_ch_v4,ch_00125,ch_venues_batch_v4,2026-05-24T23:22:05.802996+00:00,osm_import_terminal_v4,{},venue
Hummer- und Austernbar,,,,,,,,47.3763401,8.5389154,2026-05-24T23:22:05.802996+00:00,approved,active,Switzerland,community,osm_venues_ch_v4,ch_00126,ch_venues_batch_v4,2026-05-24T23:22:05.802996+00:00,osm_import_terminal_v4,{},venue
The International Beer Bar,7 Luisenstrasse,Zürich,,8005,,https://www.theinternational.ch/,,47.3828872,8.5287112,2026-05-24T23:22:05.802996+00:00,approved,active,Switzerland,community,osm_venues_ch_v4,ch_00127,ch_venues_batch_v4,2026-05-24T23:22:05.802996+00:00,osm_import_terminal_v4,{},venue
Barizzi,34 Brauerstrasse,Zürich,,8004,,,,47.3776951,8.5274497,2026-05-24T23:22:05.802996+00:00,approved,active,Switzerland,community,osm_venues_ch_v4,ch_00128,ch_venues_batch_v4,2026-05-24T23:22:05.802996+00:00,osm_import_terminal_v4,{},venue
Nyala Barka,4 Rue Gourgas,,,,+41 22 328 50 66,http://www.nyalabarka.ch/,,46.1992915,6.1390352,2026-05-24T23:22:05.802996+00:00,approved,active,Switzerland,community,osm_venues_ch_v4,ch_00129,ch_venues_batch_v4,2026-05-24T23:22:05.802996+00:00,osm_import_terminal_v4,{},venue
Limabar,Pelikanplatz,Zürich,,8001,,https://kaufleuten.ch/limabar,,47.3716426,8.5357895,2026-05-24T23:22:05.802996+00:00,approved,active,Switzerland,community,osm_venues_ch_v4,ch_00130,ch_venues_batch_v4,2026-05-24T23:22:05.802996+00:00,osm_import_terminal_v4,{},venue
Le Kraken Bar,Rue de l'Ecole-de-Médecine,,,,,,,46.1973234,6.1382992,2026-05-24T23:22:05.802996+00:00,approved,active,Switzerland,community,osm_venues_ch_v4,ch_00131,ch_venues_batch_v4,2026-05-24T23:22:05.802996+00:00,osm_import_terminal_v4,{},venue
Bohemie Bar,,,,,,,,46.2142314,6.128937,2026-05-24T23:22:05.802996+00:00,approved,active,Switzerland,community,osm_venues_ch_v4,ch_00132,ch_venues_batch_v4,2026-05-24T23:22:05.802996+00:00,osm_import_terminal_v4,{},venue
S'Beer bar,,,,,,http://www.sbeer.fr/,,46.2436968,6.0943036,2026-05-24T23:22:05.802996+00:00,approved,active,Switzerland,community,osm_venues_ch_v4,ch_00133,ch_venues_batch_v4,2026-05-24T23:22:05.802996+00:00,osm_import_terminal_v4,{},venue
Tales Bar,,,,,+41 77 509 62 74,https://www.tales-bar.ch/,,47.3727707,8.5326599,2026-05-24T23:22:05.802996+00:00,approved,active,Switzerland,community,osm_venues_ch_v4,ch_00134,ch_venues_batch_v4,2026-05-24T23:22:05.802996+00:00,osm_import_terminal_v4,{},venue
Corner Pub,6 Place de la Navigation,,,1201,,,,46.2117964,6.1500077,2026-05-24T23:22:05.802996+00:00,approved,active,Switzerland,community,osm_venues_ch_v4,ch_00135,ch_venues_batch_v4,2026-05-24T23:22:05.802996+00:00,osm_import_terminal_v4,{},venue
La Barje,Promenade des Lavandières,Genève,,1204,,http://www.labarje.ch/lieux/lavandiere/,,46.2047401,6.1388383,2026-05-24T23:22:05.802996+00:00,approved,active,Switzerland,community,osm_venues_ch_v4,ch_00136,ch_venues_batch_v4,2026-05-24T23:22:05.802996+00:00,osm_import_terminal_v4,{},venue
italian pub & restaurant pizzeria,,,,,,,,46.2001801,6.1317886,2026-05-24T23:22:05.802996+00:00,approved,active,Switzerland,community,osm_venues_ch_v4,ch_00137,ch_venues_batch_v4,2026-05-24T23:22:05.802996+00:00,osm_import_terminal_v4,{},venue
Capocaccia - Rest./ Bar,6 Rue de la Rôtisserie,,,1204,+41 22 310 15 15,http://capocaccia.co,,46.2028606,6.1460428,2026-05-24T23:22:05.802996+00:00,approved,active,Switzerland,community,osm_venues_ch_v4,ch_00138,ch_venues_batch_v4,2026-05-24T23:22:05.802996+00:00,osm_import_terminal_v4,{},venue
Chicago Bar,,Zürich,,8005,,,,47.3825931,8.5299484,2026-05-24T23:22:05.802996+00:00,approved,active,Switzerland,community,osm_venues_ch_v4,ch_00139,ch_venues_batch_v4,2026-05-24T23:22:05.802996+00:00,osm_import_terminal_v4,{},venue
BASILICA Bar & Lounge,239 Heinrichstrasse,Zürich,,8005,,,,47.3888334,8.5224703,2026-05-24T23:22:05.802996+00:00,approved,active,Switzerland,community,osm_venues_ch_v4,ch_00140,ch_venues_batch_v4,2026-05-24T23:22:05.802996+00:00,osm_import_terminal_v4,{},venue
Olé Olé Bar,138 Langstrasse,Zürich,,8004,,https://oleolebar.ch/,,47.3800296,8.5280643,2026-05-24T23:22:05.802996+00:00,approved,active,Switzerland,community,osm_venues_ch_v4,ch_00141,ch_venues_batch_v4,2026-05-24T23:22:05.802996+00:00,osm_import_terminal_v4,{},venue
Da Capo Bar,,Zürich,,8001,,,,47.3771949,8.5407369,2026-05-24T23:22:05.802996+00:00,approved,active,Switzerland,community,osm_venues_ch_v4,ch_00142,ch_venues_batch_v4,2026-05-24T23:22:05.802996+00:00,osm_import_terminal_v4,{},venue
Il Baretto,,Zürich,,8001,,https://stores.ilbaretto.ch/,,47.378481,8.5397177,2026-05-24T23:22:05.802996+00:00,approved,active,Switzerland,community,osm_venues_ch_v4,ch_00143,ch_venues_batch_v4,2026-05-24T23:22:05.802996+00:00,osm_import_terminal_v4,{},venue
Il Baretto,15 Bahnhofplatz,Zürich,,8001,,https://stores.ilbaretto.ch/,,47.3770331,8.5402146,2026-05-24T23:22:05.802996+00:00,approved,active,Switzerland,community,osm_venues_ch_v4,ch_00144,ch_venues_batch_v4,2026-05-24T23:22:05.802996+00:00,osm_import_terminal_v4,{},venue
Balboa Bar & Gym,,Zürich,,8002,+41 44 770 24 26,https://www.balboamove.ch/,,47.3686781,8.5356419,2026-05-24T23:22:05.802996+00:00,approved,active,Switzerland,community,osm_venues_ch_v4,ch_00145,ch_venues_batch_v4,2026-05-24T23:22:05.802996+00:00,osm_import_terminal_v4,{},venue
Barista Corado,,,,,,https://www.corado.ch/,,47.4119512,8.5433198,2026-05-24T23:22:05.802996+00:00,approved,active,Switzerland,community,osm_venues_ch_v4,ch_00146,ch_venues_batch_v4,2026-05-24T23:22:05.802996+00:00,osm_import_terminal_v4,{},venue
Shannon Pub,,,,8600,+41 44 822 45 55,https://www.shannon-bar.ch/,,47.3994169,8.6218756,2026-05-24T23:22:05.802996+00:00,approved,active,Switzerland,community,osm_venues_ch_v4,ch_00147,ch_venues_batch_v4,2026-05-24T23:22:05.802996+00:00,osm_import_terminal_v4,{},venue
The Track Bar,Rue du Fort-Barreau,,,,,,,46.2115649,6.1396769,2026-05-24T23:22:05.802996+00:00,approved,active,Switzerland,community,osm_venues_ch_v4,ch_00148,ch_venues_batch_v4,2026-05-24T23:22:05.802996+00:00,osm_import_terminal_v4,{},venue
Brasserie La Sportive,,,,,,,,46.193798,6.1439187,2026-05-24T23:22:05.802996+00:00,approved,active,Switzerland,community,osm_venues_ch_v4,ch_00149,ch_venues_batch_v4,2026-05-24T23:22:05.802996+00:00,osm_import_terminal_v4,{},venue
Jame's Pub,64 Rue de-Monthoux,,,1201,,http://www.james-pub.com,,46.2116102,6.1452436,2026-05-24T23:22:05.802996+00:00,approved,active,Switzerland,community,osm_venues_ch_v4,ch_00150,ch_venues_batch_v4,2026-05-24T23:22:05.802996+00:00,osm_import_terminal_v4,{},venue
Mo Bar,1 Quai Turrettini,,,,,,,46.2055758,6.1407286,2026-05-24T23:22:05.802996+00:00,approved,active,Switzerland,community,osm_venues_ch_v4,ch_00151,ch_venues_batch_v4,2026-05-24T23:22:05.802996+00:00,osm_import_terminal_v4,{},venue
Aubrugg & Bar Aubrugg,2 Gewerbehallenstrasse,,,8302,+41 44 830 43 73,https://www.restaurant-aubrugg.ch/,,47.4142916,8.5740857,2026-05-24T23:22:05.802996+00:00,approved,active,Switzerland,community,osm_venues_ch_v4,ch_00152,ch_venues_batch_v4,2026-05-24T23:22:05.802996+00:00,osm_import_terminal_v4,{},venue
Sportsbar 1904,,,,,,https://de.fifamuseum.com/visit/sports-bar-1904/,,47.3637041,8.5317183,2026-05-24T23:22:05.802996+00:00,approved,active,Switzerland,community,osm_venues_ch_v4,ch_00153,ch_venues_batch_v4,2026-05-24T23:22:05.802996+00:00,osm_import_terminal_v4,{},venue
L'Etabli Bar,,,,,,,,46.1973914,6.1387679,2026-05-24T23:22:05.802996+00:00,approved,active,Switzerland,community,osm_venues_ch_v4,ch_00154,ch_venues_batch_v4,2026-05-24T23:22:05.802996+00:00,osm_import_terminal_v4,{},venue
George Bar & Grill,,,,,+41 44 444 50 60,,,47.3733124,8.5326645,2026-05-24T23:22:05.802996+00:00,approved,active,Switzerland,community,osm_venues_ch_v4,ch_00155,ch_venues_batch_v4,2026-05-24T23:22:05.802996+00:00,osm_import_terminal_v4,{},venue
Il Baretto,,Zürich,,8001,,https://stores.ilbaretto.ch/,,47.3778169,8.5398255,2026-05-24T23:22:05.802996+00:00,approved,active,Switzerland,community,osm_venues_ch_v4,ch_00156,ch_venues_batch_v4,2026-05-24T23:22:05.802996+00:00,osm_import_terminal_v4,{},venue
Tina Bar,10 Niederdorfstrasse,Zürich,,8001,,https://brasserie-louis.ch/,,47.3729812,8.5438547,2026-05-24T23:22:05.802996+00:00,approved,active,Switzerland,community,osm_venues_ch_v4,ch_00157,ch_venues_batch_v4,2026-05-24T23:22:05.802996+00:00,osm_import_terminal_v4,{},venue
Terrasse Bar & Lounge,3 Limmatquai,Zürich,,8001,+41 44 251 10 74,https://www.bindella.ch/de/terrasse-bar-lounge.html,,47.3677777,8.5444838,2026-05-24T23:22:05.802996+00:00,approved,active,Switzerland,community,osm_venues_ch_v4,ch_00158,ch_venues_batch_v4,2026-05-24T23:22:05.802996+00:00,osm_import_terminal_v4,{},venue
IGNIV Bar Zürich,,,,,,https://www.marktgassehotel.ch/de/drink-dine,,47.3720209,8.5436551,2026-05-24T23:22:05.802996+00:00,approved,active,Switzerland,community,osm_venues_ch_v4,ch_00159,ch_venues_batch_v4,2026-05-24T23:22:05.802996+00:00,osm_import_terminal_v4,{},venue
Globus Fashion-Bar,,,,,,,,47.4081181,8.5957191,2026-05-24T23:22:05.802996+00:00,approved,active,Switzerland,community,osm_venues_ch_v4,ch_00160,ch_venues_batch_v4,2026-05-24T23:22:05.802996+00:00,osm_import_terminal_v4,{},venue
Manta Bar,,,,,,,,47.4083855,8.595319,2026-05-24T23:22:05.802996+00:00,approved,active,Switzerland,community,osm_venues_ch_v4,ch_00161,ch_venues_batch_v4,2026-05-24T23:22:05.802996+00:00,osm_import_terminal_v4,{},venue
Negishi Sushi Bar,1 Nägelihof,Zürich,,8001,+41 44 252 05 10,https://www.negishi.ch/zuerich-niederdorf,,47.3708593,8.5434759,2026-05-24T23:22:05.802996+00:00,approved,active,Switzerland,community,osm_venues_ch_v4,ch_00162,ch_venues_batch_v4,2026-05-24T23:22:05.802996+00:00,osm_import_terminal_v4,{},venue
Collana Bar e Caffè,9 Theaterstrasse,Zürich,,8001,,https://www.commercio.ch/collana/,,47.3658964,8.5466368,2026-05-24T23:22:05.802996+00:00,approved,active,Switzerland,community,osm_venues_ch_v4,ch_00163,ch_venues_batch_v4,2026-05-24T23:22:05.802996+00:00,osm_import_terminal_v4,{},venue
Lobby-Bar Hotel Rütli,43 Zähringerstrasse,,,,,,,47.3762011,8.5444271,2026-05-24T23:22:05.802996+00:00,approved,active,Switzerland,community,osm_venues_ch_v4,ch_00164,ch_venues_batch_v4,2026-05-24T23:22:05.802996+00:00,osm_import_terminal_v4,{},venue
SBB Café Bar WestLink,11 Vulkanplatz,Zürich,,8048,+41 44 419 03 76,https://www.zfv.ch/de/essen-gehen/sbb-restaurant-westlink,,47.3918827,8.4907147,2026-05-24T23:22:05.802996+00:00,approved,active,Switzerland,community,osm_venues_ch_v4,ch_00165,ch_venues_batch_v4,2026-05-24T23:22:05.802996+00:00,osm_import_terminal_v4,{},venue
IQ Bar,316 Hardstrasse,Zürich,,8005,,,,47.3900813,8.522261,2026-05-24T23:22:05.802996+00:00,approved,active,Switzerland,community,osm_venues_ch_v4,ch_00166,ch_venues_batch_v4,2026-05-24T23:22:05.802996+00:00,osm_import_terminal_v4,{},venue
d'Bar,,,,,,,,47.3737064,8.5459212,2026-05-24T23:22:05.802996+00:00,approved,active,Switzerland,community,osm_venues_ch_v4,ch_00167,ch_venues_batch_v4,2026-05-24T23:22:05.802996+00:00,osm_import_terminal_v4,{},venue
Public Burger,,,,,,https://www.public-burger.ch/,,47.3580937,8.5234939,2026-05-24T23:22:05.802996+00:00,approved,active,Switzerland,community,osm_venues_ch_v4,ch_00168,ch_venues_batch_v4,2026-05-24T23:22:05.802996+00:00,osm_import_terminal_v4,{},venue
Cafébar Enzian,36;38 Thurgauerstrasse,Zürich,,8050,,https://stiftung-enzian.ch/cafebars-2/,,47.4140301,8.5517506,2026-05-24T23:22:05.802996+00:00,approved,active,Switzerland,community,osm_venues_ch_v4,ch_00169,ch_venues_batch_v4,2026-05-24T23:22:05.802996+00:00,osm_import_terminal_v4,{},venue
Restaurant Bar Miracle,37 Fröhlichstrasse,Zürich,,8008,+41 44 382 20 05,https://miracleseefeld.ch/,,47.3545311,8.5560474,2026-05-24T23:22:05.802996+00:00,approved,active,Switzerland,community,osm_venues_ch_v4,ch_00170,ch_venues_batch_v4,2026-05-24T23:22:05.802996+00:00,osm_import_terminal_v4,{},venue
Bar A Dox,73 Sihlstrasse,Zürich,,8001,,https://www.baradox.ch/,,47.3727639,8.5333255,2026-05-24T23:22:05.802996+00:00,approved,active,Switzerland,community,osm_venues_ch_v4,ch_00171,ch_venues_batch_v4,2026-05-24T23:22:05.802996+00:00,osm_import_terminal_v4,{},venue
Glamour Bar,,,,,,http://www.glamour-bar.ch/,,47.3758798,8.5294424,2026-05-24T23:22:05.802996+00:00,approved,active,Switzerland,community,osm_venues_ch_v4,ch_00172,ch_venues_batch_v4,2026-05-24T23:22:05.802996+00:00,osm_import_terminal_v4,{},venue
Pizzeria Cuore Sportivo,10 Auenstrasse,Dübendorf,,8600,+41 44 821 90 83,https://www.pizzeria-cuoresportivo.ch,,47.3955774,8.5984968,2026-05-24T23:22:05.802996+00:00,approved,active,Switzerland,community,osm_venues_ch_v4,ch_00173,ch_venues_batch_v4,2026-05-24T23:22:05.802996+00:00,osm_import_terminal_v4,{},venue
K-PUB,8 Rue de la Navigation,,,,,,,46.2118676,6.1488126,2026-05-24T23:22:05.802996+00:00,approved,active,Switzerland,community,osm_venues_ch_v4,ch_00174,ch_venues_batch_v4,2026-05-24T23:22:05.802996+00:00,osm_import_terminal_v4,{},venue
Rent a Barista,34 Thurgauerstrasse,Zürich,,8050,,https://rentabarista.ch,,47.4136639,8.5515395,2026-05-24T23:22:05.802996+00:00,approved,active,Switzerland,community,osm_venues_ch_v4,ch_00175,ch_venues_batch_v4,2026-05-24T23:22:05.802996+00:00,osm_import_terminal_v4,{},venue
Mövenpick Wein-Bar,1 Nüschelerstrasse,Zürich,,8001,,https://www.moevenpick-wein.com/de/moevenpick-wein-bar-zuerich,,47.3711382,8.5373456,2026-05-24T23:22:05.802996+00:00,approved,active,Switzerland,community,osm_venues_ch_v4,ch_00176,ch_venues_batch_v4,2026-05-24T23:22:05.802996+00:00,osm_import_terminal_v4,{},venue
Bar Sacchi,,,,,,https://sacchi.bar/,,47.3753496,8.5165696,2026-05-24T23:22:05.802996+00:00,approved,active,Switzerland,community,osm_venues_ch_v4,ch_00177,ch_venues_batch_v4,2026-05-24T23:22:05.802996+00:00,osm_import_terminal_v4,{},venue
Irchel Bar,179 Winterthurerstrasse,Zürich,,8057,,https://www.mensa.uzh.ch/de/standorte/irchel-bar.html,,47.3979087,8.5465036,2026-05-24T23:22:05.802996+00:00,approved,active,Switzerland,community,osm_venues_ch_v4,ch_00178,ch_venues_batch_v4,2026-05-24T23:22:05.802996+00:00,osm_import_terminal_v4,{},venue
Bar Aperto,205 Nordstrasse,Zürich,,8037,,,,47.392871,8.5303727,2026-05-24T23:22:05.802996+00:00,approved,active,Switzerland,community,osm_venues_ch_v4,ch_00179,ch_venues_batch_v4,2026-05-24T23:22:05.802996+00:00,osm_import_terminal_v4,{},venue
Kitchen Republic,239 Heinrichstrasse,Zürich,,8005,+41 44 271 48 01,https://www.kitchen-republic.ch/de/zuerich-west,,47.3889173,8.5222924,2026-05-24T23:22:05.802996+00:00,approved,active,Switzerland,community,osm_venues_ch_v4,ch_00180,ch_venues_batch_v4,2026-05-24T23:22:05.802996+00:00,osm_import_terminal_v4,{},venue
ADN Bar,59 Rue de Lausanne,Genève,,1201,,,,46.2150298,6.1465277,2026-05-24T23:22:05.802996+00:00,approved,active,Switzerland,community,osm_venues_ch_v4,ch_00181,ch_venues_batch_v4,2026-05-24T23:22:05.802996+00:00,osm_import_terminal_v4,{},venue
Negishi Sushi Bar,11 Altstetterplatz,Zürich,,8048,,https://www.negishi.ch/de/zuerich-altstetten,,47.3915889,8.4883066,2026-05-24T23:22:05.802996+00:00,approved,active,Switzerland,community,osm_venues_ch_v4,ch_00182,ch_venues_batch_v4,2026-05-24T23:22:05.802996+00:00,osm_import_terminal_v4,{},venue
Helvetia Pool Bar,1 Stauffacherquai,,,8004,,https://hotel-helvetia.ch/poolbar/,,47.3730775,8.5316368,2026-05-24T23:22:05.802996+00:00,approved,active,Switzerland,community,osm_venues_ch_v4,ch_00183,ch_venues_batch_v4,2026-05-24T23:22:05.802996+00:00,osm_import_terminal_v4,{},venue
Jules Verne Panoramabar,9 Uraniastrasse,Zürich,,8001,+41 43 888 66 66,https://www.jules-verne.ch/,,47.3742607,8.539349,2026-05-24T23:22:05.802996+00:00,approved,active,Switzerland,community,osm_venues_ch_v4,ch_00184,ch_venues_batch_v4,2026-05-24T23:22:05.802996+00:00,osm_import_terminal_v4,{},venue
Turmbar,120 Seestrasse,,,,+41 44 914 18 18,https://sonne.ch/restaurants-und-bar/turmbar/,,47.319026,8.5786573,2026-05-24T23:22:05.802996+00:00,approved,active,Switzerland,community,osm_venues_ch_v4,ch_00185,ch_venues_batch_v4,2026-05-24T23:22:05.802996+00:00,osm_import_terminal_v4,{},venue
Barfussbar,,,,,+41 44 251 33 31,https://barfussbar.ch/,,47.3684502,8.5420327,2026-05-24T23:22:05.802996+00:00,approved,active,Switzerland,community,osm_venues_ch_v4,ch_00186,ch_venues_batch_v4,2026-05-24T23:22:05.802996+00:00,osm_import_terminal_v4,{},venue
Bar Rossi,,,,,,https://www.bar-rossi.ch/,,47.3794846,8.5272309,2026-05-24T23:22:05.802996+00:00,approved,active,Switzerland,community,osm_venues_ch_v4,ch_00187,ch_venues_batch_v4,2026-05-24T23:22:05.802996+00:00,osm_import_terminal_v4,{},venue
Bolero Bar,30 Rue de Berne,,,,,,,46.2107805,6.146438,2026-05-24T23:22:05.802996+00:00,approved,active,Switzerland,community,osm_venues_ch_v4,ch_00188,ch_venues_batch_v4,2026-05-24T23:22:05.802996+00:00,osm_import_terminal_v4,{},venue
Bar du Nord,,,,1227,,,,46.1809642,6.1404731,2026-05-24T23:22:05.802996+00:00,approved,active,Switzerland,community,osm_venues_ch_v4,ch_00189,ch_venues_batch_v4,2026-05-24T23:22:05.802996+00:00,osm_import_terminal_v4,{},venue
Pub des Vergers,6a Rue des Arpenteurs,Meyrin,,1217,+41 22 556 13 13,,,46.2307523,6.0689868,2026-05-24T23:22:05.802996+00:00,approved,active,Switzerland,community,osm_venues_ch_v4,ch_00190,ch_venues_batch_v4,2026-05-24T23:22:05.802996+00:00,osm_import_terminal_v4,{},venue
Razzia Bar,82 Seefeldstrasse,Zürich,,8008,+41 44 2967070,https://razzia-zuerich.ch/bar/,,47.3609151,8.5515444,2026-05-24T23:22:05.802996+00:00,approved,active,Switzerland,community,osm_venues_ch_v4,ch_00191,ch_venues_batch_v4,2026-05-24T23:22:05.802996+00:00,osm_import_terminal_v4,{},venue
NietturmBar,4 Schiffbaustrasse,Zürich,,8005,,https://www.nietturm.ch,,47.3887737,8.5189288,2026-05-24T23:22:05.802996+00:00,approved,active,Switzerland,community,osm_venues_ch_v4,ch_00192,ch_venues_batch_v4,2026-05-24T23:22:05.802996+00:00,osm_import_terminal_v4,{},venue
Restaurant Bar Anna,2 Anna-Heer-Strasse,Zürich,,8057,+41 44 552 87 44,https://restaurant-anna.ch,,47.3992912,8.5401245,2026-05-24T23:22:05.802996+00:00,approved,active,Switzerland,community,osm_venues_ch_v4,ch_00193,ch_venues_batch_v4,2026-05-24T23:22:05.802996+00:00,osm_import_terminal_v4,{},venue
Simple Steakhouse & Tapas Bar,5,Wallisellen,,8304,+41 44 830 03 03,https://www.simple-steakhouse.ch,,47.4047808,8.6051436,2026-05-24T23:22:05.802996+00:00,approved,active,Switzerland,community,osm_venues_ch_v4,ch_00194,ch_venues_batch_v4,2026-05-24T23:22:05.802996+00:00,osm_import_terminal_v4,{},venue
Tiki Bar,15 Rue des Confessions,Genève,,1203,+41 22 344 92 98,,,46.2055318,6.1254402,2026-05-24T23:22:05.802996+00:00,approved,active,Switzerland,community,osm_venues_ch_v4,ch_00195,ch_venues_batch_v4,2026-05-24T23:22:05.802996+00:00,osm_import_terminal_v4,{},venue
Radix Espresso Bar,12 Lagerstrasse,Zürich,,8004,,https://radixweb.ch/shop-zuerich,,47.3773015,8.5340138,2026-05-24T23:22:05.802996+00:00,approved,active,Switzerland,community,osm_venues_ch_v4,ch_00196,ch_venues_batch_v4,2026-05-24T23:22:05.802996+00:00,osm_import_terminal_v4,{},venue
Il Baretto,13 Josefstrasse,Zürich,,8005,,https://stores.ilbaretto.ch/,,47.3805056,8.5341527,2026-05-24T23:22:05.802996+00:00,approved,active,Switzerland,community,osm_venues_ch_v4,ch_00197,ch_venues_batch_v4,2026-05-24T23:22:05.802996+00:00,osm_import_terminal_v4,{},venue
Zeig Bar,,,,,,,,47.3671983,8.5229582,2026-05-24T23:22:05.802996+00:00,approved,active,Switzerland,community,osm_venues_ch_v4,ch_00198,ch_venues_batch_v4,2026-05-24T23:22:05.802996+00:00,osm_import_terminal_v4,{},venue
Bar des Bergues,,,,,,,,46.2068626,6.1467357,2026-05-24T23:22:05.802996+00:00,approved,active,Switzerland,community,osm_venues_ch_v4,ch_00199,ch_venues_batch_v4,2026-05-24T23:22:05.802996+00:00,osm_import_terminal_v4,{},venue
Cinchona Bar,150 Langstrasse,,,8004,+41 44 576 50 04,,,47.3805067,8.5286126,2026-05-24T23:22:05.802996+00:00,approved,active,Switzerland,community,osm_venues_ch_v4,ch_00200,ch_venues_batch_v4,2026-05-24T23:22:05.802996+00:00,osm_import_terminal_v4,{},venue
Widder Bar & Cuisine,6 Widdergasse,,,8001,,,,47.3722307,8.5399168,2026-05-24T23:22:05.802996+00:00,approved,active,Switzerland,community,osm_venues_ch_v4,ch_00201,ch_venues_batch_v4,2026-05-24T23:22:05.802996+00:00,osm_import_terminal_v4,{},venue
SRF Live Restaurant & Bar,,,,,+41 44 315 58 85,https://zfv.ch/de/microsites/srf-live-restaurant-bar,,47.4159991,8.5605055,2026-05-24T23:22:05.802996+00:00,approved,active,Switzerland,community,osm_venues_ch_v4,ch_00202,ch_venues_batch_v4,2026-05-24T23:22:05.802996+00:00,osm_import_terminal_v4,{},venue
Tower Bar,,,,,,,,47.409528,8.5949543,2026-05-24T23:22:05.802996+00:00,approved,active,Switzerland,community,osm_venues_ch_v4,ch_00203,ch_venues_batch_v4,2026-05-24T23:22:05.802996+00:00,osm_import_terminal_v4,{},venue
Gigi Cucina & Bar,11 Avenue de la Gare des Eaux-Vives,Genève,,1207,+41228400341,https://www.gigicucinabar.ch/,,46.2010699,6.1662181,2026-05-24T23:22:05.802996+00:00,approved,active,Switzerland,community,osm_venues_ch_v4,ch_00204,ch_venues_batch_v4,2026-05-24T23:22:05.802996+00:00,osm_import_terminal_v4,{},venue
Eclipse Bar & Lounge,84 Albisstrasse,Zürich,,8038,+41445440668,https://www.eclipsebarlounge.com/,,47.3406053,8.5299514,2026-05-24T23:22:05.802996+00:00,approved,active,Switzerland,community,osm_venues_ch_v4,ch_00205,ch_venues_batch_v4,2026-05-24T23:22:05.802996+00:00,osm_import_terminal_v4,{},venue
PAV bar,,,,,,,,46.1835155,6.1297717,2026-05-24T23:22:05.802996+00:00,approved,active,Switzerland,community,osm_venues_ch_v4,ch_00206,ch_venues_batch_v4,2026-05-24T23:22:05.802996+00:00,osm_import_terminal_v4,{},venue
Bar de la Presse,,,,,,,,46.2254433,6.1413129,2026-05-24T23:22:05.802996+00:00,approved,active,Switzerland,community,osm_venues_ch_v4,ch_00207,ch_venues_batch_v4,2026-05-24T23:22:05.802996+00:00,osm_import_terminal_v4,{},venue
Bar am Wasser,,,,,,https://www.baramwasser.ch/,,47.3675716,8.5416358,2026-05-24T23:22:05.802996+00:00,approved,active,Switzerland,community,osm_venues_ch_v4,ch_00208,ch_venues_batch_v4,2026-05-24T23:22:05.802996+00:00,osm_import_terminal_v4,{},venue
Bernhard Bar Cafe,,,,,+41 44 268 65 74,https://www.opernhaus.ch/home/opernhausgastronomie/bernhard-bar-cafe/,,47.3650806,8.5461982,2026-05-24T23:22:05.802996+00:00,approved,active,Switzerland,community,osm_venues_ch_v4,ch_00209,ch_venues_batch_v4,2026-05-24T23:22:05.802996+00:00,osm_import_terminal_v4,{},venue
Kunsthaus Bar,,,,,,,,47.3707857,8.549135,2026-05-24T23:22:05.802996+00:00,approved,active,Switzerland,community,osm_venues_ch_v4,ch_00210,ch_venues_batch_v4,2026-05-24T23:22:05.802996+00:00,osm_import_terminal_v4,{},venue
La Baraque,,,,,+41 22 777 72 24,,,46.2273195,6.0786371,2026-05-24T23:22:05.802996+00:00,approved,active,Switzerland,community,osm_venues_ch_v4,ch_00211,ch_venues_batch_v4,2026-05-24T23:22:05.802996+00:00,osm_import_terminal_v4,{},venue
Maria Bar,,,,,,https://de.restaurantguru.com/Maria-Bar-Zurich,,47.3804424,8.52537,2026-05-24T23:22:05.802996+00:00,approved,active,Switzerland,community,osm_venues_ch_v4,ch_00212,ch_venues_batch_v4,2026-05-24T23:22:05.802996+00:00,osm_import_terminal_v4,{},venue
Britannia Pub,,,,,,,,46.2089361,6.1428961,2026-05-24T23:22:05.802996+00:00,approved,active,Switzerland,community,osm_venues_ch_v4,ch_00213,ch_venues_batch_v4,2026-05-24T23:22:05.802996+00:00,osm_import_terminal_v4,{},venue
Kulture Bar,,,,,,,,46.1885072,6.1296714,2026-05-24T23:22:05.802996+00:00,approved,active,Switzerland,community,osm_venues_ch_v4,ch_00214,ch_venues_batch_v4,2026-05-24T23:22:05.802996+00:00,osm_import_terminal_v4,{},venue
Café Bar Chez Zia,,,,,,,,46.2154703,6.1317027,2026-05-24T23:22:05.802996+00:00,approved,active,Switzerland,community,osm_venues_ch_v4,ch_00215,ch_venues_batch_v4,2026-05-24T23:22:05.802996+00:00,osm_import_terminal_v4,{},venue
Tilt Bar Lounge,13 Avenue De-Luserna,,,,,,,46.2125634,6.1253705,2026-05-24T23:22:05.802996+00:00,approved,active,Switzerland,community,osm_venues_ch_v4,ch_00216,ch_venues_batch_v4,2026-05-24T23:22:05.802996+00:00,osm_import_terminal_v4,{},venue
Wunderbar,,,,,+41 79 939 95 50,https://www.wunderbar-zuerich.com/,,47.3778051,8.5267439,2026-05-24T23:22:05.802996+00:00,approved,active,Switzerland,community,osm_venues_ch_v4,ch_00217,ch_venues_batch_v4,2026-05-24T23:22:05.802996+00:00,osm_import_terminal_v4,{},venue
barfüsser,,,,,,,,47.3735325,8.5440118,2026-05-24T23:22:05.802996+00:00,approved,active,Switzerland,community,osm_venues_ch_v4,ch_00218,ch_venues_batch_v4,2026-05-24T23:22:05.802996+00:00,osm_import_terminal_v4,{},venue
Bar Ernest,,,,,,,,46.200219,6.1297366,2026-05-24T23:22:05.802996+00:00,approved,active,Switzerland,community,osm_venues_ch_v4,ch_00219,ch_venues_batch_v4,2026-05-24T23:22:05.802996+00:00,osm_import_terminal_v4,{},venue
AURA 800° Grill & Bar,5 Bleicherweg,Zürich,,8001,,https://www.aura-zurich.ch/grill/,,47.3686081,8.537791,2026-05-24T23:22:05.802996+00:00,approved,active,Switzerland,community,osm_venues_ch_v4,ch_00220,ch_venues_batch_v4,2026-05-24T23:22:05.802996+00:00,osm_import_terminal_v4,{},venue
Tropical Bar,15 Schöneggstrasse,Zürich,,8004,,https://www.salsa.ch/venues/tropical-bar-zurich,,47.3800581,8.5266162,2026-05-24T23:22:05.802996+00:00,approved,active,Switzerland,community,osm_venues_ch_v4,ch_00221,ch_venues_batch_v4,2026-05-24T23:22:05.802996+00:00,osm_import_terminal_v4,{},venue
SeeBar,,,,,,,,47.3133596,8.5818343,2026-05-24T23:22:05.802996+00:00,approved,active,Switzerland,community,osm_venues_ch_v4,ch_00222,ch_venues_batch_v4,2026-05-24T23:22:05.802996+00:00,osm_import_terminal_v4,{},venue
Bar Lupo,155 Badenerstrasse,Zürich,,8004,,https://lupo.bar/,,47.3742891,8.5218301,2026-05-24T23:22:05.802996+00:00,approved,active,Switzerland,community,osm_venues_ch_v4,ch_00223,ch_venues_batch_v4,2026-05-24T23:22:05.802996+00:00,osm_import_terminal_v4,{},venue
Caipi-Bar,68 Dienerstrasse,Zürich,,8004,,,,47.379245,8.5257472,2026-05-24T23:22:05.802996+00:00,approved,active,Switzerland,community,osm_venues_ch_v4,ch_00224,ch_venues_batch_v4,2026-05-24T23:22:05.802996+00:00,osm_import_terminal_v4,{},venue
Café Bar Meierei,9 Spyristrasse,Zürich,,8044,+41 44 363 10 00,https://www.cafebarmeierei.ch/,,47.3822549,8.550719,2026-05-24T23:22:05.802996+00:00,approved,active,Switzerland,community,osm_venues_ch_v4,ch_00225,ch_venues_batch_v4,2026-05-24T23:22:05.802996+00:00,osm_import_terminal_v4,{},venue
Bloody bar,,,,,,,,46.2111362,6.1424838,2026-05-24T23:22:05.802996+00:00,approved,active,Switzerland,community,osm_venues_ch_v4,ch_00226,ch_venues_batch_v4,2026-05-24T23:22:05.802996+00:00,osm_import_terminal_v4,{},venue
Bar 45,,,,,,https://bar45.ch/,,47.3717789,8.5382127,2026-05-24T23:22:05.802996+00:00,approved,active,Switzerland,community,osm_venues_ch_v4,ch_00227,ch_venues_batch_v4,2026-05-24T23:22:05.802996+00:00,osm_import_terminal_v4,{},venue
Besteas Bar,15 Strassburgstrasse,Zürich,,8004,,https://www.besteas-bar.ch/,,47.3727911,8.5281812,2026-05-24T23:22:05.802996+00:00,approved,active,Switzerland,community,osm_venues_ch_v4,ch_00228,ch_venues_batch_v4,2026-05-24T23:22:05.802996+00:00,osm_import_terminal_v4,{},venue
Fantasy Bar,,,,,,,,47.370507,8.5097905,2026-05-24T23:22:05.802996+00:00,approved,active,Switzerland,community,osm_venues_ch_v4,ch_00229,ch_venues_batch_v4,2026-05-24T23:22:05.802996+00:00,osm_import_terminal_v4,{},venue
NachBar,,,,,,,,47.3670838,8.5116016,2026-05-24T23:22:05.802996+00:00,approved,active,Switzerland,community,osm_venues_ch_v4,ch_00230,ch_venues_batch_v4,2026-05-24T23:22:05.802996+00:00,osm_import_terminal_v4,{},venue
Bar Butter,,,,,,,,47.3789061,8.527821,2026-05-24T23:22:05.802996+00:00,approved,active,Switzerland,community,osm_venues_ch_v4,ch_00231,ch_venues_batch_v4,2026-05-24T23:22:05.802996+00:00,osm_import_terminal_v4,{},venue
GiGi Sushi Bar,,,,,,,,47.3105941,8.5252335,2026-05-24T23:22:05.802996+00:00,approved,active,Switzerland,community,osm_venues_ch_v4,ch_00232,ch_venues_batch_v4,2026-05-24T23:22:05.802996+00:00,osm_import_terminal_v4,{},venue
Barteca,,,,,,,,47.3776158,8.5271268,2026-05-24T23:22:05.802996+00:00,approved,active,Switzerland,community,osm_venues_ch_v4,ch_00233,ch_venues_batch_v4,2026-05-24T23:22:05.802996+00:00,osm_import_terminal_v4,{},venue
tsuru tsuu noodlebar,,,,,,https://www.tsuru-tsuru.ch,,47.3761906,8.5401823,2026-05-24T23:22:05.802996+00:00,approved,active,Switzerland,community,osm_venues_ch_v4,ch_00234,ch_venues_batch_v4,2026-05-24T23:22:05.802996+00:00,osm_import_terminal_v4,{},venue
MINI Café Bar,,,,,,https://www.minicafe.ch/,,47.3670768,8.5334932,2026-05-24T23:22:05.802996+00:00,approved,active,Switzerland,community,osm_venues_ch_v4,ch_00235,ch_venues_batch_v4,2026-05-24T23:22:05.802996+00:00,osm_import_terminal_v4,{},venue
L'oasis bar,,,,,,,,46.212153,6.1414754,2026-05-24T23:22:05.802996+00:00,approved,active,Switzerland,community,osm_venues_ch_v4,ch_00236,ch_venues_batch_v4,2026-05-24T23:22:05.802996+00:00,osm_import_terminal_v4,{},venue
Bisous Bar,5 Rue Vignier,Genève,,1205,,,,46.1964773,6.1424371,2026-05-24T23:22:05.802996+00:00,approved,active,Switzerland,community,osm_venues_ch_v4,ch_00237,ch_venues_batch_v4,2026-05-24T23:22:05.802996+00:00,osm_import_terminal_v4,{},venue
Haus am Fluss Asian Food Hall & Bar,Sihlquai,Zürich,,,,https://haus-am-fluss.ch,,47.3889262,8.5281915,2026-05-24T23:22:05.802996+00:00,approved,active,Switzerland,community,osm_venues_ch_v4,ch_00238,ch_venues_batch_v4,2026-05-24T23:22:05.802996+00:00,osm_import_terminal_v4,{},venue
Zwllings Bar,,,,,,,,47.3792121,8.5282699,2026-05-24T23:22:05.802996+00:00,approved,active,Switzerland,community,osm_venues_ch_v4,ch_00239,ch_venues_batch_v4,2026-05-24T23:22:05.802996+00:00,osm_import_terminal_v4,{},venue
kafi babar,,,,,,,,47.3744709,8.5297287,2026-05-24T23:22:05.802996+00:00,approved,active,Switzerland,community,osm_venues_ch_v4,ch_00240,ch_venues_batch_v4,2026-05-24T23:22:05.802996+00:00,osm_import_terminal_v4,{},venue
TwoMoons TCG & Geekbar,,,,,,https://www.twomoons.ch,,47.3956179,8.5971094,2026-05-24T23:22:05.802996+00:00,approved,active,Switzerland,community,osm_venues_ch_v4,ch_00241,ch_venues_batch_v4,2026-05-24T23:22:05.802996+00:00,osm_import_terminal_v4,{},venue
Ariston Bar Restaurant,6 Rue du Port,,,1204,+41 22 311 99 84,https://www.ariston-geneve.ch/,,46.2029138,6.1506426,2026-05-24T23:22:05.802996+00:00,approved,active,Switzerland,community,osm_venues_ch_v4,ch_00242,ch_venues_batch_v4,2026-05-24T23:22:05.802996+00:00,osm_import_terminal_v4,{},venue
Bar12,,,,,,,,46.2100641,6.1444696,2026-05-24T23:22:05.802996+00:00,approved,active,Switzerland,community,osm_venues_ch_v4,ch_00243,ch_venues_batch_v4,2026-05-24T23:22:05.802996+00:00,osm_import_terminal_v4,{},venue
Altstadt Bar,,,,,,https://altstadt-bar.ch/,,47.369356,8.5440925,2026-05-24T23:22:05.802996+00:00,approved,active,Switzerland,community,osm_venues_ch_v4,ch_00244,ch_venues_batch_v4,2026-05-24T23:22:05.802996+00:00,osm_import_terminal_v4,{},venue
Jao Praya Bar,,,,,,,,47.4092387,8.547463,2026-05-24T23:22:05.802996+00:00,approved,active,Switzerland,community,osm_venues_ch_v4,ch_00245,ch_venues_batch_v4,2026-05-24T23:22:05.802996+00:00,osm_import_terminal_v4,{},venue
ExKinoBar,,,,,,,,47.4089084,8.5454686,2026-05-24T23:22:05.802996+00:00,approved,active,Switzerland,community,osm_venues_ch_v4,ch_00246,ch_venues_batch_v4,2026-05-24T23:22:05.802996+00:00,osm_import_terminal_v4,{},venue
Bar Laguna,,,,,,,,47.417732,8.5469095,2026-05-24T23:22:05.802996+00:00,approved,active,Switzerland,community,osm_venues_ch_v4,ch_00247,ch_venues_batch_v4,2026-05-24T23:22:05.802996+00:00,osm_import_terminal_v4,{},venue
United Bar,,,,,,,,46.221449,6.0819186,2026-05-24T23:22:05.802996+00:00,approved,active,Switzerland,community,osm_venues_ch_v4,ch_00248,ch_venues_batch_v4,2026-05-24T23:22:05.802996+00:00,osm_import_terminal_v4,{},venue
Glückbar Café,,,,,,https://xn--glckbar-o2a.ch/,,47.4136088,8.5201724,2026-05-24T23:22:05.802996+00:00,approved,active,Switzerland,community,osm_venues_ch_v4,ch_00249,ch_venues_batch_v4,2026-05-24T23:22:05.802996+00:00,osm_import_terminal_v4,{},venue
Baristar,,,,,,,,46.2066407,6.1435401,2026-05-24T23:22:05.802996+00:00,approved,active,Switzerland,community,osm_venues_ch_v4,ch_00250,ch_venues_batch_v4,2026-05-24T23:22:05.802996+00:00,osm_import_terminal_v4,{},venue
Bombar,,,,,,,,46.1918257,6.1444585,2026-05-24T23:22:05.802996+00:00,approved,active,Switzerland,community,osm_venues_ch_v4,ch_00251,ch_venues_batch_v4,2026-05-24T23:22:05.802996+00:00,osm_import_terminal_v4,{},venue
Mr Barber,,,,,,,,46.1966291,6.1438885,2026-05-24T23:22:05.802996+00:00,approved,active,Switzerland,community,osm_venues_ch_v4,ch_00252,ch_venues_batch_v4,2026-05-24T23:22:05.802996+00:00,osm_import_terminal_v4,{},venue
Cigar Bar,2 Weinplatz,Zürich,,8001,+41 44 227 27 27,https://storchen.ch/de/restaurants-bars/cigar-bar,,47.3712331,8.5416559,2026-05-24T23:22:05.802996+00:00,approved,active,Switzerland,community,osm_venues_ch_v4,ch_00253,ch_venues_batch_v4,2026-05-24T23:22:05.802996+00:00,osm_import_terminal_v4,{},venue
Bar Sushi Sakura,,,,,,,,46.2148269,6.1298922,2026-05-24T23:22:05.802996+00:00,approved,active,Switzerland,community,osm_venues_ch_v4,ch_00254,ch_venues_batch_v4,2026-05-24T23:22:05.802996+00:00,osm_import_terminal_v4,{},venue
The Barista Lab,8 Boulevard de Saint-Georges,,,1205,+41 79 638 53 61,https://thebaristalab.com/,,46.2011743,6.131435,2026-05-24T23:22:05.802996+00:00,approved,active,Switzerland,community,osm_venues_ch_v4,ch_00255,ch_venues_batch_v4,2026-05-24T23:22:05.802996+00:00,osm_import_terminal_v4,{},venue
Mojo Bar,361 Schaffhauserstrasse,Zürich,,8050,,,,47.4108813,8.5465265,2026-05-24T23:22:05.802996+00:00,approved,active,Switzerland,community,osm_venues_ch_v4,ch_00256,ch_venues_batch_v4,2026-05-24T23:22:05.802996+00:00,osm_import_terminal_v4,{},venue
Luis Bar à Tapas,,,,,,,,46.2098245,6.1378248,2026-05-24T23:22:05.802996+00:00,approved,active,Switzerland,community,osm_venues_ch_v4,ch_00257,ch_venues_batch_v4,2026-05-24T23:22:05.802996+00:00,osm_import_terminal_v4,{},venue
My Cafe Bar,,,,,,,,46.2091785,6.1267653,2026-05-24T23:22:05.802996+00:00,approved,active,Switzerland,community,osm_venues_ch_v4,ch_00258,ch_venues_batch_v4,2026-05-24T23:22:05.802996+00:00,osm_import_terminal_v4,{},venue
Lion's bar,,,,,,,,46.2094225,6.1223551,2026-05-24T23:22:05.802996+00:00,approved,active,Switzerland,community,osm_venues_ch_v4,ch_00259,ch_venues_batch_v4,2026-05-24T23:22:05.802996+00:00,osm_import_terminal_v4,{},venue
Pub de la Cordelière,,,,,,,,46.2101026,6.1400389,2026-05-24T23:22:05.802996+00:00,approved,active,Switzerland,community,osm_venues_ch_v4,ch_00260,ch_venues_batch_v4,2026-05-24T23:22:05.802996+00:00,osm_import_terminal_v4,{},venue
Subarashii Manga Café,,,,,,,,46.2081217,6.1257207,2026-05-24T23:22:05.802996+00:00,approved,active,Switzerland,community,osm_venues_ch_v4,ch_00261,ch_venues_batch_v4,2026-05-24T23:22:05.802996+00:00,osm_import_terminal_v4,{},venue
Klopstock Cafe Bar,23 Klopstockstrasse,Zürich,,8002,,https://www.klopstock.ch/,,47.3619787,8.5258021,2026-05-24T23:22:05.802996+00:00,approved,active,Switzerland,community,osm_venues_ch_v4,ch_00262,ch_venues_batch_v4,2026-05-24T23:22:05.802996+00:00,osm_import_terminal_v4,{},venue
Temaki bar by Kakinuma,,,,,,,,46.207302,6.1479205,2026-05-24T23:22:05.802996+00:00,approved,active,Switzerland,community,osm_venues_ch_v4,ch_00263,ch_venues_batch_v4,2026-05-24T23:22:05.802996+00:00,osm_import_terminal_v4,{},venue
Le Baratin,,,,,,,,46.2153069,6.1339477,2026-05-24T23:22:05.802996+00:00,approved,active,Switzerland,community,osm_venues_ch_v4,ch_00264,ch_venues_batch_v4,2026-05-24T23:22:05.802996+00:00,osm_import_terminal_v4,{},venue
CREAM Coffee Bar Food,,,,,+41 76 671 92 68,https://cream-zurich.ch,,47.387377,8.5233098,2026-05-24T23:22:05.802996+00:00,approved,active,Switzerland,community,osm_venues_ch_v4,ch_00265,ch_venues_batch_v4,2026-05-24T23:22:05.802996+00:00,osm_import_terminal_v4,{},venue
Canvas Bar & Lounge,65 Kurhausstrasse,Zürich,,8032,,https://www.thedoldergrand.com/canvas-bar-lounge/,,47.3727222,8.573421,2026-05-24T23:22:05.802996+00:00,approved,active,Switzerland,community,osm_venues_ch_v4,ch_00266,ch_venues_batch_v4,2026-05-24T23:22:05.802996+00:00,osm_import_terminal_v4,{},venue
Fiskebar,11 Quai du Mont-Blanc,Genève,,1211,,https://www.geneva-fiskebar.com/,,46.2078461,6.1484985,2026-05-24T23:22:05.802996+00:00,approved,active,Switzerland,community,osm_venues_ch_v4,ch_00267,ch_venues_batch_v4,2026-05-24T23:22:05.802996+00:00,osm_import_terminal_v4,{},venue
Mora-Mora Bar,,,,,,,,47.3841856,8.5783999,2026-05-24T23:22:05.802996+00:00,approved,active,Switzerland,community,osm_venues_ch_v4,ch_00268,ch_venues_batch_v4,2026-05-24T23:22:05.802996+00:00,osm_import_terminal_v4,{},venue
Maedre Bar & Cafe,,,,,,,,47.419398,8.5061575,2026-05-24T23:22:05.802996+00:00,approved,active,Switzerland,community,osm_venues_ch_v4,ch_00269,ch_venues_batch_v4,2026-05-24T23:22:05.802996+00:00,osm_import_terminal_v4,{},venue
Crossroads Pub,35 Rue du 31-Décembre,Genève,,1207,+4122 735 30 99,https://www.crossroads-pub.com/,,46.2032818,6.1590985,2026-05-24T23:22:05.802996+00:00,approved,active,Switzerland,community,osm_venues_ch_v4,ch_00270,ch_venues_batch_v4,2026-05-24T23:22:05.802996+00:00,osm_import_terminal_v4,{},venue
Miso Bar Binz,,,,,,,,47.3620939,8.5134322,2026-05-24T23:22:05.802996+00:00,approved,active,Switzerland,community,osm_venues_ch_v4,ch_00271,ch_venues_batch_v4,2026-05-24T23:22:05.802996+00:00,osm_import_terminal_v4,{},venue
BARBACOA BURGERS & GRILL Genève,6 Chemin de la Gravière,Genève,,1227,+41 22 343 66 22,,,46.1965827,6.1298341,2026-05-24T23:22:05.802996+00:00,approved,active,Switzerland,community,osm_venues_ch_v4,ch_00272,ch_venues_batch_v4,2026-05-24T23:22:05.802996+00:00,osm_import_terminal_v4,{},venue
Noodles Bar,,,,,,,,46.1907978,6.1349891,2026-05-24T23:22:05.802996+00:00,approved,active,Switzerland,community,osm_venues_ch_v4,ch_00273,ch_venues_batch_v4,2026-05-24T23:22:05.802996+00:00,osm_import_terminal_v4,{},venue
BARBACOA BURGERS & GRILL Genève,6 Chemin de la Gravière,,,1227,+41223436622,https://barbacoageneve.ch/,,46.1966519,6.1299624,2026-05-24T23:22:05.802996+00:00,approved,active,Switzerland,community,osm_venues_ch_v4,ch_00274,ch_venues_batch_v4,2026-05-24T23:22:05.802996+00:00,osm_import_terminal_v4,{},venue
Ginger Bar,,,,,,,,46.2106789,6.1488174,2026-05-24T23:22:05.802996+00:00,approved,active,Switzerland,community,osm_venues_ch_v4,ch_00275,ch_venues_batch_v4,2026-05-24T23:22:05.802996+00:00,osm_import_terminal_v4,{},venue
Netzwerkbar,7a Bülachstrasse,Zürich,,8057,,,,47.4011881,8.5478418,2026-05-24T23:22:05.802996+00:00,approved,active,Switzerland,community,osm_venues_ch_v4,ch_00276,ch_venues_batch_v4,2026-05-24T23:22:05.802996+00:00,osm_import_terminal_v4,{},venue
New Dool's Bar,,,,,,,,46.2114002,6.1454391,2026-05-24T23:22:05.802996+00:00,approved,active,Switzerland,community,osm_venues_ch_v4,ch_00277,ch_venues_batch_v4,2026-05-24T23:22:05.802996+00:00,osm_import_terminal_v4,{},venue
Cherry'z Bar,,,,,,,,46.2101085,6.1468431,2026-05-24T23:22:05.802996+00:00,approved,active,Switzerland,community,osm_venues_ch_v4,ch_00278,ch_venues_batch_v4,2026-05-24T23:22:05.802996+00:00,osm_import_terminal_v4,{},venue
Le Baron,,,,,,,,46.2107512,6.1466218,2026-05-24T23:22:05.802996+00:00,approved,active,Switzerland,community,osm_venues_ch_v4,ch_00279,ch_venues_batch_v4,2026-05-24T23:22:05.802996+00:00,osm_import_terminal_v4,{},venue
Zanzibar,,,,,,,,46.211623,6.1474913,2026-05-24T23:22:05.802996+00:00,approved,active,Switzerland,community,osm_venues_ch_v4,ch_00280,ch_venues_batch_v4,2026-05-24T23:22:05.802996+00:00,osm_import_terminal_v4,{},venue
Café Bianco Bar,,,,,,,,46.2107377,6.1461877,2026-05-24T23:22:05.802996+00:00,approved,active,Switzerland,community,osm_venues_ch_v4,ch_00281,ch_venues_batch_v4,2026-05-24T23:22:05.802996+00:00,osm_import_terminal_v4,{},venue
Kiosk Cafe Bar,,,,,,,,47.3725087,8.5404694,2026-05-24T23:22:05.802996+00:00,approved,active,Switzerland,community,osm_venues_ch_v4,ch_00282,ch_venues_batch_v4,2026-05-24T23:22:05.802996+00:00,osm_import_terminal_v4,{},venue
Bar Snatch,23 Moosstrasse,,,8134,,https://barsnatch.ch/,,47.3225225,8.5320347,2026-05-24T23:22:05.802996+00:00,approved,active,Switzerland,community,osm_venues_ch_v4,ch_00283,ch_venues_batch_v4,2026-05-24T23:22:05.802996+00:00,osm_import_terminal_v4,{},venue
Blaue Bar,,,,,,https://www.mewshouse.ch/de/blaue-bar,,47.3690239,8.5385505,2026-05-24T23:22:05.802996+00:00,approved,active,Switzerland,community,osm_venues_ch_v4,ch_00284,ch_venues_batch_v4,2026-05-24T23:22:05.802996+00:00,osm_import_terminal_v4,{},venue
Any's bar,,,,,,,,46.1921821,6.1456739,2026-05-24T23:22:05.802996+00:00,approved,active,Switzerland,community,osm_venues_ch_v4,ch_00285,ch_venues_batch_v4,2026-05-24T23:22:05.802996+00:00,osm_import_terminal_v4,{},venue
Bar Mau,36 Zypressenstrasse,,,,,https://www.barmau.ch,,47.3768357,8.5125197,2026-05-24T23:22:05.802996+00:00,approved,active,Switzerland,community,osm_venues_ch_v4,ch_00286,ch_venues_batch_v4,2026-05-24T23:22:05.802996+00:00,osm_import_terminal_v4,{},venue
Seafood Bar,,,,,,,,46.230346,6.1066658,2026-05-24T23:22:05.802996+00:00,approved,active,Switzerland,community,osm_venues_ch_v4,ch_00287,ch_venues_batch_v4,2026-05-24T23:22:05.802996+00:00,osm_import_terminal_v4,{},venue
the bar @ bridge,,,,,,https://www.bridgezurich.ch/de/startseite/,,47.3786788,8.534066,2026-05-24T23:22:05.802996+00:00,approved,active,Switzerland,community,osm_venues_ch_v4,ch_00288,ch_venues_batch_v4,2026-05-24T23:22:05.802996+00:00,osm_import_terminal_v4,{},venue
The Barn,,,,,,,,47.3524716,8.5240878,2026-05-24T23:22:05.802996+00:00,approved,active,Switzerland,community,osm_venues_ch_v4,ch_00289,ch_venues_batch_v4,2026-05-24T23:22:05.802996+00:00,osm_import_terminal_v4,{},venue
Rio Bar,17 Gessnerallee,Zürich,,8001,+41 43 244 09 09,https://www.riozurich.ch/,,47.3763092,8.5357043,2026-05-24T23:22:05.802996+00:00,approved,active,Switzerland,community,osm_venues_ch_v4,ch_00290,ch_venues_batch_v4,2026-05-24T23:22:05.802996+00:00,osm_import_terminal_v4,{},venue
Braschler‘s Bar,,,,,,,,47.385486,8.519441,2026-05-24T23:22:05.802996+00:00,approved,active,Switzerland,community,osm_venues_ch_v4,ch_00291,ch_venues_batch_v4,2026-05-24T23:22:05.802996+00:00,osm_import_terminal_v4,{},venue
