venue_name,address,city,state,zip_code,phone,website,sports_supported,latitude,longitude,approved_at,photo_review_status,admin_status,country,origin_type,community_source,community_source_id,community_seed_batch,community_seeded_at,community_curated_by,community_provenance,place_type
Meiselmarkt Cafe-Pub,11 Meiselstraße,Wien,,1150,,,,48.1974616,16.3208687,2026-05-24T23:22:24.155190+00:00,approved,active,Austria,community,osm_venues_at_v4,at_00001,at_venues_batch_v4,2026-05-24T23:22:24.155190+00:00,osm_import_terminal_v4,{},venue
Pub Schnaitl,5 Bergstraße,Salzburg,,5020,+43 662 276295,,,47.8029899,13.0457978,2026-05-24T23:22:24.155190+00:00,approved,active,Austria,community,osm_venues_at_v4,at_00002,at_venues_batch_v4,2026-05-24T23:22:24.155190+00:00,osm_import_terminal_v4,{},venue
Celtic Spirit - Irish Pub,22 Priesterhausgasse,Salzburg,,5020,,https://www.salzburgirishpub.com/,,47.8035818,13.0450419,2026-05-24T23:22:24.155190+00:00,approved,active,Austria,community,osm_venues_at_v4,at_00003,at_venues_batch_v4,2026-05-24T23:22:24.155190+00:00,osm_import_terminal_v4,{},venue
BackBone Irish Pub,,,,,,,,48.2044132,16.3432618,2026-05-24T23:22:24.155190+00:00,approved,active,Austria,community,osm_venues_at_v4,at_00004,at_venues_batch_v4,2026-05-24T23:22:24.155190+00:00,osm_import_terminal_v4,{},venue
Anton Frank - cafe bar,25 Gymnasiumstraße,Wien,,1180,,,,48.2290642,16.3437056,2026-05-24T23:22:24.155190+00:00,approved,active,Austria,community,osm_venues_at_v4,at_00005,at_venues_batch_v4,2026-05-24T23:22:24.155190+00:00,osm_import_terminal_v4,{},venue
Rote Bar,,,,,,,,48.2050948,16.3573016,2026-05-24T23:22:24.155190+00:00,approved,active,Austria,community,osm_venues_at_v4,at_00006,at_venues_batch_v4,2026-05-24T23:22:24.155190+00:00,osm_import_terminal_v4,{},venue
Charlie P's Irish Pub,3 Währinger Straße,Wien,,1090,+4314097923,https://www.charlieps.at/,,48.2166113,16.3596067,2026-05-24T23:22:24.155190+00:00,approved,active,Austria,community,osm_venues_at_v4,at_00007,at_venues_batch_v4,2026-05-24T23:22:24.155190+00:00,osm_import_terminal_v4,{},venue
Bockshorn Irish Pub,7 Naglergasse,Wien,,1010,+43 1 5329438,https://www.bockshorn.at,,48.2098841,16.3677,2026-05-24T23:22:24.155190+00:00,approved,active,Austria,community,osm_venues_at_v4,at_00008,at_venues_batch_v4,2026-05-24T23:22:24.155190+00:00,osm_import_terminal_v4,{},venue
BrauBar,47 Hernalser Gürtel,Wien,,1170,,http://www.brau-bar.at/,,48.2171838,16.3413994,2026-05-24T23:22:24.155190+00:00,approved,active,Austria,community,osm_venues_at_v4,at_00009,at_venues_batch_v4,2026-05-24T23:22:24.155190+00:00,osm_import_terminal_v4,{},venue
The Golden Harp Irish Pub Simmering,50 Simmeringer Hauptstraße,Wien,,1110,+43 1 7494254,https://goldenharp1110.at,,48.1786564,16.4113839,2026-05-24T23:22:24.155190+00:00,approved,active,Austria,community,osm_venues_at_v4,at_00010,at_venues_batch_v4,2026-05-24T23:22:24.155190+00:00,osm_import_terminal_v4,{},venue
Johnny's Pub,11 Schleifmühlgasse,,,1040,+43 1 587 19 21,https://johnnys-pub.at/,,48.1970101,16.3653882,2026-05-24T23:22:24.155190+00:00,approved,active,Austria,community,osm_venues_at_v4,at_00011,at_venues_batch_v4,2026-05-24T23:22:24.155190+00:00,osm_import_terminal_v4,{},venue
Mi Barrio,2 Döblinger Gürtel,Wien,,1190,,https://www.mibarrio.at/,,48.2320509,16.3545302,2026-05-24T23:22:24.155190+00:00,approved,active,Austria,community,osm_venues_at_v4,at_00012,at_venues_batch_v4,2026-05-24T23:22:24.155190+00:00,osm_import_terminal_v4,{},venue
Quentin's Kaffeebar,96 Kaiserstraße,Wien,,1070,+43 699 17 15 1009,http://www.quentin-kaffeebar.com,,48.2070299,16.339717,2026-05-24T23:22:24.155190+00:00,approved,active,Austria,community,osm_venues_at_v4,at_00013,at_venues_batch_v4,2026-05-24T23:22:24.155190+00:00,osm_import_terminal_v4,{},venue
Gönnerbar,101 Mariahilfer Straße,Wien,,1060,,,,48.1964704,16.3460653,2026-05-24T23:22:24.155190+00:00,approved,active,Austria,community,osm_venues_at_v4,at_00014,at_venues_batch_v4,2026-05-24T23:22:24.155190+00:00,osm_import_terminal_v4,{},venue
Pub by Charles,2a Hütteldorfer Straße,Wien,,1150,,,,48.201731,16.3361592,2026-05-24T23:22:24.155190+00:00,approved,active,Austria,community,osm_venues_at_v4,at_00015,at_venues_batch_v4,2026-05-24T23:22:24.155190+00:00,osm_import_terminal_v4,{},venue
Radio - The Label-Bar,,,,,,https://radiobar.at,,48.1983476,16.3432741,2026-05-24T23:22:24.155190+00:00,approved,active,Austria,community,osm_venues_at_v4,at_00016,at_venues_batch_v4,2026-05-24T23:22:24.155190+00:00,osm_import_terminal_v4,{},venue
Bierbaron,,,,,,,,48.2027087,16.3457249,2026-05-24T23:22:24.155190+00:00,approved,active,Austria,community,osm_venues_at_v4,at_00017,at_venues_batch_v4,2026-05-24T23:22:24.155190+00:00,osm_import_terminal_v4,{},venue
Chez Bernard Restaurant et Bar,71A Mariahilfer Straße,Wien,,1060,+43 1 581 4600,https://www.chezbernard.at/,,48.1982641,16.3505986,2026-05-24T23:22:24.155190+00:00,approved,active,Austria,community,osm_venues_at_v4,at_00018,at_venues_batch_v4,2026-05-24T23:22:24.155190+00:00,osm_import_terminal_v4,{},venue
New Bar,38 Zirkusgasse,Wien,,1020,+4369915231349,http://facebook.com/newbarwien/,,48.2169034,16.3853171,2026-05-24T23:22:24.155190+00:00,approved,active,Austria,community,osm_venues_at_v4,at_00019,at_venues_batch_v4,2026-05-24T23:22:24.155190+00:00,osm_import_terminal_v4,{},venue
Mickey Finn's Irish Pub,67 Ungargasse,Wien,,1030,+43 680 3340027,https://www.mickeyfinns.at/,,48.1967165,16.3871844,2026-05-24T23:22:24.155190+00:00,approved,active,Austria,community,osm_venues_at_v4,at_00020,at_venues_batch_v4,2026-05-24T23:22:24.155190+00:00,osm_import_terminal_v4,{},venue
O'Malleys Irish Pub,16 Rudolfskai,Salzburg,,5020,+43 662 849263,https://omalleyssalzburg.com/,,47.800105,13.0460539,2026-05-24T23:22:24.155190+00:00,approved,active,Austria,community,osm_venues_at_v4,at_00021,at_venues_batch_v4,2026-05-24T23:22:24.155190+00:00,osm_import_terminal_v4,{},venue
Cafe Public,,,,,,,,48.1902035,16.4013016,2026-05-24T23:22:24.155190+00:00,approved,active,Austria,community,osm_venues_at_v4,at_00022,at_venues_batch_v4,2026-05-24T23:22:24.155190+00:00,osm_import_terminal_v4,{},venue
Terminal Gastro Bar,167 Ottakringer Straße,Wien,,1160,+43 1 2764109,,,48.2134027,16.3132769,2026-05-24T23:22:24.155190+00:00,approved,active,Austria,community,osm_venues_at_v4,at_00023,at_venues_batch_v4,2026-05-24T23:22:24.155190+00:00,osm_import_terminal_v4,{},venue
Vienna Schick Bar,,,,,,,,48.1969042,16.3641963,2026-05-24T23:22:24.155190+00:00,approved,active,Austria,community,osm_venues_at_v4,at_00024,at_venues_batch_v4,2026-05-24T23:22:24.155190+00:00,osm_import_terminal_v4,{},venue
Salzbar,8 Salzgasse,Wien,,1010,,https://www.salzbar.at/kontakt/ressum/,,48.2119851,16.3738827,2026-05-24T23:22:24.155190+00:00,approved,active,Austria,community,osm_venues_at_v4,at_00025,at_venues_batch_v4,2026-05-24T23:22:24.155190+00:00,osm_import_terminal_v4,{},venue
The Sly & Arny Restaurant Bar,5 Lackierergasse,Wien,,1090,+43 1 4050458,https://www.foodbar.at/,,48.2185663,16.3569847,2026-05-24T23:22:24.155190+00:00,approved,active,Austria,community,osm_venues_at_v4,at_00026,at_venues_batch_v4,2026-05-24T23:22:24.155190+00:00,osm_import_terminal_v4,{},venue
Timeless Restaurant & Coffee Bar,3 Reinprechtsdorfer Straße,Wien,,1050,,,,48.1830074,16.3565171,2026-05-24T23:22:24.155190+00:00,approved,active,Austria,community,osm_venues_at_v4,at_00027,at_venues_batch_v4,2026-05-24T23:22:24.155190+00:00,osm_import_terminal_v4,{},venue
Isaac's Pub,13 Schubertgasse,Wien,,1090,,https://www.isaacs.at/,,48.2273133,16.3532436,2026-05-24T23:22:24.155190+00:00,approved,active,Austria,community,osm_venues_at_v4,at_00028,at_venues_batch_v4,2026-05-24T23:22:24.155190+00:00,osm_import_terminal_v4,{},venue
Gerard-Tanzbar,,,,,,,,48.2109596,16.3485611,2026-05-24T23:22:24.155190+00:00,approved,active,Austria,community,osm_venues_at_v4,at_00029,at_venues_batch_v4,2026-05-24T23:22:24.155190+00:00,osm_import_terminal_v4,{},venue
Cafe Sporthalle Alpenstraße,,,,,,,,47.77645,13.0674311,2026-05-24T23:22:24.155190+00:00,approved,active,Austria,community,osm_venues_at_v4,at_00030,at_venues_batch_v4,2026-05-24T23:22:24.155190+00:00,osm_import_terminal_v4,{},venue
Center for Bar Culture,,,,,,,,47.8260657,13.0565199,2026-05-24T23:22:24.155190+00:00,approved,active,Austria,community,osm_venues_at_v4,at_00031,at_venues_batch_v4,2026-05-24T23:22:24.155190+00:00,osm_import_terminal_v4,{},venue
Camino Essbar,10 Judengasse,Salzburg,,5020,,,,47.7996,13.0464749,2026-05-24T23:22:24.155190+00:00,approved,active,Austria,community,osm_venues_at_v4,at_00032,at_venues_batch_v4,2026-05-24T23:22:24.155190+00:00,osm_import_terminal_v4,{},venue
Nachbar,54 Linzer Gasse,,,,,,,47.8038916,13.047701,2026-05-24T23:22:24.155190+00:00,approved,active,Austria,community,osm_venues_at_v4,at_00033,at_venues_batch_v4,2026-05-24T23:22:24.155190+00:00,osm_import_terminal_v4,{},venue
Shrimps Bar & Restaurant,5 Steingasse,,,5020,+43 662 874484,http://shrimps.at/,,47.8014975,13.0455718,2026-05-24T23:22:24.155190+00:00,approved,active,Austria,community,osm_venues_at_v4,at_00034,at_venues_batch_v4,2026-05-24T23:22:24.155190+00:00,osm_import_terminal_v4,{},venue
Roo Bar,8 Hegelgasse,Wien,,1010,+43 664 2452002,https://www.roobar.at/,,48.2040067,16.3756645,2026-05-24T23:22:24.155190+00:00,approved,active,Austria,community,osm_venues_at_v4,at_00035,at_venues_batch_v4,2026-05-24T23:22:24.155190+00:00,osm_import_terminal_v4,{},venue
Yaren Türkü Bar,,,,,,,,48.17248,16.3541413,2026-05-24T23:22:24.155190+00:00,approved,active,Austria,community,osm_venues_at_v4,at_00036,at_venues_batch_v4,2026-05-24T23:22:24.155190+00:00,osm_import_terminal_v4,{},venue
Vilveta Bar,,,,,,,,48.2038184,16.3715246,2026-05-24T23:22:24.155190+00:00,approved,active,Austria,community,osm_venues_at_v4,at_00037,at_venues_batch_v4,2026-05-24T23:22:24.155190+00:00,osm_import_terminal_v4,{},venue
Cafe Bar Old Splendor,21 Beatrixgasse,Wien,,1030,+43 699 17136323,https://www.cafe-oldsplendor.at/,,48.2020985,16.3831443,2026-05-24T23:22:24.155190+00:00,approved,active,Austria,community,osm_venues_at_v4,at_00038,at_venues_batch_v4,2026-05-24T23:22:24.155190+00:00,osm_import_terminal_v4,{},venue
New York Bar,8 Annagasse,Wien,,1010,,http://www.newyork-bar.at/,,48.2043363,16.3717832,2026-05-24T23:22:24.155190+00:00,approved,active,Austria,community,osm_venues_at_v4,at_00039,at_venues_batch_v4,2026-05-24T23:22:24.155190+00:00,osm_import_terminal_v4,{},venue
Pisco Latinbar,8 Seilerstätte,Wien,,1010,,,,48.2059003,16.3759374,2026-05-24T23:22:24.155190+00:00,approved,active,Austria,community,osm_venues_at_v4,at_00040,at_venues_batch_v4,2026-05-24T23:22:24.155190+00:00,osm_import_terminal_v4,{},venue
Harry's Bar,7 Liebenberggasse,Wien,,1010,,,,48.2057725,16.3785712,2026-05-24T23:22:24.155190+00:00,approved,active,Austria,community,osm_venues_at_v4,at_00041,at_venues_batch_v4,2026-05-24T23:22:24.155190+00:00,osm_import_terminal_v4,{},venue
Hillinger Wineshop & Bar,25 Wollzeile,Wien,,1010,+43 1 966 21 21,https://www.leo-hillinger.com/wineshops/,,48.2082188,16.3771324,2026-05-24T23:22:24.155190+00:00,approved,active,Austria,community,osm_venues_at_v4,at_00042,at_venues_batch_v4,2026-05-24T23:22:24.155190+00:00,osm_import_terminal_v4,{},venue
Metro Kinobar,4 Johannesgasse,Wien,,1010,,,,48.204921,16.3719323,2026-05-24T23:22:24.155190+00:00,approved,active,Austria,community,osm_venues_at_v4,at_00043,at_venues_batch_v4,2026-05-24T23:22:24.155190+00:00,osm_import_terminal_v4,{},venue
Imperial Bar,16 Kärntner Ring,Wien,,1010,+43 1 501 106339,,,48.2013063,16.3729296,2026-05-24T23:22:24.155190+00:00,approved,active,Austria,community,osm_venues_at_v4,at_00044,at_venues_batch_v4,2026-05-24T23:22:24.155190+00:00,osm_import_terminal_v4,{},venue
bestens. die bar,23 Burggasse,Wien,,1070,+43 676 5487137,https://bestens.bar/,,48.2040045,16.3544038,2026-05-24T23:22:24.155190+00:00,approved,active,Austria,community,osm_venues_at_v4,at_00045,at_venues_batch_v4,2026-05-24T23:22:24.155190+00:00,osm_import_terminal_v4,{},venue
Inseltreff Barbados,,,,,+4367764469061,https://www.inseltreff.at/,,48.2117448,16.4389444,2026-05-24T23:22:24.155190+00:00,approved,active,Austria,community,osm_venues_at_v4,at_00046,at_venues_batch_v4,2026-05-24T23:22:24.155190+00:00,osm_import_terminal_v4,{},venue
trend-caffè Bar,,,,,,,,48.1993788,16.3317304,2026-05-24T23:22:24.155190+00:00,approved,active,Austria,community,osm_venues_at_v4,at_00047,at_venues_batch_v4,2026-05-24T23:22:24.155190+00:00,osm_import_terminal_v4,{},venue
Spiel Bar,26 Lederergasse,Wien,,1080,,https://spiel-bar.at/,,48.2136882,16.3484757,2026-05-24T23:22:24.155190+00:00,approved,active,Austria,community,osm_venues_at_v4,at_00048,at_venues_batch_v4,2026-05-24T23:22:24.155190+00:00,osm_import_terminal_v4,{},venue
Tao Mini Bar,80-82 Währinger Straße,Wien,,1180,+43 1 346 37 44,https://www.tao-mini-bar.at/,,48.2252743,16.3488881,2026-05-24T23:22:24.155190+00:00,approved,active,Austria,community,osm_venues_at_v4,at_00049,at_venues_batch_v4,2026-05-24T23:22:24.155190+00:00,osm_import_terminal_v4,{},venue
Cocktailbar,,,,,,,,48.2536376,16.3540775,2026-05-24T23:22:24.155190+00:00,approved,active,Austria,community,osm_venues_at_v4,at_00050,at_venues_batch_v4,2026-05-24T23:22:24.155190+00:00,osm_import_terminal_v4,{},venue
A Barraca,7 Hohenstaufengasse,Wien,,1010,+43 660 3465737,http://www.abarraca.at,,48.2136415,16.3659573,2026-05-24T23:22:24.155190+00:00,approved,active,Austria,community,osm_venues_at_v4,at_00051,at_venues_batch_v4,2026-05-24T23:22:24.155190+00:00,osm_import_terminal_v4,{},venue
O’Connor’s Old Oak Irish Pub,95 Rennweg,Wien,,1030,+43 1 236 6721,https://theoak1030.at/,,48.1888924,16.4000846,2026-05-24T23:22:24.155190+00:00,approved,active,Austria,community,osm_venues_at_v4,at_00052,at_venues_batch_v4,2026-05-24T23:22:24.155190+00:00,osm_import_terminal_v4,{},venue
Bastille-Pub,20 Bastiengasse,Wien,,1180,+43 1 9448135,http://www.bastille-pub.at/,,48.2342786,16.3232806,2026-05-24T23:22:24.155190+00:00,approved,active,Austria,community,osm_venues_at_v4,at_00053,at_venues_batch_v4,2026-05-24T23:22:24.155190+00:00,osm_import_terminal_v4,{},venue
China Bar,76 Burggasse,Wien,,1070,+43 1 5220831,https://chinabar.at/,,48.2043884,16.3466312,2026-05-24T23:22:24.155190+00:00,approved,active,Austria,community,osm_venues_at_v4,at_00054,at_venues_batch_v4,2026-05-24T23:22:24.155190+00:00,osm_import_terminal_v4,{},venue
Olinda Bar,23 Schönbrunner Straße,Wien,,1050,,https://olindabar.com/,,48.193869,16.3593215,2026-05-24T23:22:24.155190+00:00,approved,active,Austria,community,osm_venues_at_v4,at_00055,at_venues_batch_v4,2026-05-24T23:22:24.155190+00:00,osm_import_terminal_v4,{},venue
Manuela's Pub,56 Margaretenstraße,Wien,,1050,,,,48.193973,16.3616053,2026-05-24T23:22:24.155190+00:00,approved,active,Austria,community,osm_venues_at_v4,at_00056,at_venues_batch_v4,2026-05-24T23:22:24.155190+00:00,osm_import_terminal_v4,{},venue
Café Bar Rakete,,,,,,,,48.2293755,16.3722173,2026-05-24T23:22:24.155190+00:00,approved,active,Austria,community,osm_venues_at_v4,at_00057,at_venues_batch_v4,2026-05-24T23:22:24.155190+00:00,osm_import_terminal_v4,{},venue
Grande Cocktailbar,56 Josefstädter Straße,Wien,,1080,+43 676 3619760,http://grandebar.at/,,48.2103581,16.3456396,2026-05-24T23:22:24.155190+00:00,approved,active,Austria,community,osm_venues_at_v4,at_00058,at_venues_batch_v4,2026-05-24T23:22:24.155190+00:00,osm_import_terminal_v4,{},venue
Pizza Pub,44/Top7 Anton-Baumgartner-Straße,Wien,,1230,+43 660 3149644,https://www.pizzapub.at/,,48.1513232,16.315365,2026-05-24T23:22:24.155190+00:00,approved,active,Austria,community,osm_venues_at_v4,at_00059,at_venues_batch_v4,2026-05-24T23:22:24.155190+00:00,osm_import_terminal_v4,{},venue
Papi´s Bar,7 Kirchberggasse,Wien,,1070,+43 660 6660039,,,48.2028978,16.356047,2026-05-24T23:22:24.155190+00:00,approved,active,Austria,community,osm_venues_at_v4,at_00060,at_venues_batch_v4,2026-05-24T23:22:24.155190+00:00,osm_import_terminal_v4,{},venue
Cafe & Bar Diesels,72 Rennweg,Wien,,1030,+43 680 238 13 95,https://diesels.at,,48.191622,16.3951162,2026-05-24T23:22:24.155190+00:00,approved,active,Austria,community,osm_venues_at_v4,at_00061,at_venues_batch_v4,2026-05-24T23:22:24.155190+00:00,osm_import_terminal_v4,{},venue
Café & Pub Rennweg,86 Rennweg,Wien,,1030,+43 660 3904050,https://www.facebook.com/cafepubrennweg/,,48.1906345,16.3968403,2026-05-24T23:22:24.155190+00:00,approved,active,Austria,community,osm_venues_at_v4,at_00062,at_venues_batch_v4,2026-05-24T23:22:24.155190+00:00,osm_import_terminal_v4,{},venue
Wunderbar,8 Schönlaterngasse,Wien,,1010,+43 1 5127989,http://www.facebook.com/WunderBarWien,,48.2094749,16.3775515,2026-05-24T23:22:24.155190+00:00,approved,active,Austria,community,osm_venues_at_v4,at_00063,at_venues_batch_v4,2026-05-24T23:22:24.155190+00:00,osm_import_terminal_v4,{},venue
Schneider-Gössl Sektbar,153 Hietzinger Hauptstraße,Wien,,1130,,http://sektbar.hietzing.at/,,48.1880272,16.2669517,2026-05-24T23:22:24.155190+00:00,approved,active,Austria,community,osm_venues_at_v4,at_00064,at_venues_batch_v4,2026-05-24T23:22:24.155190+00:00,osm_import_terminal_v4,{},venue
Gasobar,8 Guglgasse,Wien,,1110,,,,48.1851763,16.4193773,2026-05-24T23:22:24.155190+00:00,approved,active,Austria,community,osm_venues_at_v4,at_00065,at_venues_batch_v4,2026-05-24T23:22:24.155190+00:00,osm_import_terminal_v4,{},venue
Bar Pani,41 Roßauer Lände,Wien,,1090,+43 1 9920066,https://www.barpani.com/,,48.2258841,16.3658549,2026-05-24T23:22:24.155190+00:00,approved,active,Austria,community,osm_venues_at_v4,at_00066,at_venues_batch_v4,2026-05-24T23:22:24.155190+00:00,osm_import_terminal_v4,{},venue
Single Oak Café und Bar,7 Krotachgasse,Salzburg,,5020,,https://www.singleoakbar.com/,,47.7974195,13.0496253,2026-05-24T23:22:24.155190+00:00,approved,active,Austria,community,osm_venues_at_v4,at_00067,at_venues_batch_v4,2026-05-24T23:22:24.155190+00:00,osm_import_terminal_v4,{},venue
YAMATO kitchen & bar,,,,,,,,48.1903704,16.3659746,2026-05-24T23:22:24.155190+00:00,approved,active,Austria,community,osm_venues_at_v4,at_00068,at_venues_batch_v4,2026-05-24T23:22:24.155190+00:00,osm_import_terminal_v4,{},venue
Green Mile Bar,,,,,,,,48.2389638,16.3759071,2026-05-24T23:22:24.155190+00:00,approved,active,Austria,community,osm_venues_at_v4,at_00069,at_venues_batch_v4,2026-05-24T23:22:24.155190+00:00,osm_import_terminal_v4,{},venue
Senator Bar,105 Hernalser Hauptstraße,Wien,,1170,,https://www.rainer-hotels.at/senator,,48.2196182,16.3254723,2026-05-24T23:22:24.155190+00:00,approved,active,Austria,community,osm_venues_at_v4,at_00070,at_venues_batch_v4,2026-05-24T23:22:24.155190+00:00,osm_import_terminal_v4,{},venue
Eberts Cocktailbar,51 Gumpendorfer Straße,Wien,,1060,+43 1 5865465,http://www.eberts.at/,,48.1979277,16.3555548,2026-05-24T23:22:24.155190+00:00,approved,active,Austria,community,osm_venues_at_v4,at_00071,at_venues_batch_v4,2026-05-24T23:22:24.155190+00:00,osm_import_terminal_v4,{},venue
Top Kino Bar,1 Rahlgasse,Wien,,1060,+43 1 2083000,https://www.topkino.at/,,48.2013139,16.3617143,2026-05-24T23:22:24.155190+00:00,approved,active,Austria,community,osm_venues_at_v4,at_00072,at_venues_batch_v4,2026-05-24T23:22:24.155190+00:00,osm_import_terminal_v4,{},venue
Salzach-​Insel-​Bar,,,,,,,,47.8016034,13.0416023,2026-05-24T23:22:24.155190+00:00,approved,active,Austria,community,osm_venues_at_v4,at_00073,at_venues_batch_v4,2026-05-24T23:22:24.155190+00:00,osm_import_terminal_v4,{},venue
JO's Restaurant & Bar,39 Prager Straße,Wien,,1210,,https://josrestaurantundbar.at/,,48.2641861,16.3937934,2026-05-24T23:22:24.155190+00:00,approved,active,Austria,community,osm_venues_at_v4,at_00074,at_venues_batch_v4,2026-05-24T23:22:24.155190+00:00,osm_import_terminal_v4,{},venue
Wok Bar,20 Peter-Kaiser-Gasse,Wien,,1210,,https://www.wokbar.at/,,48.2658434,16.3895431,2026-05-24T23:22:24.155190+00:00,approved,active,Austria,community,osm_venues_at_v4,at_00075,at_venues_batch_v4,2026-05-24T23:22:24.155190+00:00,osm_import_terminal_v4,{},venue
Blue Bar,17 Sonnenfelsgasse,Wien,,1010,,,,48.2092086,16.3769784,2026-05-24T23:22:24.155190+00:00,approved,active,Austria,community,osm_venues_at_v4,at_00076,at_venues_batch_v4,2026-05-24T23:22:24.155190+00:00,osm_import_terminal_v4,{},venue
Havana Cocktail Bar,,,,,,,,47.8031315,13.0452776,2026-05-24T23:22:24.155190+00:00,approved,active,Austria,community,osm_venues_at_v4,at_00077,at_venues_batch_v4,2026-05-24T23:22:24.155190+00:00,osm_import_terminal_v4,{},venue
Nightfly's American Bar,14 Dorotheergasse,Wien,,1010,,https://www.nightflys.at/,,48.2071587,16.3690865,2026-05-24T23:22:24.155190+00:00,approved,active,Austria,community,osm_venues_at_v4,at_00078,at_venues_batch_v4,2026-05-24T23:22:24.155190+00:00,osm_import_terminal_v4,{},venue
Dino's Apothecary Bar,19 Salzgries,Wien,,1010,,,,48.2132963,16.3708365,2026-05-24T23:22:24.155190+00:00,approved,active,Austria,community,osm_venues_at_v4,at_00079,at_venues_batch_v4,2026-05-24T23:22:24.155190+00:00,osm_import_terminal_v4,{},venue
SoHo Bar,4 Sigmund-Haffner-Gasse,Salzburg,,5020,+43 662 844020,,,47.7997474,13.0444848,2026-05-24T23:22:24.155190+00:00,approved,active,Austria,community,osm_venues_at_v4,at_00080,at_venues_batch_v4,2026-05-24T23:22:24.155190+00:00,osm_import_terminal_v4,{},venue
Pub Klemo,61 Margaretenstraße,Wien,,1050,+43 699 11091332,https://www.pubklemo.at/,,48.1927013,16.360884,2026-05-24T23:22:24.155190+00:00,approved,active,Austria,community,osm_venues_at_v4,at_00081,at_venues_batch_v4,2026-05-24T23:22:24.155190+00:00,osm_import_terminal_v4,{},venue
The Twinspub,299 Hütteldorfer Straße,Wien,,1140,,,,48.1975989,16.2792505,2026-05-24T23:22:24.155190+00:00,approved,active,Austria,community,osm_venues_at_v4,at_00082,at_venues_batch_v4,2026-05-24T23:22:24.155190+00:00,osm_import_terminal_v4,{},venue
Segabar Rudolfskai,18 Rudolfskai,Salzburg,,5020,,https://www.segabar.at/,,47.800041,13.046203,2026-05-24T23:22:24.155190+00:00,approved,active,Austria,community,osm_venues_at_v4,at_00083,at_venues_batch_v4,2026-05-24T23:22:24.155190+00:00,osm_import_terminal_v4,{},venue
Bar Chalet,42 Linzer Bundesstraße,,,5023,,,,47.8146342,13.0690243,2026-05-24T23:22:24.155190+00:00,approved,active,Austria,community,osm_venues_at_v4,at_00084,at_venues_batch_v4,2026-05-24T23:22:24.155190+00:00,osm_import_terminal_v4,{},venue
Onyx Bar,12 Stephansplatz,Wien,,1010,,,,48.2083413,16.3717776,2026-05-24T23:22:24.155190+00:00,approved,active,Austria,community,osm_venues_at_v4,at_00085,at_venues_batch_v4,2026-05-24T23:22:24.155190+00:00,osm_import_terminal_v4,{},venue
Nostalgija Kafana & Rakija Bar,100 Sechshauser Straße,Wien,,1150,,,,48.1865065,16.3250701,2026-05-24T23:22:24.155190+00:00,approved,active,Austria,community,osm_venues_at_v4,at_00086,at_venues_batch_v4,2026-05-24T23:22:24.155190+00:00,osm_import_terminal_v4,{},venue
Cafe-Bar Blue Box,8 Richtergasse,Wien,,1070,,https://www.facebook.com/Goldies.BlueBox/,,48.1993604,16.3482483,2026-05-24T23:22:24.155190+00:00,approved,active,Austria,community,osm_venues_at_v4,at_00087,at_venues_batch_v4,2026-05-24T23:22:24.155190+00:00,osm_import_terminal_v4,{},venue
Atlas Bar and Gallery,51 Neustiftgasse,,,,+43 1 5237161,https://www.atlasatlas.at/,,48.2052659,16.3502604,2026-05-24T23:22:24.155190+00:00,approved,active,Austria,community,osm_venues_at_v4,at_00088,at_venues_batch_v4,2026-05-24T23:22:24.155190+00:00,osm_import_terminal_v4,{},venue
Bar Stœrt,28 Skodagasse,Wien,,1080,,https://www.barstoert.com/,,48.2144288,16.3479299,2026-05-24T23:22:24.155190+00:00,approved,active,Austria,community,osm_venues_at_v4,at_00089,at_venues_batch_v4,2026-05-24T23:22:24.155190+00:00,osm_import_terminal_v4,{},venue
Nachbarschaft,5 Sachsenheimstraße,Elixhausen,,5161,,,,47.8626405,13.062537,2026-05-24T23:22:24.155190+00:00,approved,active,Austria,community,osm_venues_at_v4,at_00090,at_venues_batch_v4,2026-05-24T23:22:24.155190+00:00,osm_import_terminal_v4,{},venue
Raven's Pub,9 Rabengasse,Wien,,1030,+43 1 7122326,,,48.1959618,16.4006344,2026-05-24T23:22:24.155190+00:00,approved,active,Austria,community,osm_venues_at_v4,at_00091,at_venues_batch_v4,2026-05-24T23:22:24.155190+00:00,osm_import_terminal_v4,{},venue
Bar Black Lounge,25–27 Baumgasse,Wien,,1030,+43 1 9203944,,,48.1958724,16.3981282,2026-05-24T23:22:24.155190+00:00,approved,active,Austria,community,osm_venues_at_v4,at_00092,at_venues_batch_v4,2026-05-24T23:22:24.155190+00:00,osm_import_terminal_v4,{},venue
Mi Barrio,2 Münzwardeingasse,Wien,,1060,+43 1 5876125,https://www.mibarrio.at,,48.1943627,16.3522044,2026-05-24T23:22:24.155190+00:00,approved,active,Austria,community,osm_venues_at_v4,at_00093,at_venues_batch_v4,2026-05-24T23:22:24.155190+00:00,osm_import_terminal_v4,{},venue
Das Alt - Irish Pub Hietzing,18 Altgasse,Wien,,1130,+43 676 5403950,https://www.irishpub-hietzing.at/,,48.1855229,16.2988667,2026-05-24T23:22:24.155190+00:00,approved,active,Austria,community,osm_venues_at_v4,at_00094,at_venues_batch_v4,2026-05-24T23:22:24.155190+00:00,osm_import_terminal_v4,{},venue
Restaurant Sport-Union,,Wien,,1130,+43 1 8771250,http://www.restaurantsportunion.com,,48.1852898,16.3003332,2026-05-24T23:22:24.155190+00:00,approved,active,Austria,community,osm_venues_at_v4,at_00095,at_venues_batch_v4,2026-05-24T23:22:24.155190+00:00,osm_import_terminal_v4,{},venue
Ajisai Ramen Sushi Bar,58-60 Reinprechtsdorfer Straße,Wien,,1050,+43 676 9616186,,,48.1873463,16.3525949,2026-05-24T23:22:24.155190+00:00,approved,active,Austria,community,osm_venues_at_v4,at_00096,at_venues_batch_v4,2026-05-24T23:22:24.155190+00:00,osm_import_terminal_v4,{},venue
Leonardelli's Eisbar,221 Brünner Straße,Wien,,1210,,,,48.2929838,16.4174637,2026-05-24T23:22:24.155190+00:00,approved,active,Austria,community,osm_venues_at_v4,at_00097,at_venues_batch_v4,2026-05-24T23:22:24.155190+00:00,osm_import_terminal_v4,{},venue
filmbar,,,,,,,,48.204851,16.3683082,2026-05-24T23:22:24.155190+00:00,approved,active,Austria,community,osm_venues_at_v4,at_00098,at_venues_batch_v4,2026-05-24T23:22:24.155190+00:00,osm_import_terminal_v4,{},venue
Sega-Bar,,,,,,,,47.8013244,13.0388413,2026-05-24T23:22:24.155190+00:00,approved,active,Austria,community,osm_venues_at_v4,at_00099,at_venues_batch_v4,2026-05-24T23:22:24.155190+00:00,osm_import_terminal_v4,{},venue
You.Bar,,Wien,,1010,,,,48.2028144,16.3661961,2026-05-24T23:22:24.155190+00:00,approved,active,Austria,community,osm_venues_at_v4,at_00100,at_venues_batch_v4,2026-05-24T23:22:24.155190+00:00,osm_import_terminal_v4,{},venue
Na-nÓg – Irish Pub,6 Anastasius-Grün-Gasse,Wien,,1180,+43 676 5747870,https://www.nanog.at,,48.2300822,16.3491882,2026-05-24T23:22:24.155190+00:00,approved,active,Austria,community,osm_venues_at_v4,at_00101,at_venues_batch_v4,2026-05-24T23:22:24.155190+00:00,osm_import_terminal_v4,{},venue
Kruger's American Bar,5 Krugerstraße,Wien,,1010,,http://www.krugers.at/,,48.2040473,16.371322,2026-05-24T23:22:24.155190+00:00,approved,active,Austria,community,osm_venues_at_v4,at_00102,at_venues_batch_v4,2026-05-24T23:22:24.155190+00:00,osm_import_terminal_v4,{},venue
Bergers Bar,,,,,,,,48.2141646,16.3797018,2026-05-24T23:22:24.155190+00:00,approved,active,Austria,community,osm_venues_at_v4,at_00103,at_venues_batch_v4,2026-05-24T23:22:24.155190+00:00,osm_import_terminal_v4,{},venue
Silver Bar,12 Wiedner Hauptstraße,Wien,,1040,+43 1 589 180,https://www.dastriest.at/index_mobile.php?site=silverbar,,48.1974387,16.3673297,2026-05-24T23:22:24.155190+00:00,approved,active,Austria,community,osm_venues_at_v4,at_00104,at_venues_batch_v4,2026-05-24T23:22:24.155190+00:00,osm_import_terminal_v4,{},venue
Sky Bar,,,,,,,,48.2064383,16.3722737,2026-05-24T23:22:24.155190+00:00,approved,active,Austria,community,osm_venues_at_v4,at_00105,at_venues_batch_v4,2026-05-24T23:22:24.155190+00:00,osm_import_terminal_v4,{},venue
Loosbar,10 Kärntner Straße,Wien,,1010,+43 1 5123283,http://www.loosbar.at,,48.2071608,16.3712027,2026-05-24T23:22:24.155190+00:00,approved,active,Austria,community,osm_venues_at_v4,at_00106,at_venues_batch_v4,2026-05-24T23:22:24.155190+00:00,osm_import_terminal_v4,{},venue
First Floor Bar,5 Seitenstettengasse,Wien,,1010,+43 1 5321165,http://firstfloorbar.at,,48.2117497,16.3750644,2026-05-24T23:22:24.155190+00:00,approved,active,Austria,community,osm_venues_at_v4,at_00107,at_venues_batch_v4,2026-05-24T23:22:24.155190+00:00,osm_import_terminal_v4,{},venue
Slammerbar,5 Seitenstettengasse,Wien,,1010,,http://www.slammerbar.at,,48.2117525,16.3748283,2026-05-24T23:22:24.155190+00:00,approved,active,Austria,community,osm_venues_at_v4,at_00108,at_venues_batch_v4,2026-05-24T23:22:24.155190+00:00,osm_import_terminal_v4,{},venue
Nelson's Pub,3 Seitenstettengasse,Wien,,1010,,,,48.2118153,16.3743788,2026-05-24T23:22:24.155190+00:00,approved,active,Austria,community,osm_venues_at_v4,at_00109,at_venues_batch_v4,2026-05-24T23:22:24.155190+00:00,osm_import_terminal_v4,{},venue
Pappala Pub,156-157,Wien,,1090,,https://www.ppub.at/,,48.2296754,16.3504106,2026-05-24T23:22:24.155190+00:00,approved,active,Austria,community,osm_venues_at_v4,at_00110,at_venues_batch_v4,2026-05-24T23:22:24.155190+00:00,osm_import_terminal_v4,{},venue
Wine Bar & Cheese House,19 Ottakringer Straße,Wien,,1160,,,,48.214856,16.3379308,2026-05-24T23:22:24.155190+00:00,approved,active,Austria,community,osm_venues_at_v4,at_00111,at_venues_batch_v4,2026-05-24T23:22:24.155190+00:00,osm_import_terminal_v4,{},venue
City Garden Barbecue,,,,,+43 1 711758127,https://www.marriott.com/hotels/hotel-information/restaurant/viese&scid=d42e66eb-35c2-4d9c-9219-ae39f3a2ca9f,,48.1966522,16.3867816,2026-05-24T23:22:24.155190+00:00,approved,active,Austria,community,osm_venues_at_v4,at_00112,at_venues_batch_v4,2026-05-24T23:22:24.155190+00:00,osm_import_terminal_v4,{},venue
The Underdog Bar,24 Schlösselgasse,Wien,,1080,,,,48.2141366,16.3532335,2026-05-24T23:22:24.155190+00:00,approved,active,Austria,community,osm_venues_at_v4,at_00113,at_venues_batch_v4,2026-05-24T23:22:24.155190+00:00,osm_import_terminal_v4,{},venue
Saint George Cocktail Bar,,,,,,,,48.2058141,16.3443762,2026-05-24T23:22:24.155190+00:00,approved,active,Austria,community,osm_venues_at_v4,at_00114,at_venues_batch_v4,2026-05-24T23:22:24.155190+00:00,osm_import_terminal_v4,{},venue
Michael's Bier-& Weinbar,3 Heinrichsgasse,Wien,,1010,+43 664 88345150,https://www.michaels-bar.at/,,48.2150599,16.3718776,2026-05-24T23:22:24.155190+00:00,approved,active,Austria,community,osm_venues_at_v4,at_00115,at_venues_batch_v4,2026-05-24T23:22:24.155190+00:00,osm_import_terminal_v4,{},venue
XCelsior Caffè-Bar,7 Stephansplatz,Wien,,1010,+43 1 5121444,http://www.xcelsior.at,,48.2090335,16.3732591,2026-05-24T23:22:24.155190+00:00,approved,active,Austria,community,osm_venues_at_v4,at_00116,at_venues_batch_v4,2026-05-24T23:22:24.155190+00:00,osm_import_terminal_v4,{},venue
Bukowski the Pub,2 Kirchberggasse,Wien,,1070,,,,48.2028547,16.3562912,2026-05-24T23:22:24.155190+00:00,approved,active,Austria,community,osm_venues_at_v4,at_00117,at_venues_batch_v4,2026-05-24T23:22:24.155190+00:00,osm_import_terminal_v4,{},venue
Rainers Bar,11 Postgasse,Wien,,1010,,http://www.postgasse11.com,,48.209582,16.3785201,2026-05-24T23:22:24.155190+00:00,approved,active,Austria,community,osm_venues_at_v4,at_00118,at_venues_batch_v4,2026-05-24T23:22:24.155190+00:00,osm_import_terminal_v4,{},venue
Pub Times,,,,,,,,48.1888912,16.3353846,2026-05-24T23:22:24.155190+00:00,approved,active,Austria,community,osm_venues_at_v4,at_00119,at_venues_batch_v4,2026-05-24T23:22:24.155190+00:00,osm_import_terminal_v4,{},venue
The Opposite of West by Tapas Bar,37 Rainergasse,Wien,,1050,+43 670 358 0844,https://www.oppositeofwest.at/,,48.1870827,16.3650521,2026-05-24T23:22:24.155190+00:00,approved,active,Austria,community,osm_venues_at_v4,at_00120,at_venues_batch_v4,2026-05-24T23:22:24.155190+00:00,osm_import_terminal_v4,{},venue
The Look Bar,17 Salzgries,Wien,,1010,,,,48.2132753,16.370966,2026-05-24T23:22:24.155190+00:00,approved,active,Austria,community,osm_venues_at_v4,at_00121,at_venues_batch_v4,2026-05-24T23:22:24.155190+00:00,osm_import_terminal_v4,{},venue
Tramezzini Bar,3 Franziskanerplatz,Wien,,1010,,,,48.2067265,16.3745463,2026-05-24T23:22:24.155190+00:00,approved,active,Austria,community,osm_venues_at_v4,at_00122,at_venues_batch_v4,2026-05-24T23:22:24.155190+00:00,osm_import_terminal_v4,{},venue
Sportstüberl USK Gneis,70 Sternhofweg,Salzburg,,5020,+43 664 5858201,,,47.7694987,13.0348079,2026-05-24T23:22:24.155190+00:00,approved,active,Austria,community,osm_venues_at_v4,at_00123,at_venues_batch_v4,2026-05-24T23:22:24.155190+00:00,osm_import_terminal_v4,{},venue
essbar,2 Josef-Fritsch-Weg,Wien,,1020,,,,48.2079613,16.4260759,2026-05-24T23:22:24.155190+00:00,approved,active,Austria,community,osm_venues_at_v4,at_00124,at_venues_batch_v4,2026-05-24T23:22:24.155190+00:00,osm_import_terminal_v4,{},venue
The Lizard - Pub & Billards,28-32 Burggasse,Wien,,1070,+43 1 9423272,https://www.lizardpub.at/,,48.2043113,16.3513618,2026-05-24T23:22:24.155190+00:00,approved,active,Austria,community,osm_venues_at_v4,at_00125,at_venues_batch_v4,2026-05-24T23:22:24.155190+00:00,osm_import_terminal_v4,{},venue
Combo Bar,17 Obermüllnerstraße,Wien,,1020,,,,48.2196138,16.4042664,2026-05-24T23:22:24.155190+00:00,approved,active,Austria,community,osm_venues_at_v4,at_00126,at_venues_batch_v4,2026-05-24T23:22:24.155190+00:00,osm_import_terminal_v4,{},venue
Acabar,103 Burggasse,Wien,,1070,,,,48.2042084,16.3412277,2026-05-24T23:22:24.155190+00:00,approved,active,Austria,community,osm_venues_at_v4,at_00127,at_venues_batch_v4,2026-05-24T23:22:24.155190+00:00,osm_import_terminal_v4,{},venue
Marion's Bar,,,,,,,,48.2181903,16.3986313,2026-05-24T23:22:24.155190+00:00,approved,active,Austria,community,osm_venues_at_v4,at_00128,at_venues_batch_v4,2026-05-24T23:22:24.155190+00:00,osm_import_terminal_v4,{},venue
Palm Beach Bar,19 Thurngasse,Wien,,1090,,,,48.2194858,16.3614538,2026-05-24T23:22:24.155190+00:00,approved,active,Austria,community,osm_venues_at_v4,at_00129,at_venues_batch_v4,2026-05-24T23:22:24.155190+00:00,osm_import_terminal_v4,{},venue
Panoramabar,14 Schumacherstraße,Salzburg,,5020,+43 664 45 64 350,https://www.cafe-kowalski.at/standorte-speisekarten/lehenpanoramabar,,47.8133132,13.0273611,2026-05-24T23:22:24.155190+00:00,approved,active,Austria,community,osm_venues_at_v4,at_00130,at_venues_batch_v4,2026-05-24T23:22:24.155190+00:00,osm_import_terminal_v4,{},venue
"Sky Cafe, Restaurant, Bar",19 Kärntner Straße,Wien,,1010,+4315131712,https://www.steffl-vienna.at/de/skybar/,,48.2064242,16.3717674,2026-05-24T23:22:24.155190+00:00,approved,active,Austria,community,osm_venues_at_v4,at_00131,at_venues_batch_v4,2026-05-24T23:22:24.155190+00:00,osm_import_terminal_v4,{},venue
wienerin Restaurant & Bar,1 Petersplatz,Wien,,1010,+43 1 5321380,https://wienerin.org/,,48.20906,16.3700692,2026-05-24T23:22:24.155190+00:00,approved,active,Austria,community,osm_venues_at_v4,at_00132,at_venues_batch_v4,2026-05-24T23:22:24.155190+00:00,osm_import_terminal_v4,{},venue
Marin Espressobar,14 Schönbrunner Straße,Wien,,1050,,https://www.marin-espresso.com/,,48.1943153,16.3597148,2026-05-24T23:22:24.155190+00:00,approved,active,Austria,community,osm_venues_at_v4,at_00133,at_venues_batch_v4,2026-05-24T23:22:24.155190+00:00,osm_import_terminal_v4,{},venue
1010 Bar Cafe,,,,,,,,48.2063414,16.3702788,2026-05-24T23:22:24.155190+00:00,approved,active,Austria,community,osm_venues_at_v4,at_00134,at_venues_batch_v4,2026-05-24T23:22:24.155190+00:00,osm_import_terminal_v4,{},venue
Admiral Sportwetten,,,,,,,,48.2546414,16.4088937,2026-05-24T23:22:24.155190+00:00,approved,active,Austria,community,osm_venues_at_v4,at_00135,at_venues_batch_v4,2026-05-24T23:22:24.155190+00:00,osm_import_terminal_v4,{},venue
Eden Cafe Skybar,,,,,,,,47.794578,13.0544524,2026-05-24T23:22:24.155190+00:00,approved,active,Austria,community,osm_venues_at_v4,at_00136,at_venues_batch_v4,2026-05-24T23:22:24.155190+00:00,osm_import_terminal_v4,{},venue
Balthasar Kaffee Bar,,Wien,,1020,+43 664 3816855,https://balthasar.at/,,48.2148355,16.3851118,2026-05-24T23:22:24.155190+00:00,approved,active,Austria,community,osm_venues_at_v4,at_00137,at_venues_batch_v4,2026-05-24T23:22:24.155190+00:00,osm_import_terminal_v4,{},venue
Sofie's Bar,9 Biberstraße,Wien,,1010,,,,48.2089241,16.3807586,2026-05-24T23:22:24.155190+00:00,approved,active,Austria,community,osm_venues_at_v4,at_00138,at_venues_batch_v4,2026-05-24T23:22:24.155190+00:00,osm_import_terminal_v4,{},venue
Steak Bar,74 Währinger Straße,Wien,,1090,+43 1 922 10 52,https://steakbar.at/,,48.2238497,16.3510469,2026-05-24T23:22:24.155190+00:00,approved,active,Austria,community,osm_venues_at_v4,at_00139,at_venues_batch_v4,2026-05-24T23:22:24.155190+00:00,osm_import_terminal_v4,{},venue
Burger's Bar,204 Vorgartenstraße,Wien,,1020,+43 1 2392722,https://burgersbar.at/,,48.2167348,16.4110037,2026-05-24T23:22:24.155190+00:00,approved,active,Austria,community,osm_venues_at_v4,at_00140,at_venues_batch_v4,2026-05-24T23:22:24.155190+00:00,osm_import_terminal_v4,{},venue
Bao Bar,2 Zollergasse,Wien,,1070,,https://www.baobar.at/,,48.1992336,16.3512476,2026-05-24T23:22:24.155190+00:00,approved,active,Austria,community,osm_venues_at_v4,at_00141,at_venues_batch_v4,2026-05-24T23:22:24.155190+00:00,osm_import_terminal_v4,{},venue
Louisiana Blues Pub,4 Prinz-Eugen-Straße,Wien,,1040,,,,48.1972311,16.375277,2026-05-24T23:22:24.155190+00:00,approved,active,Austria,community,osm_venues_at_v4,at_00142,at_venues_batch_v4,2026-05-24T23:22:24.155190+00:00,osm_import_terminal_v4,{},venue
Mochi Ramen Bar,,,,,+43 1 212 257 545,https://www.mochi-ramen.com/,,48.2219398,16.40239,2026-05-24T23:22:24.155190+00:00,approved,active,Austria,community,osm_venues_at_v4,at_00143,at_venues_batch_v4,2026-05-24T23:22:24.155190+00:00,osm_import_terminal_v4,{},venue
Eagle Bar,1 Blümelgasse,Wien,,1060,+43 1 5872661,https://www.eagle-vienna.com/,,48.196961,16.3517739,2026-05-24T23:22:24.155190+00:00,approved,active,Austria,community,osm_venues_at_v4,at_00144,at_venues_batch_v4,2026-05-24T23:22:24.155190+00:00,osm_import_terminal_v4,{},venue
Piccadilly Shishabar,,,,,,,,47.8062314,13.0486736,2026-05-24T23:22:24.155190+00:00,approved,active,Austria,community,osm_venues_at_v4,at_00145,at_venues_batch_v4,2026-05-24T23:22:24.155190+00:00,osm_import_terminal_v4,{},venue
SLU-Bar,31 Billrothstraße,Wien,,1190,,http://www.slubar.at,,48.2360663,16.3494061,2026-05-24T23:22:24.155190+00:00,approved,active,Austria,community,osm_venues_at_v4,at_00146,at_venues_batch_v4,2026-05-24T23:22:24.155190+00:00,osm_import_terminal_v4,{},venue
Academy Bar,4 Franz-Josef-Straße,Salzburg,,5020,,https://www.academy-salzburg.at/,,47.8068905,13.0430761,2026-05-24T23:22:24.155190+00:00,approved,active,Austria,community,osm_venues_at_v4,at_00147,at_venues_batch_v4,2026-05-24T23:22:24.155190+00:00,osm_import_terminal_v4,{},venue
Iko kitchen & bar,6 Wipplingerstraße,Wien,,1010,,,,48.2116247,16.3713903,2026-05-24T23:22:24.155190+00:00,approved,active,Austria,community,osm_venues_at_v4,at_00148,at_venues_batch_v4,2026-05-24T23:22:24.155190+00:00,osm_import_terminal_v4,{},venue
J. Hornig Kaffeebar,29 Siebensterngasse,Wien,,1070,+43 1 5222251,https://www.jhornig.com/stories/j-hornig-kaffeebar/,,48.2020482,16.3519629,2026-05-24T23:22:24.155190+00:00,approved,active,Austria,community,osm_venues_at_v4,at_00149,at_venues_batch_v4,2026-05-24T23:22:24.155190+00:00,osm_import_terminal_v4,{},venue
Azul Bar,2 Postgasse,Wien,,1010,+43 676 3571311,https://www.facebook.com/azulbarwien,,48.2082223,16.3788961,2026-05-24T23:22:24.155190+00:00,approved,active,Austria,community,osm_venues_at_v4,at_00150,at_venues_batch_v4,2026-05-24T23:22:24.155190+00:00,osm_import_terminal_v4,{},venue
Stresssbar,,,,,,,,48.2134031,16.3671271,2026-05-24T23:22:24.155190+00:00,approved,active,Austria,community,osm_venues_at_v4,at_00151,at_venues_batch_v4,2026-05-24T23:22:24.155190+00:00,osm_import_terminal_v4,{},venue
Admiral Sportsbar,,,,,,,,48.2572126,16.4002495,2026-05-24T23:22:24.155190+00:00,approved,active,Austria,community,osm_venues_at_v4,at_00152,at_venues_batch_v4,2026-05-24T23:22:24.155190+00:00,osm_import_terminal_v4,{},venue
Monte Ofelio Bar,70 Obere Augartenstraße,Wien,,1020,+43 664 5215573,https://monteofeliobar.com/monte-ofelio-augarten/,,48.2195114,16.3797323,2026-05-24T23:22:24.155190+00:00,approved,active,Austria,community,osm_venues_at_v4,at_00153,at_venues_batch_v4,2026-05-24T23:22:24.155190+00:00,osm_import_terminal_v4,{},venue
Mr. Du Ramen Bar,,,,,,https://www.mrduramenbar.at/,,48.2080764,16.3804593,2026-05-24T23:22:24.155190+00:00,approved,active,Austria,community,osm_venues_at_v4,at_00154,at_venues_batch_v4,2026-05-24T23:22:24.155190+00:00,osm_import_terminal_v4,{},venue
The Bar,Calafattiplatz,Wien,,1020,,,,48.217114,16.399262,2026-05-24T23:22:24.155190+00:00,approved,active,Austria,community,osm_venues_at_v4,at_00155,at_venues_batch_v4,2026-05-24T23:22:24.155190+00:00,osm_import_terminal_v4,{},venue
Potions The Magical Cocktail Pub,104-106 Liechtensteinstraße,Wien,,1090,,https://www.potions.at/,,48.2298275,16.3565044,2026-05-24T23:22:24.155190+00:00,approved,active,Austria,community,osm_venues_at_v4,at_00156,at_venues_batch_v4,2026-05-24T23:22:24.155190+00:00,osm_import_terminal_v4,{},venue
Monte Ofelio Bar,2 Schottenbastei,Wien,,1010,,https://monteofeliobar.com/monte-ofelio-schottenbastei/,,48.2133466,16.3635547,2026-05-24T23:22:24.155190+00:00,approved,active,Austria,community,osm_venues_at_v4,at_00157,at_venues_batch_v4,2026-05-24T23:22:24.155190+00:00,osm_import_terminal_v4,{},venue
Aristo Bar,70 Grinzinger Straße,Wien,,1190,,,,48.2535967,16.3537061,2026-05-24T23:22:24.155190+00:00,approved,active,Austria,community,osm_venues_at_v4,at_00158,at_venues_batch_v4,2026-05-24T23:22:24.155190+00:00,osm_import_terminal_v4,{},venue
Lust und Löffel Restaurant Bar Secret Garden,52 Billrothstraße,Wien,,1190,,,,48.2403501,16.3490147,2026-05-24T23:22:24.155190+00:00,approved,active,Austria,community,osm_venues_at_v4,at_00159,at_venues_batch_v4,2026-05-24T23:22:24.155190+00:00,osm_import_terminal_v4,{},venue
The Habit Pub,124 Burggasse,Wien,,1070,+43 660 37 28 776,http://habit.wien,,48.2044366,16.3390246,2026-05-24T23:22:24.155190+00:00,approved,active,Austria,community,osm_venues_at_v4,at_00160,at_venues_batch_v4,2026-05-24T23:22:24.155190+00:00,osm_import_terminal_v4,{},venue
Basz Bar,7 Hollandstraße,Wien,,1020,+43 676 4283678,http://www.basz-bar.at/,,48.2155552,16.3764453,2026-05-24T23:22:24.155190+00:00,approved,active,Austria,community,osm_venues_at_v4,at_00161,at_venues_batch_v4,2026-05-24T23:22:24.155190+00:00,osm_import_terminal_v4,{},venue
Vitaminbar,,,,,,,,48.1989436,16.3147674,2026-05-24T23:22:24.155190+00:00,approved,active,Austria,community,osm_venues_at_v4,at_00162,at_venues_batch_v4,2026-05-24T23:22:24.155190+00:00,osm_import_terminal_v4,{},venue
Admiral Sportwetten,,,,,,,,48.1991775,16.3163759,2026-05-24T23:22:24.155190+00:00,approved,active,Austria,community,osm_venues_at_v4,at_00163,at_venues_batch_v4,2026-05-24T23:22:24.155190+00:00,osm_import_terminal_v4,{},venue
Musa's Musikpub,48 Ignaz-Harrer-Straße,Salzburg,,5020,,http://musasmusik.pub/,,47.8116525,13.02748,2026-05-24T23:22:24.155190+00:00,approved,active,Austria,community,osm_venues_at_v4,at_00164,at_venues_batch_v4,2026-05-24T23:22:24.155190+00:00,osm_import_terminal_v4,{},venue
wunderBAR,,,,,,,,47.8040813,13.0183798,2026-05-24T23:22:24.155190+00:00,approved,active,Austria,community,osm_venues_at_v4,at_00165,at_venues_batch_v4,2026-05-24T23:22:24.155190+00:00,osm_import_terminal_v4,{},venue
Rinkhy Delikatessin Bar,,Wien,,1070,+43 1 9478 798,https://www.rinkhy.com/,,48.2023032,16.3448585,2026-05-24T23:22:24.155190+00:00,approved,active,Austria,community,osm_venues_at_v4,at_00166,at_venues_batch_v4,2026-05-24T23:22:24.155190+00:00,osm_import_terminal_v4,{},venue
Vanella - bar del gelato,47 Nußdorfer Straße,Wien,,1090,+43 1 310 26 69,https://www.vanella.at/,,48.2279974,16.3546437,2026-05-24T23:22:24.155190+00:00,approved,active,Austria,community,osm_venues_at_v4,at_00167,at_venues_batch_v4,2026-05-24T23:22:24.155190+00:00,osm_import_terminal_v4,{},venue
Caffetteria Barista,,,,,,,,48.1978767,16.3015103,2026-05-24T23:22:24.155190+00:00,approved,active,Austria,community,osm_venues_at_v4,at_00168,at_venues_batch_v4,2026-05-24T23:22:24.155190+00:00,osm_import_terminal_v4,{},venue
Oldies Tanzbar Laterndl,5A Innsbrucker Bundesstraße,Salzburg,,5020,+43 676 4717441,,,47.8054328,13.0253315,2026-05-24T23:22:24.155190+00:00,approved,active,Austria,community,osm_venues_at_v4,at_00169,at_venues_batch_v4,2026-05-24T23:22:24.155190+00:00,osm_import_terminal_v4,{},venue
Waldemar Tagesbar,6 Altgasse,Wien,,1130,,https://www.waldemar-tagesbar.at,,48.1853196,16.3000686,2026-05-24T23:22:24.155190+00:00,approved,active,Austria,community,osm_venues_at_v4,at_00170,at_venues_batch_v4,2026-05-24T23:22:24.155190+00:00,osm_import_terminal_v4,{},venue
Dino's Essbar,,,,,,https://www.dino-s-essbar-salzburg.at/,,47.8137544,13.053744,2026-05-24T23:22:24.155190+00:00,approved,active,Austria,community,osm_venues_at_v4,at_00171,at_venues_batch_v4,2026-05-24T23:22:24.155190+00:00,osm_import_terminal_v4,{},venue
Apo Bar,,,,,,,,47.7997658,13.0471132,2026-05-24T23:22:24.155190+00:00,approved,active,Austria,community,osm_venues_at_v4,at_00172,at_venues_batch_v4,2026-05-24T23:22:24.155190+00:00,osm_import_terminal_v4,{},venue
Hype Bar,,,,,,,,47.8114636,13.0303714,2026-05-24T23:22:24.155190+00:00,approved,active,Austria,community,osm_venues_at_v4,at_00173,at_venues_batch_v4,2026-05-24T23:22:24.155190+00:00,osm_import_terminal_v4,{},venue
Al Banco - Aperibar,1 Am Belvedere,,,,+435010014600,https://albanco.at,,48.1871737,16.3803466,2026-05-24T23:22:24.155190+00:00,approved,active,Austria,community,osm_venues_at_v4,at_00174,at_venues_batch_v4,2026-05-24T23:22:24.155190+00:00,osm_import_terminal_v4,{},venue
polt bayrish pub,66 Schönbrunner Straße,Wien,,1050,+43 699 17187154,https://polt.wien,,48.1900055,16.3528174,2026-05-24T23:22:24.155190+00:00,approved,active,Austria,community,osm_venues_at_v4,at_00175,at_venues_batch_v4,2026-05-24T23:22:24.155190+00:00,osm_import_terminal_v4,{},venue
Stagebar,2 Chiemseegasse,Salzburg,,5020,,,,47.7977246,13.0491626,2026-05-24T23:22:24.155190+00:00,approved,active,Austria,community,osm_venues_at_v4,at_00176,at_venues_batch_v4,2026-05-24T23:22:24.155190+00:00,osm_import_terminal_v4,{},venue
Atmosphere Rooftop Bar,5 Schubertring,Wien,,1010,+43 1 31188,http://www.ritzcarlton.com/de/hotels/europe/vienna/dining/atmosphere-rooftop-bar,,48.2023819,16.3764216,2026-05-24T23:22:24.155190+00:00,approved,active,Austria,community,osm_venues_at_v4,at_00177,at_venues_batch_v4,2026-05-24T23:22:24.155190+00:00,osm_import_terminal_v4,{},venue
Berliner Restaurant & Bar,,,,,,,,48.2019272,16.3448931,2026-05-24T23:22:24.155190+00:00,approved,active,Austria,community,osm_venues_at_v4,at_00178,at_venues_batch_v4,2026-05-24T23:22:24.155190+00:00,osm_import_terminal_v4,{},venue
First American Bar,16 Schulerstraße,Wien,,1010,+43 1 513 22 07,https://www.firstamericanbar.at/,,48.2079724,16.3761592,2026-05-24T23:22:24.155190+00:00,approved,active,Austria,community,osm_venues_at_v4,at_00179,at_venues_batch_v4,2026-05-24T23:22:24.155190+00:00,osm_import_terminal_v4,{},venue
Barfly's,33 Esterházygasse,Wien,,1060,+43 1 5860825,https://barflys.at,,48.1969146,16.3490709,2026-05-24T23:22:24.155190+00:00,approved,active,Austria,community,osm_venues_at_v4,at_00180,at_venues_batch_v4,2026-05-24T23:22:24.155190+00:00,osm_import_terminal_v4,{},venue
Pharo's Café-Pub,241 Linzer Straße,Wien,,1140,,,,48.1943749,16.2859768,2026-05-24T23:22:24.155190+00:00,approved,active,Austria,community,osm_venues_at_v4,at_00181,at_venues_batch_v4,2026-05-24T23:22:24.155190+00:00,osm_import_terminal_v4,{},venue
IMLAUER Sky - Bar & Restaurant,6 Rainerstraße,Salzburg,,5020,,,,47.807748,13.0417389,2026-05-24T23:22:24.155190+00:00,approved,active,Austria,community,osm_venues_at_v4,at_00182,at_venues_batch_v4,2026-05-24T23:22:24.155190+00:00,osm_import_terminal_v4,{},venue
Needle Vinyl Bar,8 Färbergasse,Wien,,1010,,https://needlevinylbar.com,,48.2121867,16.3689589,2026-05-24T23:22:24.155190+00:00,approved,active,Austria,community,osm_venues_at_v4,at_00183,at_venues_batch_v4,2026-05-24T23:22:24.155190+00:00,osm_import_terminal_v4,{},venue
Saint George Cocktail Bar,84 Neustiftgasse,Wien,,1070,,,,48.2058095,16.3443252,2026-05-24T23:22:24.155190+00:00,approved,active,Austria,community,osm_venues_at_v4,at_00184,at_venues_batch_v4,2026-05-24T23:22:24.155190+00:00,osm_import_terminal_v4,{},venue
The Bank - Brasserie & Bar,,,,,,,,48.2104568,16.3679594,2026-05-24T23:22:24.155190+00:00,approved,active,Austria,community,osm_venues_at_v4,at_00185,at_venues_batch_v4,2026-05-24T23:22:24.155190+00:00,osm_import_terminal_v4,{},venue
Josef Bar,1 Sterngasse,,,,,https://josef-bar.at,,48.2116707,16.3736278,2026-05-24T23:22:24.155190+00:00,approved,active,Austria,community,osm_venues_at_v4,at_00186,at_venues_batch_v4,2026-05-24T23:22:24.155190+00:00,osm_import_terminal_v4,{},venue
Högl Die Bar,,,,,,,,48.2115916,16.3737313,2026-05-24T23:22:24.155190+00:00,approved,active,Austria,community,osm_venues_at_v4,at_00187,at_venues_batch_v4,2026-05-24T23:22:24.155190+00:00,osm_import_terminal_v4,{},venue
Heaven Pub,,,,,,,,48.229636,16.3779603,2026-05-24T23:22:24.155190+00:00,approved,active,Austria,community,osm_venues_at_v4,at_00188,at_venues_batch_v4,2026-05-24T23:22:24.155190+00:00,osm_import_terminal_v4,{},venue
Mirjam´s Pub,12 Schallmooser Hauptstraße,Salzburg,,5020,+43 662 873962,,,47.8053495,13.0517038,2026-05-24T23:22:24.155190+00:00,approved,active,Austria,community,osm_venues_at_v4,at_00189,at_venues_batch_v4,2026-05-24T23:22:24.155190+00:00,osm_import_terminal_v4,{},venue
Mexxx Gay Bar,20 Schallmooser Hauptstraße,Salzburg,,5020,,https://mexxxgaybar.at/,,47.8056809,13.0527203,2026-05-24T23:22:24.155190+00:00,approved,active,Austria,community,osm_venues_at_v4,at_00190,at_venues_batch_v4,2026-05-24T23:22:24.155190+00:00,osm_import_terminal_v4,{},venue
Blaue Bar,,Wien,,,,,,48.2039403,16.3699537,2026-05-24T23:22:24.155190+00:00,approved,active,Austria,community,osm_venues_at_v4,at_00191,at_venues_batch_v4,2026-05-24T23:22:24.155190+00:00,osm_import_terminal_v4,{},venue
Grüne Bar,,Wien,,,,,,48.204031,16.3699788,2026-05-24T23:22:24.155190+00:00,approved,active,Austria,community,osm_venues_at_v4,at_00192,at_venues_batch_v4,2026-05-24T23:22:24.155190+00:00,osm_import_terminal_v4,{},venue
Rote Bar,,Wien,,,,,,48.2040003,16.3697108,2026-05-24T23:22:24.155190+00:00,approved,active,Austria,community,osm_venues_at_v4,at_00193,at_venues_batch_v4,2026-05-24T23:22:24.155190+00:00,osm_import_terminal_v4,{},venue
Lupetto Bar con Cucina Italiana,9 Schottenfeldgasse,Wien,,1070,+43 699 19007815,http://www.lupetto-bar.at/,,48.1977215,16.3435887,2026-05-24T23:22:24.155190+00:00,approved,active,Austria,community,osm_venues_at_v4,at_00194,at_venues_batch_v4,2026-05-24T23:22:24.155190+00:00,osm_import_terminal_v4,{},venue
Coquette Weinbar,9 Bergstraße,,,,,https://coquette.at/,,47.8031425,13.0457458,2026-05-24T23:22:24.155190+00:00,approved,active,Austria,community,osm_venues_at_v4,at_00195,at_venues_batch_v4,2026-05-24T23:22:24.155190+00:00,osm_import_terminal_v4,{},venue
Barke's Audimax Cafe & Buffet,,,,,,,,48.2133506,16.3604051,2026-05-24T23:22:24.155190+00:00,approved,active,Austria,community,osm_venues_at_v4,at_00196,at_venues_batch_v4,2026-05-24T23:22:24.155190+00:00,osm_import_terminal_v4,{},venue
Bao Bar,2 Jakov-Lind-Straße,Wien,,1020,,https://www.baobar.at/,,48.2223709,16.392406,2026-05-24T23:22:24.155190+00:00,approved,active,Austria,community,osm_venues_at_v4,at_00197,at_venues_batch_v4,2026-05-24T23:22:24.155190+00:00,osm_import_terminal_v4,{},venue
Zazibar,4D Glockengasse,Salzburg,,5020,+43 664 9150269,https://www.zazibar.at/,,47.8043994,13.0503585,2026-05-24T23:22:24.155190+00:00,approved,active,Austria,community,osm_venues_at_v4,at_00198,at_venues_batch_v4,2026-05-24T23:22:24.155190+00:00,osm_import_terminal_v4,{},venue
Bitterbar,5 Margaretenplatz,Wien,,1050,,https://www.bitter.bar,,48.1917152,16.3581449,2026-05-24T23:22:24.155190+00:00,approved,active,Austria,community,osm_venues_at_v4,at_00199,at_venues_batch_v4,2026-05-24T23:22:24.155190+00:00,osm_import_terminal_v4,{},venue
Golden Harp Irish Pub,82 Meidlinger Hauptstraße,Wien,,1120,+43 1 992 1674,https://goldenharp1120.at/,,48.175097,16.3300876,2026-05-24T23:22:24.155190+00:00,approved,active,Austria,community,osm_venues_at_v4,at_00200,at_venues_batch_v4,2026-05-24T23:22:24.155190+00:00,osm_import_terminal_v4,{},venue
Cinco Bar,1 Körblergasse,,,,,,,48.2098719,16.3677959,2026-05-24T23:22:24.155190+00:00,approved,active,Austria,community,osm_venues_at_v4,at_00201,at_venues_batch_v4,2026-05-24T23:22:24.155190+00:00,osm_import_terminal_v4,{},venue
Vis-a-Vis Weinbar,5 Wollzeile,Wien,,1010,+43 1 512 93 50,https://www.weibel.at/,,48.2093227,16.3746139,2026-05-24T23:22:24.155190+00:00,approved,active,Austria,community,osm_venues_at_v4,at_00202,at_venues_batch_v4,2026-05-24T23:22:24.155190+00:00,osm_import_terminal_v4,{},venue
Quattro Café-Bar,,,,,,,,48.228621,16.3323299,2026-05-24T23:22:24.155190+00:00,approved,active,Austria,community,osm_venues_at_v4,at_00203,at_venues_batch_v4,2026-05-24T23:22:24.155190+00:00,osm_import_terminal_v4,{},venue
Ravens Pub,,,,,,,,48.1958067,16.3997863,2026-05-24T23:22:24.155190+00:00,approved,active,Austria,community,osm_venues_at_v4,at_00204,at_venues_batch_v4,2026-05-24T23:22:24.155190+00:00,osm_import_terminal_v4,{},venue
Golser Bier & Wein Bar,4 Riemergasse,Wien,,1010,+43 664 88 345 150,http://www.pannonisch.at/,,48.2074516,16.3768069,2026-05-24T23:22:24.155190+00:00,approved,active,Austria,community,osm_venues_at_v4,at_00205,at_venues_batch_v4,2026-05-24T23:22:24.155190+00:00,osm_import_terminal_v4,{},venue
Golser Bier & Wein Bar,Mahlerstraße,Wien,,1010,+43 664 88 345 156,http://www.pannonisch.at/,,48.2024799,16.3731037,2026-05-24T23:22:24.155190+00:00,approved,active,Austria,community,osm_venues_at_v4,at_00206,at_venues_batch_v4,2026-05-24T23:22:24.155190+00:00,osm_import_terminal_v4,{},venue
ParaDice - Boardgame Bar,,,,,,https://www.paradice-board-game-bar.at/,,48.2135075,16.3357169,2026-05-24T23:22:24.155190+00:00,approved,active,Austria,community,osm_venues_at_v4,at_00207,at_venues_batch_v4,2026-05-24T23:22:24.155190+00:00,osm_import_terminal_v4,{},venue
Admiral Sportsbar,,,,,,,,48.2568483,16.4498697,2026-05-24T23:22:24.155190+00:00,approved,active,Austria,community,osm_venues_at_v4,at_00208,at_venues_batch_v4,2026-05-24T23:22:24.155190+00:00,osm_import_terminal_v4,{},venue
Cafe Sport,,,,,,,,48.2154746,16.3135927,2026-05-24T23:22:24.155190+00:00,approved,active,Austria,community,osm_venues_at_v4,at_00209,at_venues_batch_v4,2026-05-24T23:22:24.155190+00:00,osm_import_terminal_v4,{},venue
Bar Campari,6 Seitzergasse,Wien,,1010,+43 1 532 35 53,https://www.barcampari.at,,48.210549,16.369154,2026-05-24T23:22:24.155190+00:00,approved,active,Austria,community,osm_venues_at_v4,at_00210,at_venues_batch_v4,2026-05-24T23:22:24.155190+00:00,osm_import_terminal_v4,{},venue
Aurora Rooftop Bar,10 Arsenalstraße,Wien,,1100,+431205 77 44 4466,https://www.bar-aurora.at,,48.185194,16.3833508,2026-05-24T23:22:24.155190+00:00,approved,active,Austria,community,osm_venues_at_v4,at_00211,at_venues_batch_v4,2026-05-24T23:22:24.155190+00:00,osm_import_terminal_v4,{},venue
Badeschiff Bar & Restaurant,4 Franz-Josefs-Kai,Wien,,1010,+43 660 31 24 703,http://badeschiff.at,,48.2117879,16.3812215,2026-05-24T23:22:24.155190+00:00,approved,active,Austria,community,osm_venues_at_v4,at_00212,at_venues_batch_v4,2026-05-24T23:22:24.155190+00:00,osm_import_terminal_v4,{},venue
francescoSPORTS,11 Klabundgasse,Wien,,1190,,www.fsports.at,,48.2477756,16.3595319,2026-05-24T23:22:24.155190+00:00,approved,active,Austria,community,osm_venues_at_v4,at_00213,at_venues_batch_v4,2026-05-24T23:22:24.155190+00:00,osm_import_terminal_v4,{},venue
Mono Sushi Bar,,,,,,,,48.1974572,16.3437727,2026-05-24T23:22:24.155190+00:00,approved,active,Austria,community,osm_venues_at_v4,at_00214,at_venues_batch_v4,2026-05-24T23:22:24.155190+00:00,osm_import_terminal_v4,{},venue
Rooftopbar Lamee,15 Rotenturmstraße,,,,+43 1 5322240,https://lameerooftop.com/,,48.2102431,16.3741226,2026-05-24T23:22:24.155190+00:00,approved,active,Austria,community,osm_venues_at_v4,at_00215,at_venues_batch_v4,2026-05-24T23:22:24.155190+00:00,osm_import_terminal_v4,{},venue
Sport Café,15 Gschwandnergasse,,,,,,,48.216646,16.3241039,2026-05-24T23:22:24.155190+00:00,approved,active,Austria,community,osm_venues_at_v4,at_00216,at_venues_batch_v4,2026-05-24T23:22:24.155190+00:00,osm_import_terminal_v4,{},venue
Mart11 Lounge&Bar,,,,1150,,,,48.200001,16.3348451,2026-05-24T23:22:24.155190+00:00,approved,active,Austria,community,osm_venues_at_v4,at_00217,at_venues_batch_v4,2026-05-24T23:22:24.155190+00:00,osm_import_terminal_v4,{},venue
Ogi's Bar,,,,,,,,48.205829,16.3298329,2026-05-24T23:22:24.155190+00:00,approved,active,Austria,community,osm_venues_at_v4,at_00218,at_venues_batch_v4,2026-05-24T23:22:24.155190+00:00,osm_import_terminal_v4,{},venue
Viki's Pub so oder so,20 Fasangasse,Wien,,1030,,,,48.1924824,16.3858127,2026-05-24T23:22:24.155190+00:00,approved,active,Austria,community,osm_venues_at_v4,at_00219,at_venues_batch_v4,2026-05-24T23:22:24.155190+00:00,osm_import_terminal_v4,{},venue
Die Weinbar,,,,,,,,48.205947,16.3985242,2026-05-24T23:22:24.155190+00:00,approved,active,Austria,community,osm_venues_at_v4,at_00220,at_venues_batch_v4,2026-05-24T23:22:24.155190+00:00,osm_import_terminal_v4,{},venue
Cafe Pub Weinhold,210 Hernalser Hauptstraße,,,1170,,,,48.225111,16.3117074,2026-05-24T23:22:24.155190+00:00,approved,active,Austria,community,osm_venues_at_v4,at_00221,at_venues_batch_v4,2026-05-24T23:22:24.155190+00:00,osm_import_terminal_v4,{},venue
Piccolo Bar,,,,,,,,48.1870734,16.3761667,2026-05-24T23:22:24.155190+00:00,approved,active,Austria,community,osm_venues_at_v4,at_00222,at_venues_batch_v4,2026-05-24T23:22:24.155190+00:00,osm_import_terminal_v4,{},venue
Postsport Stüberl,87 Rosensteingasse,,,,+43 664 6244002,https://postsportstueberl.at,,48.2226416,16.3281737,2026-05-24T23:22:24.155190+00:00,approved,active,Austria,community,osm_venues_at_v4,at_00223,at_venues_batch_v4,2026-05-24T23:22:24.155190+00:00,osm_import_terminal_v4,{},venue
Mama‘s African Grill-Bar,25 Steudelgasse,,,,,,,48.1740334,16.3842903,2026-05-24T23:22:24.155190+00:00,approved,active,Austria,community,osm_venues_at_v4,at_00224,at_venues_batch_v4,2026-05-24T23:22:24.155190+00:00,osm_import_terminal_v4,{},venue
Nachbarn,4 Prager Straße,,,,,https://www.gasthaus-nachbarn.at/,,48.2588311,16.3966247,2026-05-24T23:22:24.155190+00:00,approved,active,Austria,community,osm_venues_at_v4,at_00225,at_venues_batch_v4,2026-05-24T23:22:24.155190+00:00,osm_import_terminal_v4,{},venue
Queens Bar,,,,,,,,48.1735295,16.3904509,2026-05-24T23:22:24.155190+00:00,approved,active,Austria,community,osm_venues_at_v4,at_00226,at_venues_batch_v4,2026-05-24T23:22:24.155190+00:00,osm_import_terminal_v4,{},venue
Kinka Ramen Bar,62 Stumpergasse,,,,+43 676 5040666,https://www.kinkaramenbar.at/,,48.1958498,16.3425224,2026-05-24T23:22:24.155190+00:00,approved,active,Austria,community,osm_venues_at_v4,at_00227,at_venues_batch_v4,2026-05-24T23:22:24.155190+00:00,osm_import_terminal_v4,{},venue
Europa Bar,3 Neuer Markt,,,,,,,48.2061687,16.3710066,2026-05-24T23:22:24.155190+00:00,approved,active,Austria,community,osm_venues_at_v4,at_00228,at_venues_batch_v4,2026-05-24T23:22:24.155190+00:00,osm_import_terminal_v4,{},venue
Bonbonnière Tagesbar,15 Spiegelgasse,,,,,,,48.2067139,16.369867,2026-05-24T23:22:24.155190+00:00,approved,active,Austria,community,osm_venues_at_v4,at_00229,at_venues_batch_v4,2026-05-24T23:22:24.155190+00:00,osm_import_terminal_v4,{},venue
escape bar and lounge,,,,,,,,48.177744,16.3793241,2026-05-24T23:22:24.155190+00:00,approved,active,Austria,community,osm_venues_at_v4,at_00230,at_venues_batch_v4,2026-05-24T23:22:24.155190+00:00,osm_import_terminal_v4,{},venue
Bar Francis,18-20/27 Weihburggasse,,,,+43 677 64995077,https://www.cocktail-bistro-bar-francis.com/,,48.2058461,16.3746332,2026-05-24T23:22:24.155190+00:00,approved,active,Austria,community,osm_venues_at_v4,at_00231,at_venues_batch_v4,2026-05-24T23:22:24.155190+00:00,osm_import_terminal_v4,{},venue
Rauwolf Rosthaus Brewbar,42-48 Mariahilfer Straße,,,,+436602275052,https://rauwolf-coffee.at/,,48.2000157,16.3535126,2026-05-24T23:22:24.155190+00:00,approved,active,Austria,community,osm_venues_at_v4,at_00232,at_venues_batch_v4,2026-05-24T23:22:24.155190+00:00,osm_import_terminal_v4,{},venue
Café-Pub Holzi,,,,,,,,48.1975835,16.299614,2026-05-24T23:22:24.155190+00:00,approved,active,Austria,community,osm_venues_at_v4,at_00233,at_venues_batch_v4,2026-05-24T23:22:24.155190+00:00,osm_import_terminal_v4,{},venue
Italien Bar & Restaurant,,,,,,,,48.2422306,16.4334409,2026-05-24T23:22:24.155190+00:00,approved,active,Austria,community,osm_venues_at_v4,at_00234,at_venues_batch_v4,2026-05-24T23:22:24.155190+00:00,osm_import_terminal_v4,{},venue
Boba Bar,,,,,,,,48.242045,16.4333149,2026-05-24T23:22:24.155190+00:00,approved,active,Austria,community,osm_venues_at_v4,at_00235,at_venues_batch_v4,2026-05-24T23:22:24.155190+00:00,osm_import_terminal_v4,{},venue
Cuba Bar,,,,,,,,48.2315643,16.3684694,2026-05-24T23:22:24.155190+00:00,approved,active,Austria,community,osm_venues_at_v4,at_00236,at_venues_batch_v4,2026-05-24T23:22:24.155190+00:00,osm_import_terminal_v4,{},venue
Bao Bar,30 Operngasse,,,1040,,https://www.baobar.at/,,48.1979492,16.3658599,2026-05-24T23:22:24.155190+00:00,approved,active,Austria,community,osm_venues_at_v4,at_00237,at_venues_batch_v4,2026-05-24T23:22:24.155190+00:00,osm_import_terminal_v4,{},venue
G5 Live Musik Bar,217,Wien,,1190,+436509915513,https://www.g5musicgroup.at/g5livemusicbar/,,48.2358221,16.3562271,2026-05-24T23:22:24.155190+00:00,approved,active,Austria,community,osm_venues_at_v4,at_00238,at_venues_batch_v4,2026-05-24T23:22:24.155190+00:00,osm_import_terminal_v4,{},venue
rosebar centrala,5 Rauscherstraße,Wien,,1200,+43 664 933 51678,https://www.centrala.at/,,48.2305094,16.3761181,2026-05-24T23:22:24.155190+00:00,approved,active,Austria,community,osm_venues_at_v4,at_00239,at_venues_batch_v4,2026-05-24T23:22:24.155190+00:00,osm_import_terminal_v4,{},venue
SELLENY'S Bar,1 Am Stadtpark,Wien,,1030,+43 664 825 83 17,https://sellenys-bar.at/,,48.2063199,16.3831186,2026-05-24T23:22:24.155190+00:00,approved,active,Austria,community,osm_venues_at_v4,at_00240,at_venues_batch_v4,2026-05-24T23:22:24.155190+00:00,osm_import_terminal_v4,{},venue
Needle Vinyl Bar,8 Barnabitengasse,,,1060,,https://needlevinylbar.com,,48.1983874,16.35417,2026-05-24T23:22:24.155190+00:00,approved,active,Austria,community,osm_venues_at_v4,at_00241,at_venues_batch_v4,2026-05-24T23:22:24.155190+00:00,osm_import_terminal_v4,{},venue
Donnersmarkt Restaurant & Bar,,,,,,,,48.204272,16.3770095,2026-05-24T23:22:24.155190+00:00,approved,active,Austria,community,osm_venues_at_v4,at_00242,at_venues_batch_v4,2026-05-24T23:22:24.155190+00:00,osm_import_terminal_v4,{},venue
Lucy Bar,,,,,,https://lucybar.at/,,48.1857106,16.3836959,2026-05-24T23:22:24.155190+00:00,approved,active,Austria,community,osm_venues_at_v4,at_00243,at_venues_batch_v4,2026-05-24T23:22:24.155190+00:00,osm_import_terminal_v4,{},venue
Mirabell Coffee Bar,,,,,,,,47.804684,13.0439311,2026-05-24T23:22:24.155190+00:00,approved,active,Austria,community,osm_venues_at_v4,at_00244,at_venues_batch_v4,2026-05-24T23:22:24.155190+00:00,osm_import_terminal_v4,{},venue
R-Bar,8 Breitenfurter Straße,,,,,https://r-bar.at/,,48.1683655,16.3195482,2026-05-24T23:22:24.155190+00:00,approved,active,Austria,community,osm_venues_at_v4,at_00245,at_venues_batch_v4,2026-05-24T23:22:24.155190+00:00,osm_import_terminal_v4,{},venue
Sbagliata Affairs X Mama´s Bar,9 Teinfaltstraße,,,,+43 664 5414425,https://linktr.ee/sbagliata.bar,,48.211312,16.3626415,2026-05-24T23:22:24.155190+00:00,approved,active,Austria,community,osm_venues_at_v4,at_00246,at_venues_batch_v4,2026-05-24T23:22:24.155190+00:00,osm_import_terminal_v4,{},venue
Barbecue King,,,,,,,,48.1945435,16.3189678,2026-05-24T23:22:24.155190+00:00,approved,active,Austria,community,osm_venues_at_v4,at_00247,at_venues_batch_v4,2026-05-24T23:22:24.155190+00:00,osm_import_terminal_v4,{},venue
Soulmate Bar,60 Siebensterngasse,Wien,,1070,+43 660 1208906,https://soulmatebar.com,,48.2022391,16.3494328,2026-05-24T23:22:24.155190+00:00,approved,active,Austria,community,osm_venues_at_v4,at_00248,at_venues_batch_v4,2026-05-24T23:22:24.155190+00:00,osm_import_terminal_v4,{},venue
Admiral Sportsbar,,,,,,https://www.admiral.ag/filialen/admiral-filialen/#!/l/wien/am-hauptbahnhof-1/2306089,,48.1859712,16.376039,2026-05-24T23:22:24.155190+00:00,approved,active,Austria,community,osm_venues_at_v4,at_00249,at_venues_batch_v4,2026-05-24T23:22:24.155190+00:00,osm_import_terminal_v4,{},venue
Moons Rooftop Bar,,,,,,,,48.1876329,16.3778141,2026-05-24T23:22:24.155190+00:00,approved,active,Austria,community,osm_venues_at_v4,at_00250,at_venues_batch_v4,2026-05-24T23:22:24.155190+00:00,osm_import_terminal_v4,{},venue
daylounge café.bistro.bar,,,,,+43 1 7154984,https://www.daylounge.at/,,48.2058657,16.3847116,2026-05-24T23:22:24.155190+00:00,approved,active,Austria,community,osm_venues_at_v4,at_00251,at_venues_batch_v4,2026-05-24T23:22:24.155190+00:00,osm_import_terminal_v4,{},venue
Mariatrink Rooftop Bar,28 Windmühlgasse,Wien,,1060,,,,48.1983987,16.3552801,2026-05-24T23:22:24.155190+00:00,approved,active,Austria,community,osm_venues_at_v4,at_00252,at_venues_batch_v4,2026-05-24T23:22:24.155190+00:00,osm_import_terminal_v4,{},venue
Vita Napoletana Pizzabar,11 Wienerbergstraße,,,1100,+436764479644,https://vitanapoletana.at,,48.1679203,16.3457918,2026-05-24T23:22:24.155190+00:00,approved,active,Austria,community,osm_venues_at_v4,at_00253,at_venues_batch_v4,2026-05-24T23:22:24.155190+00:00,osm_import_terminal_v4,{},venue
Bar Roque,,,,,,,,47.815083,13.0434838,2026-05-24T23:22:24.155190+00:00,approved,active,Austria,community,osm_venues_at_v4,at_00254,at_venues_batch_v4,2026-05-24T23:22:24.155190+00:00,osm_import_terminal_v4,{},venue
Shahi darbar,,,,,,,,48.2103579,16.3331797,2026-05-24T23:22:24.155190+00:00,approved,active,Austria,community,osm_venues_at_v4,at_00255,at_venues_batch_v4,2026-05-24T23:22:24.155190+00:00,osm_import_terminal_v4,{},venue
Atrium Lounge & Bar,,,,,,,,48.216923,16.4086961,2026-05-24T23:22:24.155190+00:00,approved,active,Austria,community,osm_venues_at_v4,at_00256,at_venues_batch_v4,2026-05-24T23:22:24.155190+00:00,osm_import_terminal_v4,{},venue
City Bar,19 Tiefer Graben,Wien,,1010,,http://citybar.at/index.htm,,48.2124979,16.3680789,2026-05-24T23:22:24.155190+00:00,approved,active,Austria,community,osm_venues_at_v4,at_00257,at_venues_batch_v4,2026-05-24T23:22:24.155190+00:00,osm_import_terminal_v4,{},venue
Hundertwasser Village Cafe Bar,,,,,,,,48.207957,16.394171,2026-05-24T23:22:24.155190+00:00,approved,active,Austria,community,osm_venues_at_v4,at_00258,at_venues_batch_v4,2026-05-24T23:22:24.155190+00:00,osm_import_terminal_v4,{},venue
Seven Botanicals Bar&Kitchen,16 Wagramer Straße,,,,+43 1 95507151220,https://www.sevenbotanicals.com/,,48.2340902,16.4210166,2026-05-24T23:22:24.155190+00:00,approved,active,Austria,community,osm_venues_at_v4,at_00259,at_venues_batch_v4,2026-05-24T23:22:24.155190+00:00,osm_import_terminal_v4,{},venue
Drogerie Bar/Café,8 Pfauengasse,,,,,,,48.2004241,16.3590873,2026-05-24T23:22:24.155190+00:00,approved,active,Austria,community,osm_venues_at_v4,at_00260,at_venues_batch_v4,2026-05-24T23:22:24.155190+00:00,osm_import_terminal_v4,{},venue
Mato's Pub,2 Brauergasse,,,,,,,48.1952671,16.3506607,2026-05-24T23:22:24.155190+00:00,approved,active,Austria,community,osm_venues_at_v4,at_00261,at_venues_batch_v4,2026-05-24T23:22:24.155190+00:00,osm_import_terminal_v4,{},venue
INKA Bar & Food,,,,,,https://pier22.inka.wien/,,48.2316495,16.4055291,2026-05-24T23:22:24.155190+00:00,approved,active,Austria,community,osm_venues_at_v4,at_00262,at_venues_batch_v4,2026-05-24T23:22:24.155190+00:00,osm_import_terminal_v4,{},venue
Bar Lounge All'Italiana,,,,,+43 1 7107864,https://www.allitaliana.at,,48.2009237,16.3931606,2026-05-24T23:22:24.155190+00:00,approved,active,Austria,community,osm_venues_at_v4,at_00263,at_venues_batch_v4,2026-05-24T23:22:24.155190+00:00,osm_import_terminal_v4,{},venue
Viola Pub,1 Horrplatz,Wien,,1100,,https://fk-austria.at/arena/viola-pub,,48.1619983,16.388278,2026-05-24T23:22:24.155190+00:00,approved,active,Austria,community,osm_venues_at_v4,at_00264,at_venues_batch_v4,2026-05-24T23:22:24.155190+00:00,osm_import_terminal_v4,{},venue
AUX Bar,30B Argentinierstraße,Wien,,1040,,https://www.funkhaus.wien/en/gastronomy,,48.1949449,16.3730194,2026-05-24T23:22:24.155190+00:00,approved,active,Austria,community,osm_venues_at_v4,at_00265,at_venues_batch_v4,2026-05-24T23:22:24.155190+00:00,osm_import_terminal_v4,{},venue
District 22 Rooftop Bar,7 Dr.-Adolf-Schärf-Platz,,,1220,,,,48.2440185,16.4331743,2026-05-24T23:22:24.155190+00:00,approved,active,Austria,community,osm_venues_at_v4,at_00266,at_venues_batch_v4,2026-05-24T23:22:24.155190+00:00,osm_import_terminal_v4,{},venue
XV CAFE BAR,205 Mariahilfer Straße,Wien,,1150,,,,48.1913239,16.3288202,2026-05-24T23:22:24.155190+00:00,approved,active,Austria,community,osm_venues_at_v4,at_00267,at_venues_batch_v4,2026-05-24T23:22:24.155190+00:00,osm_import_terminal_v4,{},venue
Sky Bar Cool Mama,1 Josef-Brandstätter-Straße,Salzburg,,5020,,https://www.coolmama.com/,,47.8274904,13.0241941,2026-05-24T23:22:24.155190+00:00,approved,active,Austria,community,osm_venues_at_v4,at_00268,at_venues_batch_v4,2026-05-24T23:22:24.155190+00:00,osm_import_terminal_v4,{},venue
Shh Listening Bar,18 Wiedner Hauptstraße,,,,,,,48.1968278,16.3672272,2026-05-24T23:22:24.155190+00:00,approved,active,Austria,community,osm_venues_at_v4,at_00269,at_venues_batch_v4,2026-05-24T23:22:24.155190+00:00,osm_import_terminal_v4,{},venue
PSV Lounge - Polizeisportverein Wien,2 Dampfschiffhaufen,Wien,,1220,+43 1 2630943,https://www.psv-lounge.at/,,48.2227175,16.429856,2026-05-24T23:22:24.155190+00:00,approved,active,Austria,community,osm_venues_at_v4,at_00270,at_venues_batch_v4,2026-05-24T23:22:24.155190+00:00,osm_import_terminal_v4,{},venue
Die Bar,3 Dr.-Franz-Rehrl-Platz,Salzburg,,5020,+43 662 642759,http://www.die-bar.net/,,47.7996532,13.0545111,2026-05-24T23:22:24.155190+00:00,approved,active,Austria,community,osm_venues_at_v4,at_00271,at_venues_batch_v4,2026-05-24T23:22:24.155190+00:00,osm_import_terminal_v4,{},venue
Racketsport Academy Grill House,,,,,,,,48.1757425,16.3888905,2026-05-24T23:22:24.155190+00:00,approved,active,Austria,community,osm_venues_at_v4,at_00272,at_venues_batch_v4,2026-05-24T23:22:24.155190+00:00,osm_import_terminal_v4,{},venue
Absolut Restaurant & Bar,179 Altmannsdorfer Straße,Wien,,1230,+43 1 2125684,,,48.1522025,16.3208732,2026-05-24T23:22:24.155190+00:00,approved,active,Austria,community,osm_venues_at_v4,at_00273,at_venues_batch_v4,2026-05-24T23:22:24.155190+00:00,osm_import_terminal_v4,{},venue
Strandbar Herrmann,Herrmannpark,Wien,,,,https://www.strandbarherrmann.at/,,48.2119148,16.385765,2026-05-24T23:22:24.155190+00:00,approved,active,Austria,community,osm_venues_at_v4,at_00274,at_venues_batch_v4,2026-05-24T23:22:24.155190+00:00,osm_import_terminal_v4,{},venue
Sportkantine Deniz Bank Arena,1 Heuberggstättenstraße,Wien,,1100,,,,48.1593199,16.3675755,2026-05-24T23:22:24.155190+00:00,approved,active,Austria,community,osm_venues_at_v4,at_00275,at_venues_batch_v4,2026-05-24T23:22:24.155190+00:00,osm_import_terminal_v4,{},venue
Beachbar,,,,,,https://sportbox.cc/unternehmen/sportinsel,,48.243955,16.3913978,2026-05-24T23:22:24.155190+00:00,approved,active,Austria,community,osm_venues_at_v4,at_00276,at_venues_batch_v4,2026-05-24T23:22:24.155190+00:00,osm_import_terminal_v4,{},venue
Café Bar Bier & Zeit,,,,,,,,48.2173523,16.3922489,2026-05-24T23:22:24.155190+00:00,approved,active,Austria,community,osm_venues_at_v4,at_00277,at_venues_batch_v4,2026-05-24T23:22:24.155190+00:00,osm_import_terminal_v4,{},venue
Kate's Cafe Bar,Praterstern SH9,Wien,,,+4312125066,http://kates.at,,48.2174088,16.3922574,2026-05-24T23:22:24.155190+00:00,approved,active,Austria,community,osm_venues_at_v4,at_00278,at_venues_batch_v4,2026-05-24T23:22:24.155190+00:00,osm_import_terminal_v4,{},venue
Hendricks Sportsbar,,,,,,https://www.hendricks.at/,,48.2181788,16.3925453,2026-05-24T23:22:24.155190+00:00,approved,active,Austria,community,osm_venues_at_v4,at_00279,at_venues_batch_v4,2026-05-24T23:22:24.155190+00:00,osm_import_terminal_v4,{},venue
