venue_name,address,city,state,zip_code,phone,website,sports_supported,latitude,longitude,approved_at,photo_review_status,admin_status,country,origin_type,community_source,community_source_id,community_seed_batch,community_seeded_at,community_curated_by,community_provenance,place_type
Sky Club Bar,,,,,,,,41.3224057,19.8179435,2026-05-25T00:00:23.182147+00:00,approved,active,Albania,community,osm_venues_al_v4,al_00001,al_venues_batch_v4,2026-05-25T00:00:23.182147+00:00,osm_import_terminal_v4,{},venue
Bar FIORENTINA,,,,,,,,41.3244688,19.4460208,2026-05-25T00:00:23.182147+00:00,approved,active,Albania,community,osm_venues_al_v4,al_00002,al_venues_batch_v4,2026-05-25T00:00:23.182147+00:00,osm_import_terminal_v4,{},venue
Bar FLAMURTARI,,,,,,,,41.324459,19.4485332,2026-05-25T00:00:23.182147+00:00,approved,active,Albania,community,osm_venues_al_v4,al_00003,al_venues_batch_v4,2026-05-25T00:00:23.182147+00:00,osm_import_terminal_v4,{},venue
Chicago Bar,,,,,,,,42.0671716,19.5143504,2026-05-25T00:00:23.182147+00:00,approved,active,Albania,community,osm_venues_al_v4,al_00004,al_venues_batch_v4,2026-05-25T00:00:23.182147+00:00,osm_import_terminal_v4,{},venue
Bar Angel,Rruga e Kavajës,Tirana,,,,,,41.3235537,19.7954171,2026-05-25T00:00:23.182147+00:00,approved,active,Albania,community,osm_venues_al_v4,al_00005,al_venues_batch_v4,2026-05-25T00:00:23.182147+00:00,osm_import_terminal_v4,{},venue
Bar Dollia,,,,,,,,41.3235038,19.7938006,2026-05-25T00:00:23.182147+00:00,approved,active,Albania,community,osm_venues_al_v4,al_00006,al_venues_batch_v4,2026-05-25T00:00:23.182147+00:00,osm_import_terminal_v4,{},venue
Irish Pub,1 Македонски Просветители,Охрид,,6000,,,,41.1150114,20.8006878,2026-05-25T00:00:23.182147+00:00,approved,active,Albania,community,osm_venues_al_v4,al_00007,al_venues_batch_v4,2026-05-25T00:00:23.182147+00:00,osm_import_terminal_v4,{},venue
unique bar fitnes,Rruga Rexhep Shala,Tiranë,,1052,,,,41.3238631,19.7814967,2026-05-25T00:00:23.182147+00:00,approved,active,Albania,community,osm_venues_al_v4,al_00008,al_venues_batch_v4,2026-05-25T00:00:23.182147+00:00,osm_import_terminal_v4,{},venue
Bar Kafe,,,,,,,,42.0663839,19.5180298,2026-05-25T00:00:23.182147+00:00,approved,active,Albania,community,osm_venues_al_v4,al_00009,al_venues_batch_v4,2026-05-25T00:00:23.182147+00:00,osm_import_terminal_v4,{},venue
Bar Bufe,,,,,,,,42.0657629,19.5191844,2026-05-25T00:00:23.182147+00:00,approved,active,Albania,community,osm_venues_al_v4,al_00010,al_venues_batch_v4,2026-05-25T00:00:23.182147+00:00,osm_import_terminal_v4,{},venue
Baste Sportive,,,,,,,,42.068359,19.5157344,2026-05-25T00:00:23.182147+00:00,approved,active,Albania,community,osm_venues_al_v4,al_00011,al_venues_batch_v4,2026-05-25T00:00:23.182147+00:00,osm_import_terminal_v4,{},venue
Bar Kafe,,,,,,,,42.0618838,19.5061388,2026-05-25T00:00:23.182147+00:00,approved,active,Albania,community,osm_venues_al_v4,al_00012,al_venues_batch_v4,2026-05-25T00:00:23.182147+00:00,osm_import_terminal_v4,{},venue
Baste Sportive,,,,,,,,42.0665583,19.5125299,2026-05-25T00:00:23.182147+00:00,approved,active,Albania,community,osm_venues_al_v4,al_00013,al_venues_batch_v4,2026-05-25T00:00:23.182147+00:00,osm_import_terminal_v4,{},venue
Bar Chanel,,Tirana,,,,,,41.3156214,19.8070368,2026-05-25T00:00:23.182147+00:00,approved,active,Albania,community,osm_venues_al_v4,al_00014,al_venues_batch_v4,2026-05-25T00:00:23.182147+00:00,osm_import_terminal_v4,{},venue
Bar Sophie,Rruga Medar Shtylla,Tirana,,,,,,41.3155618,19.8065027,2026-05-25T00:00:23.182147+00:00,approved,active,Albania,community,osm_venues_al_v4,al_00015,al_venues_batch_v4,2026-05-25T00:00:23.182147+00:00,osm_import_terminal_v4,{},venue
Bar kafe 01,Rruga Medar Shtylla,Tirana,,,,,,41.3162995,19.8068663,2026-05-25T00:00:23.182147+00:00,approved,active,Albania,community,osm_venues_al_v4,al_00016,al_venues_batch_v4,2026-05-25T00:00:23.182147+00:00,osm_import_terminal_v4,{},venue
Bar Coffe,,,,,,,,41.315167,19.7881711,2026-05-25T00:00:23.182147+00:00,approved,active,Albania,community,osm_venues_al_v4,al_00017,al_venues_batch_v4,2026-05-25T00:00:23.182147+00:00,osm_import_terminal_v4,{},venue
Bar Coffe Jari,Rruga Mustafa Haska,Tirana,,,,,,41.318615,19.7894776,2026-05-25T00:00:23.182147+00:00,approved,active,Albania,community,osm_venues_al_v4,al_00018,al_venues_batch_v4,2026-05-25T00:00:23.182147+00:00,osm_import_terminal_v4,{},venue
Safari Bar,,,,,,,,41.3191729,19.8133351,2026-05-25T00:00:23.182147+00:00,approved,active,Albania,community,osm_venues_al_v4,al_00019,al_venues_batch_v4,2026-05-25T00:00:23.182147+00:00,osm_import_terminal_v4,{},venue
Bar Emi,,,,,,,,41.318809,19.8129809,2026-05-25T00:00:23.182147+00:00,approved,active,Albania,community,osm_venues_al_v4,al_00020,al_venues_batch_v4,2026-05-25T00:00:23.182147+00:00,osm_import_terminal_v4,{},venue
Lottosport,,,,,,,,41.3195428,19.8278858,2026-05-25T00:00:23.182147+00:00,approved,active,Albania,community,osm_venues_al_v4,al_00021,al_venues_batch_v4,2026-05-25T00:00:23.182147+00:00,osm_import_terminal_v4,{},venue
Bar Amerika,,,,,,,,41.3198342,19.8278454,2026-05-25T00:00:23.182147+00:00,approved,active,Albania,community,osm_venues_al_v4,al_00022,al_venues_batch_v4,2026-05-25T00:00:23.182147+00:00,osm_import_terminal_v4,{},venue
Xha Barka,,,,,,,,41.3200952,19.8068387,2026-05-25T00:00:23.182147+00:00,approved,active,Albania,community,osm_venues_al_v4,al_00023,al_venues_batch_v4,2026-05-25T00:00:23.182147+00:00,osm_import_terminal_v4,{},venue
Bar Sport,Rruga 28 Nëntori,Shkoder,,,,,,42.0660801,19.5133476,2026-05-25T00:00:23.182147+00:00,approved,active,Albania,community,osm_venues_al_v4,al_00024,al_venues_batch_v4,2026-05-25T00:00:23.182147+00:00,osm_import_terminal_v4,{},venue
Happy Day Bar,,,,,,,,41.3134675,19.8162729,2026-05-25T00:00:23.182147+00:00,approved,active,Albania,community,osm_venues_al_v4,al_00025,al_venues_batch_v4,2026-05-25T00:00:23.182147+00:00,osm_import_terminal_v4,{},venue
City Bar,Papa Gjon Pali II,Tirana,,,,,,41.3199901,19.8235301,2026-05-25T00:00:23.182147+00:00,approved,active,Albania,community,osm_venues_al_v4,al_00026,al_venues_batch_v4,2026-05-25T00:00:23.182147+00:00,osm_import_terminal_v4,{},venue
Bar Peroni,Drago Siliqi,Tirana,,,,,,41.3225737,19.8305841,2026-05-25T00:00:23.182147+00:00,approved,active,Albania,community,osm_venues_al_v4,al_00027,al_venues_batch_v4,2026-05-25T00:00:23.182147+00:00,osm_import_terminal_v4,{},venue
OK Bar,Rruga Sami Frashëri,Tirana,,,,,,41.3233458,19.8133215,2026-05-25T00:00:23.182147+00:00,approved,active,Albania,community,osm_venues_al_v4,al_00028,al_venues_batch_v4,2026-05-25T00:00:23.182147+00:00,osm_import_terminal_v4,{},venue
PIANO BAR,,,,,,,,42.0699168,19.5155855,2026-05-25T00:00:23.182147+00:00,approved,active,Albania,community,osm_venues_al_v4,al_00029,al_venues_batch_v4,2026-05-25T00:00:23.182147+00:00,osm_import_terminal_v4,{},venue
SCUTARI - Wine Bar and More ...,,,,,+355689004665;+355694055121,,,42.0693818,19.5148651,2026-05-25T00:00:23.182147+00:00,approved,active,Albania,community,osm_venues_al_v4,al_00030,al_venues_batch_v4,2026-05-25T00:00:23.182147+00:00,osm_import_terminal_v4,{},venue
Bar Cafe,,,,,,,,42.0714077,19.5269176,2026-05-25T00:00:23.182147+00:00,approved,active,Albania,community,osm_venues_al_v4,al_00031,al_venues_batch_v4,2026-05-25T00:00:23.182147+00:00,osm_import_terminal_v4,{},venue
BAR,,,,,,,,42.0358869,19.4993768,2026-05-25T00:00:23.182147+00:00,approved,active,Albania,community,osm_venues_al_v4,al_00032,al_venues_batch_v4,2026-05-25T00:00:23.182147+00:00,osm_import_terminal_v4,{},venue
Bar Kafe R'on,,,,,,,,42.0548492,19.4992917,2026-05-25T00:00:23.182147+00:00,approved,active,Albania,community,osm_venues_al_v4,al_00033,al_venues_batch_v4,2026-05-25T00:00:23.182147+00:00,osm_import_terminal_v4,{},venue
BAR KAFE,,,,,,,,42.0559178,19.4995592,2026-05-25T00:00:23.182147+00:00,approved,active,Albania,community,osm_venues_al_v4,al_00034,al_venues_batch_v4,2026-05-25T00:00:23.182147+00:00,osm_import_terminal_v4,{},venue
BAR KAFE,,,,,,,,42.0561475,19.499615,2026-05-25T00:00:23.182147+00:00,approved,active,Albania,community,osm_venues_al_v4,al_00035,al_venues_batch_v4,2026-05-25T00:00:23.182147+00:00,osm_import_terminal_v4,{},venue
BAR KAFE,,,,,,,,42.0617564,19.5011745,2026-05-25T00:00:23.182147+00:00,approved,active,Albania,community,osm_venues_al_v4,al_00036,al_venues_batch_v4,2026-05-25T00:00:23.182147+00:00,osm_import_terminal_v4,{},venue
BAR KAFE,,,,,,,,42.062099,19.5012156,2026-05-25T00:00:23.182147+00:00,approved,active,Albania,community,osm_venues_al_v4,al_00037,al_venues_batch_v4,2026-05-25T00:00:23.182147+00:00,osm_import_terminal_v4,{},venue
"""LIVE"" Baste Sportive",,,,,,,,42.077796,19.5209803,2026-05-25T00:00:23.182147+00:00,approved,active,Albania,community,osm_venues_al_v4,al_00038,al_venues_batch_v4,2026-05-25T00:00:23.182147+00:00,osm_import_terminal_v4,{},venue
Bar Kafe,,,,,,,,42.0779285,19.5212019,2026-05-25T00:00:23.182147+00:00,approved,active,Albania,community,osm_venues_al_v4,al_00039,al_venues_batch_v4,2026-05-25T00:00:23.182147+00:00,osm_import_terminal_v4,{},venue
Bar Kafe,,,,,,,,42.0758936,19.517141,2026-05-25T00:00:23.182147+00:00,approved,active,Albania,community,osm_venues_al_v4,al_00040,al_venues_batch_v4,2026-05-25T00:00:23.182147+00:00,osm_import_terminal_v4,{},venue
Bar Kafe,,,,,,,,42.0562448,19.5010496,2026-05-25T00:00:23.182147+00:00,approved,active,Albania,community,osm_venues_al_v4,al_00041,al_venues_batch_v4,2026-05-25T00:00:23.182147+00:00,osm_import_terminal_v4,{},venue
Bar Kafe - Pasticeri,,,,,,,,42.0708726,19.5074097,2026-05-25T00:00:23.182147+00:00,approved,active,Albania,community,osm_venues_al_v4,al_00042,al_venues_batch_v4,2026-05-25T00:00:23.182147+00:00,osm_import_terminal_v4,{},venue
Bar Kafe - TOP BAST LIVE,,,,,,,,42.0711051,19.5070565,2026-05-25T00:00:23.182147+00:00,approved,active,Albania,community,osm_venues_al_v4,al_00043,al_venues_batch_v4,2026-05-25T00:00:23.182147+00:00,osm_import_terminal_v4,{},venue
Bar Kafe Lami,Rruga Revolucioni Antikomunist Hungarez,,,,+355672833106,,,42.0612235,19.5255878,2026-05-25T00:00:23.182147+00:00,approved,active,Albania,community,osm_venues_al_v4,al_00044,al_venues_batch_v4,2026-05-25T00:00:23.182147+00:00,osm_import_terminal_v4,{},venue
Bar Kafe,,,,,,,,42.0612338,19.5253018,2026-05-25T00:00:23.182147+00:00,approved,active,Albania,community,osm_venues_al_v4,al_00045,al_venues_batch_v4,2026-05-25T00:00:23.182147+00:00,osm_import_terminal_v4,{},venue
Bar Kafe,,,,,,,,42.0615577,19.5236123,2026-05-25T00:00:23.182147+00:00,approved,active,Albania,community,osm_venues_al_v4,al_00046,al_venues_batch_v4,2026-05-25T00:00:23.182147+00:00,osm_import_terminal_v4,{},venue
Bar Kafe,,,,,,,,42.0604284,19.5020842,2026-05-25T00:00:23.182147+00:00,approved,active,Albania,community,osm_venues_al_v4,al_00047,al_venues_batch_v4,2026-05-25T00:00:23.182147+00:00,osm_import_terminal_v4,{},venue
Bar Kafe,,,,,,,,42.0605343,19.5021529,2026-05-25T00:00:23.182147+00:00,approved,active,Albania,community,osm_venues_al_v4,al_00048,al_venues_batch_v4,2026-05-25T00:00:23.182147+00:00,osm_import_terminal_v4,{},venue
"Bar Kafe ""LIVE""",,,,,,,,42.0542213,19.5229576,2026-05-25T00:00:23.182147+00:00,approved,active,Albania,community,osm_venues_al_v4,al_00049,al_venues_batch_v4,2026-05-25T00:00:23.182147+00:00,osm_import_terminal_v4,{},venue
"Bar Kafe ""Ylli""",,,,,,,,42.0565219,19.5241196,2026-05-25T00:00:23.182147+00:00,approved,active,Albania,community,osm_venues_al_v4,al_00050,al_venues_batch_v4,2026-05-25T00:00:23.182147+00:00,osm_import_terminal_v4,{},venue
Chelsea Eccobet Bar,,,,,,,,42.0640305,19.517215,2026-05-25T00:00:23.182147+00:00,approved,active,Albania,community,osm_venues_al_v4,al_00051,al_venues_batch_v4,2026-05-25T00:00:23.182147+00:00,osm_import_terminal_v4,{},venue
Bar Kafe,,Shkoder,,4001,,,,42.0641937,19.5132681,2026-05-25T00:00:23.182147+00:00,approved,active,Albania,community,osm_venues_al_v4,al_00052,al_venues_batch_v4,2026-05-25T00:00:23.182147+00:00,osm_import_terminal_v4,{},venue
Bar Restaurant,,Shkoder,,4001,,,,42.0643968,19.513104,2026-05-25T00:00:23.182147+00:00,approved,active,Albania,community,osm_venues_al_v4,al_00053,al_venues_batch_v4,2026-05-25T00:00:23.182147+00:00,osm_import_terminal_v4,{},venue
Lobby Bar,,Shkodër,,4001,,,,42.0672691,19.5108219,2026-05-25T00:00:23.182147+00:00,approved,active,Albania,community,osm_venues_al_v4,al_00054,al_venues_batch_v4,2026-05-25T00:00:23.182147+00:00,osm_import_terminal_v4,{},venue
Bar Kafe,,Shkodër,,4001,,,,42.0669632,19.5106015,2026-05-25T00:00:23.182147+00:00,approved,active,Albania,community,osm_venues_al_v4,al_00055,al_venues_batch_v4,2026-05-25T00:00:23.182147+00:00,osm_import_terminal_v4,{},venue
Bar Kafe,,Shkodër,,4001,,,,42.0670619,19.5107218,2026-05-25T00:00:23.182147+00:00,approved,active,Albania,community,osm_venues_al_v4,al_00056,al_venues_batch_v4,2026-05-25T00:00:23.182147+00:00,osm_import_terminal_v4,{},venue
Bar Kafe,,,,,,,,42.0665629,19.5178874,2026-05-25T00:00:23.182147+00:00,approved,active,Albania,community,osm_venues_al_v4,al_00057,al_venues_batch_v4,2026-05-25T00:00:23.182147+00:00,osm_import_terminal_v4,{},venue
Bar Kafe,,,,,,,,42.0686482,19.5096779,2026-05-25T00:00:23.182147+00:00,approved,active,Albania,community,osm_venues_al_v4,al_00058,al_venues_batch_v4,2026-05-25T00:00:23.182147+00:00,osm_import_terminal_v4,{},venue
Bar Kafe - Mëngjezore,,Shkodër,,4001,,,,42.0653992,19.5082512,2026-05-25T00:00:23.182147+00:00,approved,active,Albania,community,osm_venues_al_v4,al_00059,al_venues_batch_v4,2026-05-25T00:00:23.182147+00:00,osm_import_terminal_v4,{},venue
Bar Kafe Restaurant,,Shkodër,,4001,,,,42.0666678,19.5073939,2026-05-25T00:00:23.182147+00:00,approved,active,Albania,community,osm_venues_al_v4,al_00060,al_venues_batch_v4,2026-05-25T00:00:23.182147+00:00,osm_import_terminal_v4,{},venue
Bar Kafe,,Shkodër,,4001,,,,42.0666102,19.5073249,2026-05-25T00:00:23.182147+00:00,approved,active,Albania,community,osm_venues_al_v4,al_00061,al_venues_batch_v4,2026-05-25T00:00:23.182147+00:00,osm_import_terminal_v4,{},venue
Internet - Bar Cafe,,Shkodër,,4001,,,,42.0665918,19.5072468,2026-05-25T00:00:23.182147+00:00,approved,active,Albania,community,osm_venues_al_v4,al_00062,al_venues_batch_v4,2026-05-25T00:00:23.182147+00:00,osm_import_terminal_v4,{},venue
Bar Kafe,,,,,,,,42.0843027,19.5100556,2026-05-25T00:00:23.182147+00:00,approved,active,Albania,community,osm_venues_al_v4,al_00063,al_venues_batch_v4,2026-05-25T00:00:23.182147+00:00,osm_import_terminal_v4,{},venue
Bar Kafe - Ulqin,,,,,,,,42.0761075,19.5157737,2026-05-25T00:00:23.182147+00:00,approved,active,Albania,community,osm_venues_al_v4,al_00064,al_venues_batch_v4,2026-05-25T00:00:23.182147+00:00,osm_import_terminal_v4,{},venue
Bar Kafe TOPBAST,,,,,,,,42.0769946,19.5155388,2026-05-25T00:00:23.182147+00:00,approved,active,Albania,community,osm_venues_al_v4,al_00065,al_venues_batch_v4,2026-05-25T00:00:23.182147+00:00,osm_import_terminal_v4,{},venue
Baste Sportive,,,,,,,,42.0725683,19.5205072,2026-05-25T00:00:23.182147+00:00,approved,active,Albania,community,osm_venues_al_v4,al_00066,al_venues_batch_v4,2026-05-25T00:00:23.182147+00:00,osm_import_terminal_v4,{},venue
Bar Kafe - Bilardo,,,,,,,,42.0724835,19.520445,2026-05-25T00:00:23.182147+00:00,approved,active,Albania,community,osm_venues_al_v4,al_00067,al_venues_batch_v4,2026-05-25T00:00:23.182147+00:00,osm_import_terminal_v4,{},venue
TIRANA Bar,,,,,,,,42.0705401,19.5157771,2026-05-25T00:00:23.182147+00:00,approved,active,Albania,community,osm_venues_al_v4,al_00068,al_venues_batch_v4,2026-05-25T00:00:23.182147+00:00,osm_import_terminal_v4,{},venue
Bar Kafe,,,,,,,,42.0699207,19.5135245,2026-05-25T00:00:23.182147+00:00,approved,active,Albania,community,osm_venues_al_v4,al_00069,al_venues_batch_v4,2026-05-25T00:00:23.182147+00:00,osm_import_terminal_v4,{},venue
"Bar Kafe - ""FLORI""",,,,,,,,42.0745004,19.5146891,2026-05-25T00:00:23.182147+00:00,approved,active,Albania,community,osm_venues_al_v4,al_00070,al_venues_batch_v4,2026-05-25T00:00:23.182147+00:00,osm_import_terminal_v4,{},venue
LottoSport,,,,,,,,42.0693905,19.5111944,2026-05-25T00:00:23.182147+00:00,approved,active,Albania,community,osm_venues_al_v4,al_00071,al_venues_batch_v4,2026-05-25T00:00:23.182147+00:00,osm_import_terminal_v4,{},venue
Bar Kafe Duhani,,,,,,,,42.0742286,19.5152935,2026-05-25T00:00:23.182147+00:00,approved,active,Albania,community,osm_venues_al_v4,al_00072,al_venues_batch_v4,2026-05-25T00:00:23.182147+00:00,osm_import_terminal_v4,{},venue
Bar Kafe,,,,,,,,42.0709491,19.51037,2026-05-25T00:00:23.182147+00:00,approved,active,Albania,community,osm_venues_al_v4,al_00073,al_venues_batch_v4,2026-05-25T00:00:23.182147+00:00,osm_import_terminal_v4,{},venue
Bar Kafe,,Shkodër,,4001,,,,42.0685444,19.5079522,2026-05-25T00:00:23.182147+00:00,approved,active,Albania,community,osm_venues_al_v4,al_00074,al_venues_batch_v4,2026-05-25T00:00:23.182147+00:00,osm_import_terminal_v4,{},venue
"Bar Kafe ""eccobet""",,,,,,,,42.0644492,19.502295,2026-05-25T00:00:23.182147+00:00,approved,active,Albania,community,osm_venues_al_v4,al_00075,al_venues_batch_v4,2026-05-25T00:00:23.182147+00:00,osm_import_terminal_v4,{},venue
"Bar Kafe ""MAR""",,,,,,,,42.060294,19.5028833,2026-05-25T00:00:23.182147+00:00,approved,active,Albania,community,osm_venues_al_v4,al_00076,al_venues_batch_v4,2026-05-25T00:00:23.182147+00:00,osm_import_terminal_v4,{},venue
"Bar Kafe ""eccobet""",,,,,,,,42.0608567,19.5047617,2026-05-25T00:00:23.182147+00:00,approved,active,Albania,community,osm_venues_al_v4,al_00077,al_venues_batch_v4,2026-05-25T00:00:23.182147+00:00,osm_import_terminal_v4,{},venue
Bar Kafe,,,,,,,,42.0582196,19.5028042,2026-05-25T00:00:23.182147+00:00,approved,active,Albania,community,osm_venues_al_v4,al_00078,al_venues_batch_v4,2026-05-25T00:00:23.182147+00:00,osm_import_terminal_v4,{},venue
Bar Kafe,,,,,,,,42.0584118,19.5029563,2026-05-25T00:00:23.182147+00:00,approved,active,Albania,community,osm_venues_al_v4,al_00079,al_venues_batch_v4,2026-05-25T00:00:23.182147+00:00,osm_import_terminal_v4,{},venue
Bar Kafe,,,,,,,,42.0588418,19.5033483,2026-05-25T00:00:23.182147+00:00,approved,active,Albania,community,osm_venues_al_v4,al_00080,al_venues_batch_v4,2026-05-25T00:00:23.182147+00:00,osm_import_terminal_v4,{},venue
Bar Kafe,,,,,,,,42.0591884,19.5036544,2026-05-25T00:00:23.182147+00:00,approved,active,Albania,community,osm_venues_al_v4,al_00081,al_venues_batch_v4,2026-05-25T00:00:23.182147+00:00,osm_import_terminal_v4,{},venue
Bar Kafe,,,,,,,,42.0593925,19.5033545,2026-05-25T00:00:23.182147+00:00,approved,active,Albania,community,osm_venues_al_v4,al_00082,al_venues_batch_v4,2026-05-25T00:00:23.182147+00:00,osm_import_terminal_v4,{},venue
Bar Kafe,,,,,,,,42.0605507,19.5049797,2026-05-25T00:00:23.182147+00:00,approved,active,Albania,community,osm_venues_al_v4,al_00083,al_venues_batch_v4,2026-05-25T00:00:23.182147+00:00,osm_import_terminal_v4,{},venue
Bar Kafe,,,,,,,,42.0609419,19.5048389,2026-05-25T00:00:23.182147+00:00,approved,active,Albania,community,osm_venues_al_v4,al_00084,al_venues_batch_v4,2026-05-25T00:00:23.182147+00:00,osm_import_terminal_v4,{},venue
"Bar Kafe ""lottomania""",,,,,,,,42.061011,19.5052424,2026-05-25T00:00:23.182147+00:00,approved,active,Albania,community,osm_venues_al_v4,al_00085,al_venues_batch_v4,2026-05-25T00:00:23.182147+00:00,osm_import_terminal_v4,{},venue
Bar Kafe,,,,,,,,42.0614065,19.5055789,2026-05-25T00:00:23.182147+00:00,approved,active,Albania,community,osm_venues_al_v4,al_00086,al_venues_batch_v4,2026-05-25T00:00:23.182147+00:00,osm_import_terminal_v4,{},venue
Bar Kafe,,,,,,,,42.061627,19.50577,2026-05-25T00:00:23.182147+00:00,approved,active,Albania,community,osm_venues_al_v4,al_00087,al_venues_batch_v4,2026-05-25T00:00:23.182147+00:00,osm_import_terminal_v4,{},venue
Bar Kafe,,,,,,,,42.0613888,19.5068828,2026-05-25T00:00:23.182147+00:00,approved,active,Albania,community,osm_venues_al_v4,al_00088,al_venues_batch_v4,2026-05-25T00:00:23.182147+00:00,osm_import_terminal_v4,{},venue
Bar Kafe,,,,,,,,42.0601666,19.5134833,2026-05-25T00:00:23.182147+00:00,approved,active,Albania,community,osm_venues_al_v4,al_00089,al_venues_batch_v4,2026-05-25T00:00:23.182147+00:00,osm_import_terminal_v4,{},venue
Bar Kafe,,,,,,,,42.0616417,19.5207582,2026-05-25T00:00:23.182147+00:00,approved,active,Albania,community,osm_venues_al_v4,al_00090,al_venues_batch_v4,2026-05-25T00:00:23.182147+00:00,osm_import_terminal_v4,{},venue
E'bel Bar,Rruga e Durrësit,Tirana,,,,,,41.3329374,19.8051247,2026-05-25T00:00:23.182147+00:00,approved,active,Albania,community,osm_venues_al_v4,al_00091,al_venues_batch_v4,2026-05-25T00:00:23.182147+00:00,osm_import_terminal_v4,{},venue
Barcelona,,,,,,,,42.0619851,19.5202027,2026-05-25T00:00:23.182147+00:00,approved,active,Albania,community,osm_venues_al_v4,al_00092,al_venues_batch_v4,2026-05-25T00:00:23.182147+00:00,osm_import_terminal_v4,{},venue
Bar Kafe,,Shkoder,,4001,,,,42.064686,19.5129843,2026-05-25T00:00:23.182147+00:00,approved,active,Albania,community,osm_venues_al_v4,al_00093,al_venues_batch_v4,2026-05-25T00:00:23.182147+00:00,osm_import_terminal_v4,{},venue
"Bar Kafe ""CHEZ MOI""",,,,,,,,42.0628095,19.507079,2026-05-25T00:00:23.182147+00:00,approved,active,Albania,community,osm_venues_al_v4,al_00094,al_venues_batch_v4,2026-05-25T00:00:23.182147+00:00,osm_import_terminal_v4,{},venue
Bar Kafe,,,,,,,,42.0624914,19.5073875,2026-05-25T00:00:23.182147+00:00,approved,active,Albania,community,osm_venues_al_v4,al_00095,al_venues_batch_v4,2026-05-25T00:00:23.182147+00:00,osm_import_terminal_v4,{},venue
Bar Kafe,Rruga Sami Frashëri,,,,,,,41.3234978,19.8134671,2026-05-25T00:00:23.182147+00:00,approved,active,Albania,community,osm_venues_al_v4,al_00096,al_venues_batch_v4,2026-05-25T00:00:23.182147+00:00,osm_import_terminal_v4,{},venue
Ox Bar,Rruga Sami Frashëri,,,,,,,41.323421,19.8134156,2026-05-25T00:00:23.182147+00:00,approved,active,Albania,community,osm_venues_al_v4,al_00097,al_venues_batch_v4,2026-05-25T00:00:23.182147+00:00,osm_import_terminal_v4,{},venue
Bar Çadra,,,,,,,,41.3203248,19.8142498,2026-05-25T00:00:23.182147+00:00,approved,active,Albania,community,osm_venues_al_v4,al_00098,al_venues_batch_v4,2026-05-25T00:00:23.182147+00:00,osm_import_terminal_v4,{},venue
Baste Sportive,,,,,,,,41.330089,19.815335,2026-05-25T00:00:23.182147+00:00,approved,active,Albania,community,osm_venues_al_v4,al_00099,al_venues_batch_v4,2026-05-25T00:00:23.182147+00:00,osm_import_terminal_v4,{},venue
Classic Bar,Rruga Myslym Shyri,Tirana,,1001,,,,41.3238955,19.8059947,2026-05-25T00:00:23.182147+00:00,approved,active,Albania,community,osm_venues_al_v4,al_00100,al_venues_batch_v4,2026-05-25T00:00:23.182147+00:00,osm_import_terminal_v4,{},venue
Bar,,,,,,,,42.060564,19.5011195,2026-05-25T00:00:23.182147+00:00,approved,active,Albania,community,osm_venues_al_v4,al_00101,al_venues_batch_v4,2026-05-25T00:00:23.182147+00:00,osm_import_terminal_v4,{},venue
PeopleBar Tirana,Rruga Nikolla Tupe,Tirana,,1001,,,,41.3199384,19.8178235,2026-05-25T00:00:23.182147+00:00,approved,active,Albania,community,osm_venues_al_v4,al_00102,al_venues_batch_v4,2026-05-25T00:00:23.182147+00:00,osm_import_terminal_v4,{},venue
Bar Kampionet,Rruga Pavarësia,,,,,,,40.4554432,19.4866769,2026-05-25T00:00:23.182147+00:00,approved,active,Albania,community,osm_venues_al_v4,al_00103,al_venues_batch_v4,2026-05-25T00:00:23.182147+00:00,osm_import_terminal_v4,{},venue
Bar Piazza,,,,,,,,40.4538169,19.4868381,2026-05-25T00:00:23.182147+00:00,approved,active,Albania,community,osm_venues_al_v4,al_00104,al_venues_batch_v4,2026-05-25T00:00:23.182147+00:00,osm_import_terminal_v4,{},venue
Bar Topolino,Rruga Pavarësia,,,,,,,40.4598391,19.4885422,2026-05-25T00:00:23.182147+00:00,approved,active,Albania,community,osm_venues_al_v4,al_00105,al_venues_batch_v4,2026-05-25T00:00:23.182147+00:00,osm_import_terminal_v4,{},venue
Bar WhiXy,Rruga Pavarësia,,,,,,,40.4559273,19.4872214,2026-05-25T00:00:23.182147+00:00,approved,active,Albania,community,osm_venues_al_v4,al_00106,al_venues_batch_v4,2026-05-25T00:00:23.182147+00:00,osm_import_terminal_v4,{},venue
Erlin Bar,Rruga Shyqyri Ishmi,Tirana,,,,,,41.3265274,19.8291197,2026-05-25T00:00:23.182147+00:00,approved,active,Albania,community,osm_venues_al_v4,al_00107,al_venues_batch_v4,2026-05-25T00:00:23.182147+00:00,osm_import_terminal_v4,{},venue
Wine Shop & Bar,11 Rruga e Barrikadave,,,,,,,41.3314356,19.8199998,2026-05-25T00:00:23.182147+00:00,approved,active,Albania,community,osm_venues_al_v4,al_00108,al_venues_batch_v4,2026-05-25T00:00:23.182147+00:00,osm_import_terminal_v4,{},venue
Grand Bar Oslo,Muhamet Gjollesha,,,,,,,41.3274121,19.8030065,2026-05-25T00:00:23.182147+00:00,approved,active,Albania,community,osm_venues_al_v4,al_00109,al_venues_batch_v4,2026-05-25T00:00:23.182147+00:00,osm_import_terminal_v4,{},venue
Bla Bla Bar,Rruga Andon Zako Çajupi,,,,,,,41.3192002,19.8135506,2026-05-25T00:00:23.182147+00:00,approved,active,Albania,community,osm_venues_al_v4,al_00110,al_venues_batch_v4,2026-05-25T00:00:23.182147+00:00,osm_import_terminal_v4,{},venue
Bar Foster,Rruga e Durrësit (under construction ...),,,1001,,,,41.3299503,19.8128948,2026-05-25T00:00:23.182147+00:00,approved,active,Albania,community,osm_venues_al_v4,al_00111,al_venues_batch_v4,2026-05-25T00:00:23.182147+00:00,osm_import_terminal_v4,{},venue
Boutique Hotel Rose Bar,Gjolek Kokona,,,,,,,41.339938,19.8419594,2026-05-25T00:00:23.182147+00:00,approved,active,Albania,community,osm_venues_al_v4,al_00112,al_venues_batch_v4,2026-05-25T00:00:23.182147+00:00,osm_import_terminal_v4,{},venue
Oslo Bar,Rruga Xhanfize Keko,,,,,,,41.3338405,19.8336181,2026-05-25T00:00:23.182147+00:00,approved,active,Albania,community,osm_venues_al_v4,al_00113,al_venues_batch_v4,2026-05-25T00:00:23.182147+00:00,osm_import_terminal_v4,{},venue
Bar Pasha,,,,,,,,41.3194782,19.8192162,2026-05-25T00:00:23.182147+00:00,approved,active,Albania,community,osm_venues_al_v4,al_00114,al_venues_batch_v4,2026-05-25T00:00:23.182147+00:00,osm_import_terminal_v4,{},venue
Garage Pub,Gjeneral Nichols,Tiranë,,,+355 66 405 5553,http://www.garagepub.al/,,41.3178775,19.8292152,2026-05-25T00:00:23.182147+00:00,approved,active,Albania,community,osm_venues_al_v4,al_00115,al_venues_batch_v4,2026-05-25T00:00:23.182147+00:00,osm_import_terminal_v4,{},venue
Trendafili i bardhë,,Tiranë,,,,,,41.3225538,19.8082027,2026-05-25T00:00:23.182147+00:00,approved,active,Albania,community,osm_venues_al_v4,al_00116,al_venues_batch_v4,2026-05-25T00:00:23.182147+00:00,osm_import_terminal_v4,{},venue
Duff Sports Bar,,Tirane,,,,,,41.3218428,19.8141549,2026-05-25T00:00:23.182147+00:00,approved,active,Albania,community,osm_venues_al_v4,al_00117,al_venues_batch_v4,2026-05-25T00:00:23.182147+00:00,osm_import_terminal_v4,{},venue
Fly Bar,,Durrës,,,,,,41.3100364,19.4480457,2026-05-25T00:00:23.182147+00:00,approved,active,Albania,community,osm_venues_al_v4,al_00118,al_venues_batch_v4,2026-05-25T00:00:23.182147+00:00,osm_import_terminal_v4,{},venue
Bar Restaurant Belvedere,,Durrës,,,+355692096123,https://www.facebook.com/Bar-Restorant-BELVEDERE-106500882736079/?fref=ts,,41.3107194,19.4370648,2026-05-25T00:00:23.182147+00:00,approved,active,Albania,community,osm_venues_al_v4,al_00119,al_venues_batch_v4,2026-05-25T00:00:23.182147+00:00,osm_import_terminal_v4,{},venue
Bar Restorant Shkalla E Tujanit,,,,,+355 69 866 6660,https://www.facebook.com/Bar-Restorant-Shkalla-E-Tujanit-1640723936190244/,,41.3928068,19.8856932,2026-05-25T00:00:23.182147+00:00,approved,active,Albania,community,osm_venues_al_v4,al_00120,al_venues_batch_v4,2026-05-25T00:00:23.182147+00:00,osm_import_terminal_v4,{},venue
Bar Kafe,Rruga 28 Nëntori,Shkoder,,,,,,42.0661531,19.5128298,2026-05-25T00:00:23.182147+00:00,approved,active,Albania,community,osm_venues_al_v4,al_00121,al_venues_batch_v4,2026-05-25T00:00:23.182147+00:00,osm_import_terminal_v4,{},venue
"Bar Restaurant ""IDROMENO""",,,,,,,,42.0646427,19.5117861,2026-05-25T00:00:23.182147+00:00,approved,active,Albania,community,osm_venues_al_v4,al_00122,al_venues_batch_v4,2026-05-25T00:00:23.182147+00:00,osm_import_terminal_v4,{},venue
Bar Kafe,,,,,,,,42.0642455,19.5117094,2026-05-25T00:00:23.182147+00:00,approved,active,Albania,community,osm_venues_al_v4,al_00123,al_venues_batch_v4,2026-05-25T00:00:23.182147+00:00,osm_import_terminal_v4,{},venue
Soho Bar,,,,,,,,41.3334651,19.8022421,2026-05-25T00:00:23.182147+00:00,approved,active,Albania,community,osm_venues_al_v4,al_00124,al_venues_batch_v4,2026-05-25T00:00:23.182147+00:00,osm_import_terminal_v4,{},venue
lotto bar,,Shkodër,,4001,,,,42.0672322,19.5108507,2026-05-25T00:00:23.182147+00:00,approved,active,Albania,community,osm_venues_al_v4,al_00125,al_venues_batch_v4,2026-05-25T00:00:23.182147+00:00,osm_import_terminal_v4,{},venue
Bar Kafe,,,,,,,,42.0528727,19.4961281,2026-05-25T00:00:23.182147+00:00,approved,active,Albania,community,osm_venues_al_v4,al_00126,al_venues_batch_v4,2026-05-25T00:00:23.182147+00:00,osm_import_terminal_v4,{},venue
Bar Kafe,,,,,,,,42.0552669,19.4996048,2026-05-25T00:00:23.182147+00:00,approved,active,Albania,community,osm_venues_al_v4,al_00127,al_venues_batch_v4,2026-05-25T00:00:23.182147+00:00,osm_import_terminal_v4,{},venue
Bar Kafe,,Shkodër,,4001,,,,42.0645033,19.5079265,2026-05-25T00:00:23.182147+00:00,approved,active,Albania,community,osm_venues_al_v4,al_00128,al_venues_batch_v4,2026-05-25T00:00:23.182147+00:00,osm_import_terminal_v4,{},venue
Bar Kafe,,,,,,,,42.0622078,19.5059231,2026-05-25T00:00:23.182147+00:00,approved,active,Albania,community,osm_venues_al_v4,al_00129,al_venues_batch_v4,2026-05-25T00:00:23.182147+00:00,osm_import_terminal_v4,{},venue
Bar Kafe,,,,,,,,42.0623014,19.5060104,2026-05-25T00:00:23.182147+00:00,approved,active,Albania,community,osm_venues_al_v4,al_00130,al_venues_batch_v4,2026-05-25T00:00:23.182147+00:00,osm_import_terminal_v4,{},venue
Bar Kafe,,,,,,,,42.0622081,19.5062896,2026-05-25T00:00:23.182147+00:00,approved,active,Albania,community,osm_venues_al_v4,al_00131,al_venues_batch_v4,2026-05-25T00:00:23.182147+00:00,osm_import_terminal_v4,{},venue
Bar Kafe,,,,,,,,42.0625048,19.5062001,2026-05-25T00:00:23.182147+00:00,approved,active,Albania,community,osm_venues_al_v4,al_00132,al_venues_batch_v4,2026-05-25T00:00:23.182147+00:00,osm_import_terminal_v4,{},venue
Bar Kafe,,,,,,,,42.0625463,19.5066046,2026-05-25T00:00:23.182147+00:00,approved,active,Albania,community,osm_venues_al_v4,al_00133,al_venues_batch_v4,2026-05-25T00:00:23.182147+00:00,osm_import_terminal_v4,{},venue
Bar Kafe,,,,,,,,42.0626833,19.5067449,2026-05-25T00:00:23.182147+00:00,approved,active,Albania,community,osm_venues_al_v4,al_00134,al_venues_batch_v4,2026-05-25T00:00:23.182147+00:00,osm_import_terminal_v4,{},venue
Bar Kafe,,,,,,,,42.0627156,19.5067777,2026-05-25T00:00:23.182147+00:00,approved,active,Albania,community,osm_venues_al_v4,al_00135,al_venues_batch_v4,2026-05-25T00:00:23.182147+00:00,osm_import_terminal_v4,{},venue
Bar Kafe,,,,,,,,42.0630985,19.5067016,2026-05-25T00:00:23.182147+00:00,approved,active,Albania,community,osm_venues_al_v4,al_00136,al_venues_batch_v4,2026-05-25T00:00:23.182147+00:00,osm_import_terminal_v4,{},venue
Bar Kafe,,,,,,,,42.0581122,19.5023735,2026-05-25T00:00:23.182147+00:00,approved,active,Albania,community,osm_venues_al_v4,al_00137,al_venues_batch_v4,2026-05-25T00:00:23.182147+00:00,osm_import_terminal_v4,{},venue
Bar Kafe,,,,,,,,42.0587545,19.5032686,2026-05-25T00:00:23.182147+00:00,approved,active,Albania,community,osm_venues_al_v4,al_00138,al_venues_batch_v4,2026-05-25T00:00:23.182147+00:00,osm_import_terminal_v4,{},venue
Bar Kafe,,,,,,,,42.0705965,19.5094472,2026-05-25T00:00:23.182147+00:00,approved,active,Albania,community,osm_venues_al_v4,al_00139,al_venues_batch_v4,2026-05-25T00:00:23.182147+00:00,osm_import_terminal_v4,{},venue
Bar Kafe,,,,,,,,42.0713758,19.5115558,2026-05-25T00:00:23.182147+00:00,approved,active,Albania,community,osm_venues_al_v4,al_00140,al_venues_batch_v4,2026-05-25T00:00:23.182147+00:00,osm_import_terminal_v4,{},venue
Bar Kafe,,,,,,,,42.072104,19.5125978,2026-05-25T00:00:23.182147+00:00,approved,active,Albania,community,osm_venues_al_v4,al_00141,al_venues_batch_v4,2026-05-25T00:00:23.182147+00:00,osm_import_terminal_v4,{},venue
Baste Sportive,,,,,,,,42.0681599,19.5062852,2026-05-25T00:00:23.182147+00:00,approved,active,Albania,community,osm_venues_al_v4,al_00142,al_venues_batch_v4,2026-05-25T00:00:23.182147+00:00,osm_import_terminal_v4,{},venue
Bar Kafe,,,,,,,,42.0745457,19.513866,2026-05-25T00:00:23.182147+00:00,approved,active,Albania,community,osm_venues_al_v4,al_00143,al_venues_batch_v4,2026-05-25T00:00:23.182147+00:00,osm_import_terminal_v4,{},venue
Bar Kafe,,,,,,,,42.0744127,19.513278,2026-05-25T00:00:23.182147+00:00,approved,active,Albania,community,osm_venues_al_v4,al_00144,al_venues_batch_v4,2026-05-25T00:00:23.182147+00:00,osm_import_terminal_v4,{},venue
Bar Kafe,,,,,,,,42.0743072,19.5129266,2026-05-25T00:00:23.182147+00:00,approved,active,Albania,community,osm_venues_al_v4,al_00145,al_venues_batch_v4,2026-05-25T00:00:23.182147+00:00,osm_import_terminal_v4,{},venue
Bar Kafe,,,,,,,,42.0726754,19.5093785,2026-05-25T00:00:23.182147+00:00,approved,active,Albania,community,osm_venues_al_v4,al_00146,al_venues_batch_v4,2026-05-25T00:00:23.182147+00:00,osm_import_terminal_v4,{},venue
Bar Kafe,,,,,,,,42.0737871,19.5110309,2026-05-25T00:00:23.182147+00:00,approved,active,Albania,community,osm_venues_al_v4,al_00147,al_venues_batch_v4,2026-05-25T00:00:23.182147+00:00,osm_import_terminal_v4,{},venue
Bar Kafe,,,,,,,,42.07348,19.510173,2026-05-25T00:00:23.182147+00:00,approved,active,Albania,community,osm_venues_al_v4,al_00148,al_venues_batch_v4,2026-05-25T00:00:23.182147+00:00,osm_import_terminal_v4,{},venue
Bar Kafe,,,,,,,,42.0737724,19.5062799,2026-05-25T00:00:23.182147+00:00,approved,active,Albania,community,osm_venues_al_v4,al_00149,al_venues_batch_v4,2026-05-25T00:00:23.182147+00:00,osm_import_terminal_v4,{},venue
Hemingway Bar Tirana,Rruga Kont Urani,Tirana,,,+3550692088121,https://hemingway.al/,,41.329558,19.8123015,2026-05-25T00:00:23.182147+00:00,approved,active,Albania,community,osm_venues_al_v4,al_00150,al_venues_batch_v4,2026-05-25T00:00:23.182147+00:00,osm_import_terminal_v4,{},venue
Bar Kafe,,,,,,,,42.0575727,19.5026737,2026-05-25T00:00:23.182147+00:00,approved,active,Albania,community,osm_venues_al_v4,al_00151,al_venues_batch_v4,2026-05-25T00:00:23.182147+00:00,osm_import_terminal_v4,{},venue
Bar Kafe,,,,,,,,42.0592776,19.5071575,2026-05-25T00:00:23.182147+00:00,approved,active,Albania,community,osm_venues_al_v4,al_00152,al_venues_batch_v4,2026-05-25T00:00:23.182147+00:00,osm_import_terminal_v4,{},venue
Bar Kafe,,,,,,,,42.0598797,19.5094658,2026-05-25T00:00:23.182147+00:00,approved,active,Albania,community,osm_venues_al_v4,al_00153,al_venues_batch_v4,2026-05-25T00:00:23.182147+00:00,osm_import_terminal_v4,{},venue
lottosport,,,,,,,,42.0639543,19.5171068,2026-05-25T00:00:23.182147+00:00,approved,active,Albania,community,osm_venues_al_v4,al_00154,al_venues_batch_v4,2026-05-25T00:00:23.182147+00:00,osm_import_terminal_v4,{},venue
"Bar Kafe ""JUBANI""",,,,,,,,42.0705012,19.5158261,2026-05-25T00:00:23.182147+00:00,approved,active,Albania,community,osm_venues_al_v4,al_00155,al_venues_batch_v4,2026-05-25T00:00:23.182147+00:00,osm_import_terminal_v4,{},venue
Bar Kafe,,,,,,,,42.0694151,19.5173263,2026-05-25T00:00:23.182147+00:00,approved,active,Albania,community,osm_venues_al_v4,al_00156,al_venues_batch_v4,2026-05-25T00:00:23.182147+00:00,osm_import_terminal_v4,{},venue
Bar Kafe,,,,,,,,42.0670444,19.5176767,2026-05-25T00:00:23.182147+00:00,approved,active,Albania,community,osm_venues_al_v4,al_00157,al_venues_batch_v4,2026-05-25T00:00:23.182147+00:00,osm_import_terminal_v4,{},venue
Bar Kafe,,,,,,,,42.0639563,19.5180961,2026-05-25T00:00:23.182147+00:00,approved,active,Albania,community,osm_venues_al_v4,al_00158,al_venues_batch_v4,2026-05-25T00:00:23.182147+00:00,osm_import_terminal_v4,{},venue
Bar Kafe,,,,,,,,42.0586821,19.5246031,2026-05-25T00:00:23.182147+00:00,approved,active,Albania,community,osm_venues_al_v4,al_00159,al_venues_batch_v4,2026-05-25T00:00:23.182147+00:00,osm_import_terminal_v4,{},venue
Bar Kafe,,,,,,,,42.0597079,19.5223457,2026-05-25T00:00:23.182147+00:00,approved,active,Albania,community,osm_venues_al_v4,al_00160,al_venues_batch_v4,2026-05-25T00:00:23.182147+00:00,osm_import_terminal_v4,{},venue
Bar Kafe,,,,,,,,42.0599956,19.5215663,2026-05-25T00:00:23.182147+00:00,approved,active,Albania,community,osm_venues_al_v4,al_00161,al_venues_batch_v4,2026-05-25T00:00:23.182147+00:00,osm_import_terminal_v4,{},venue
Bar Kafe,,,,,,,,42.0588702,19.5143933,2026-05-25T00:00:23.182147+00:00,approved,active,Albania,community,osm_venues_al_v4,al_00162,al_venues_batch_v4,2026-05-25T00:00:23.182147+00:00,osm_import_terminal_v4,{},venue
Bar Kafe,,,,,,,,42.0601233,19.5135122,2026-05-25T00:00:23.182147+00:00,approved,active,Albania,community,osm_venues_al_v4,al_00163,al_venues_batch_v4,2026-05-25T00:00:23.182147+00:00,osm_import_terminal_v4,{},venue
Bar Kafe,,,,,,,,42.075755,19.5160779,2026-05-25T00:00:23.182147+00:00,approved,active,Albania,community,osm_venues_al_v4,al_00164,al_venues_batch_v4,2026-05-25T00:00:23.182147+00:00,osm_import_terminal_v4,{},venue
Bar Kafe,,,,,,,,42.0759088,19.5168007,2026-05-25T00:00:23.182147+00:00,approved,active,Albania,community,osm_venues_al_v4,al_00165,al_venues_batch_v4,2026-05-25T00:00:23.182147+00:00,osm_import_terminal_v4,{},venue
Bar Kafe,,,,,,,,42.0757734,19.5174959,2026-05-25T00:00:23.182147+00:00,approved,active,Albania,community,osm_venues_al_v4,al_00166,al_venues_batch_v4,2026-05-25T00:00:23.182147+00:00,osm_import_terminal_v4,{},venue
Bar Kafe,,,,,,,,42.075541,19.517384,2026-05-25T00:00:23.182147+00:00,approved,active,Albania,community,osm_venues_al_v4,al_00167,al_venues_batch_v4,2026-05-25T00:00:23.182147+00:00,osm_import_terminal_v4,{},venue
Bar Kafe,,,,,,,,42.0751383,19.5180589,2026-05-25T00:00:23.182147+00:00,approved,active,Albania,community,osm_venues_al_v4,al_00168,al_venues_batch_v4,2026-05-25T00:00:23.182147+00:00,osm_import_terminal_v4,{},venue
Bar Kafe,,,,,,,,42.0744807,19.5188851,2026-05-25T00:00:23.182147+00:00,approved,active,Albania,community,osm_venues_al_v4,al_00169,al_venues_batch_v4,2026-05-25T00:00:23.182147+00:00,osm_import_terminal_v4,{},venue
Bar Kafe,,,,,,,,42.074037,19.5194477,2026-05-25T00:00:23.182147+00:00,approved,active,Albania,community,osm_venues_al_v4,al_00170,al_venues_batch_v4,2026-05-25T00:00:23.182147+00:00,osm_import_terminal_v4,{},venue
Bar Kafe,,,,,,,,42.0737731,19.5197814,2026-05-25T00:00:23.182147+00:00,approved,active,Albania,community,osm_venues_al_v4,al_00171,al_venues_batch_v4,2026-05-25T00:00:23.182147+00:00,osm_import_terminal_v4,{},venue
Bar Kafe,,,,,,,,42.0736065,19.5199934,2026-05-25T00:00:23.182147+00:00,approved,active,Albania,community,osm_venues_al_v4,al_00172,al_venues_batch_v4,2026-05-25T00:00:23.182147+00:00,osm_import_terminal_v4,{},venue
Bar Kafe,,,,,,,,42.0735162,19.5201518,2026-05-25T00:00:23.182147+00:00,approved,active,Albania,community,osm_venues_al_v4,al_00173,al_venues_batch_v4,2026-05-25T00:00:23.182147+00:00,osm_import_terminal_v4,{},venue
Bar Kafe,,,,,,,,42.0728022,19.5214364,2026-05-25T00:00:23.182147+00:00,approved,active,Albania,community,osm_venues_al_v4,al_00174,al_venues_batch_v4,2026-05-25T00:00:23.182147+00:00,osm_import_terminal_v4,{},venue
Bar Kafe Lavazh,,,,,,,,42.0713414,19.5228572,2026-05-25T00:00:23.182147+00:00,approved,active,Albania,community,osm_venues_al_v4,al_00175,al_venues_batch_v4,2026-05-25T00:00:23.182147+00:00,osm_import_terminal_v4,{},venue
Bar Kafe,,,,,,,,42.0670044,19.521371,2026-05-25T00:00:23.182147+00:00,approved,active,Albania,community,osm_venues_al_v4,al_00176,al_venues_batch_v4,2026-05-25T00:00:23.182147+00:00,osm_import_terminal_v4,{},venue
Snack Bar,,,,,,,,42.0732395,19.5218273,2026-05-25T00:00:23.182147+00:00,approved,active,Albania,community,osm_venues_al_v4,al_00177,al_venues_batch_v4,2026-05-25T00:00:23.182147+00:00,osm_import_terminal_v4,{},venue
Bar Kafe,,,,,,,,42.0787534,19.5225643,2026-05-25T00:00:23.182147+00:00,approved,active,Albania,community,osm_venues_al_v4,al_00178,al_venues_batch_v4,2026-05-25T00:00:23.182147+00:00,osm_import_terminal_v4,{},venue
Bar Kafe,,,,,,,,42.0791854,19.5227937,2026-05-25T00:00:23.182147+00:00,approved,active,Albania,community,osm_venues_al_v4,al_00179,al_venues_batch_v4,2026-05-25T00:00:23.182147+00:00,osm_import_terminal_v4,{},venue
Bar Kafe,,,,,,,,42.079817,19.523364,2026-05-25T00:00:23.182147+00:00,approved,active,Albania,community,osm_venues_al_v4,al_00180,al_venues_batch_v4,2026-05-25T00:00:23.182147+00:00,osm_import_terminal_v4,{},venue
Bar Kafe,,,,,,,,42.0828088,19.5272386,2026-05-25T00:00:23.182147+00:00,approved,active,Albania,community,osm_venues_al_v4,al_00181,al_venues_batch_v4,2026-05-25T00:00:23.182147+00:00,osm_import_terminal_v4,{},venue
Bar Kafe,,,,,,,,42.0831173,19.5279413,2026-05-25T00:00:23.182147+00:00,approved,active,Albania,community,osm_venues_al_v4,al_00182,al_venues_batch_v4,2026-05-25T00:00:23.182147+00:00,osm_import_terminal_v4,{},venue
Bar Kafe,Rruga Dali Ndreu,,,,,,,41.3312949,19.8416562,2026-05-25T00:00:23.182147+00:00,approved,active,Albania,community,osm_venues_al_v4,al_00183,al_venues_batch_v4,2026-05-25T00:00:23.182147+00:00,osm_import_terminal_v4,{},venue
"Bar Kafe ""SHOFERI""",,,,,,,,42.0800372,19.5286523,2026-05-25T00:00:23.182147+00:00,approved,active,Albania,community,osm_venues_al_v4,al_00184,al_venues_batch_v4,2026-05-25T00:00:23.182147+00:00,osm_import_terminal_v4,{},venue
Bar Kafe,,,,,,,,42.0892751,19.5328767,2026-05-25T00:00:23.182147+00:00,approved,active,Albania,community,osm_venues_al_v4,al_00185,al_venues_batch_v4,2026-05-25T00:00:23.182147+00:00,osm_import_terminal_v4,{},venue
Bar Kafe,,,,,,,,42.0811804,19.5294224,2026-05-25T00:00:23.182147+00:00,approved,active,Albania,community,osm_venues_al_v4,al_00186,al_venues_batch_v4,2026-05-25T00:00:23.182147+00:00,osm_import_terminal_v4,{},venue
Bar Kafe,,,,,,,,42.0822086,19.5296869,2026-05-25T00:00:23.182147+00:00,approved,active,Albania,community,osm_venues_al_v4,al_00187,al_venues_batch_v4,2026-05-25T00:00:23.182147+00:00,osm_import_terminal_v4,{},venue
Bar Kafe,,,,,,,,42.0848989,19.5306378,2026-05-25T00:00:23.182147+00:00,approved,active,Albania,community,osm_venues_al_v4,al_00188,al_venues_batch_v4,2026-05-25T00:00:23.182147+00:00,osm_import_terminal_v4,{},venue
Bar Kafe,,,,,,,,42.0866352,19.531029,2026-05-25T00:00:23.182147+00:00,approved,active,Albania,community,osm_venues_al_v4,al_00189,al_venues_batch_v4,2026-05-25T00:00:23.182147+00:00,osm_import_terminal_v4,{},venue
Bar Kafe,,,,,,,,42.0910964,19.5342201,2026-05-25T00:00:23.182147+00:00,approved,active,Albania,community,osm_venues_al_v4,al_00190,al_venues_batch_v4,2026-05-25T00:00:23.182147+00:00,osm_import_terminal_v4,{},venue
Tele Sport,Rruga Papa Gjon Pali II,Tirana,,,,,,41.3217976,19.8230323,2026-05-25T00:00:23.182147+00:00,approved,active,Albania,community,osm_venues_al_v4,al_00191,al_venues_batch_v4,2026-05-25T00:00:23.182147+00:00,osm_import_terminal_v4,{},venue
Bar Kafe,Rruga Ismail Qemali,,,,,,,41.3217478,19.8232884,2026-05-25T00:00:23.182147+00:00,approved,active,Albania,community,osm_venues_al_v4,al_00192,al_venues_batch_v4,2026-05-25T00:00:23.182147+00:00,osm_import_terminal_v4,{},venue
Sanremo bar,Rruga Astrit Balluku,,,,,,,41.323648,19.8077605,2026-05-25T00:00:23.182147+00:00,approved,active,Albania,community,osm_venues_al_v4,al_00193,al_venues_batch_v4,2026-05-25T00:00:23.182147+00:00,osm_import_terminal_v4,{},venue
Rio bar,Rruga Myslym Shyri,,,,,,,41.3236569,19.8056745,2026-05-25T00:00:23.182147+00:00,approved,active,Albania,community,osm_venues_al_v4,al_00194,al_venues_batch_v4,2026-05-25T00:00:23.182147+00:00,osm_import_terminal_v4,{},venue
wine & snack bar Genius,Rruga e Elbasanit,Tirana,,,,,,41.3193478,19.8278784,2026-05-25T00:00:23.182147+00:00,approved,active,Albania,community,osm_venues_al_v4,al_00195,al_venues_batch_v4,2026-05-25T00:00:23.182147+00:00,osm_import_terminal_v4,{},venue
Bar Kafe,Rruga Ali Demi,,,,,,,41.3312037,19.8413729,2026-05-25T00:00:23.182147+00:00,approved,active,Albania,community,osm_venues_al_v4,al_00196,al_venues_batch_v4,2026-05-25T00:00:23.182147+00:00,osm_import_terminal_v4,{},venue
Bar Restorant,,,,,,,,41.2826561,19.7187233,2026-05-25T00:00:23.182147+00:00,approved,active,Albania,community,osm_venues_al_v4,al_00197,al_venues_batch_v4,2026-05-25T00:00:23.182147+00:00,osm_import_terminal_v4,{},venue
Bar Kafe,,,,,,,,41.2824525,19.7186656,2026-05-25T00:00:23.182147+00:00,approved,active,Albania,community,osm_venues_al_v4,al_00198,al_venues_batch_v4,2026-05-25T00:00:23.182147+00:00,osm_import_terminal_v4,{},venue
Bar Kafe,,,,,,,,41.2920939,19.72091,2026-05-25T00:00:23.182147+00:00,approved,active,Albania,community,osm_venues_al_v4,al_00199,al_venues_batch_v4,2026-05-25T00:00:23.182147+00:00,osm_import_terminal_v4,{},venue
Bar Kafe,,,,,,,,41.2905028,19.7202257,2026-05-25T00:00:23.182147+00:00,approved,active,Albania,community,osm_venues_al_v4,al_00200,al_venues_batch_v4,2026-05-25T00:00:23.182147+00:00,osm_import_terminal_v4,{},venue
Bar Kafe,,,,,,,,41.2882476,19.7202757,2026-05-25T00:00:23.182147+00:00,approved,active,Albania,community,osm_venues_al_v4,al_00201,al_venues_batch_v4,2026-05-25T00:00:23.182147+00:00,osm_import_terminal_v4,{},venue
lottosport,,,,,,,,41.2880793,19.7202046,2026-05-25T00:00:23.182147+00:00,approved,active,Albania,community,osm_venues_al_v4,al_00202,al_venues_batch_v4,2026-05-25T00:00:23.182147+00:00,osm_import_terminal_v4,{},venue
Bar Kafe,,,,,,,,41.2848062,19.7192715,2026-05-25T00:00:23.182147+00:00,approved,active,Albania,community,osm_venues_al_v4,al_00203,al_venues_batch_v4,2026-05-25T00:00:23.182147+00:00,osm_import_terminal_v4,{},venue
Bar Kafe,,,,,,,,41.2939127,19.7298958,2026-05-25T00:00:23.182147+00:00,approved,active,Albania,community,osm_venues_al_v4,al_00204,al_venues_batch_v4,2026-05-25T00:00:23.182147+00:00,osm_import_terminal_v4,{},venue
Bar Kafe,,,,,,,,41.2937283,19.7296075,2026-05-25T00:00:23.182147+00:00,approved,active,Albania,community,osm_venues_al_v4,al_00205,al_venues_batch_v4,2026-05-25T00:00:23.182147+00:00,osm_import_terminal_v4,{},venue
Bar Kafe,,,,,,,,41.2937195,19.7279296,2026-05-25T00:00:23.182147+00:00,approved,active,Albania,community,osm_venues_al_v4,al_00206,al_venues_batch_v4,2026-05-25T00:00:23.182147+00:00,osm_import_terminal_v4,{},venue
bar Esss,Rruga Frederik Shiroka,,,,,,,41.3277548,19.8044249,2026-05-25T00:00:23.182147+00:00,approved,active,Albania,community,osm_venues_al_v4,al_00207,al_venues_batch_v4,2026-05-25T00:00:23.182147+00:00,osm_import_terminal_v4,{},venue
Klasik Bar,12 Nikolla Jorga,,,,,,,41.3237935,19.8108806,2026-05-25T00:00:23.182147+00:00,approved,active,Albania,community,osm_venues_al_v4,al_00208,al_venues_batch_v4,2026-05-25T00:00:23.182147+00:00,osm_import_terminal_v4,{},venue
Mini-Bar Cafe,Rruga Transbalkanika,Vlorë,,,,,,40.4673771,19.4829777,2026-05-25T00:00:23.182147+00:00,approved,active,Albania,community,osm_venues_al_v4,al_00209,al_venues_batch_v4,2026-05-25T00:00:23.182147+00:00,osm_import_terminal_v4,{},venue
Fega Bar,Rruga Transbalkanika,Vlorë,,,,,,40.4680428,19.4831995,2026-05-25T00:00:23.182147+00:00,approved,active,Albania,community,osm_venues_al_v4,al_00210,al_venues_batch_v4,2026-05-25T00:00:23.182147+00:00,osm_import_terminal_v4,{},venue
New York bar,Bulevardi Zogu i Parë,,,,,,,41.3348661,19.8162457,2026-05-25T00:00:23.182147+00:00,approved,active,Albania,community,osm_venues_al_v4,al_00211,al_venues_batch_v4,2026-05-25T00:00:23.182147+00:00,osm_import_terminal_v4,{},venue
Bar Sara 2,,Tirane,,,,,,41.3181342,19.8387191,2026-05-25T00:00:23.182147+00:00,approved,active,Albania,community,osm_venues_al_v4,al_00212,al_venues_batch_v4,2026-05-25T00:00:23.182147+00:00,osm_import_terminal_v4,{},venue
Lizard Bar,,,,,,,,41.3216017,19.8169053,2026-05-25T00:00:23.182147+00:00,approved,active,Albania,community,osm_venues_al_v4,al_00213,al_venues_batch_v4,2026-05-25T00:00:23.182147+00:00,osm_import_terminal_v4,{},venue
Radio Bar,Rruga Ismail Qemali,Tiranë,,,,,,41.3201395,19.8150078,2026-05-25T00:00:23.182147+00:00,approved,active,Albania,community,osm_venues_al_v4,al_00214,al_venues_batch_v4,2026-05-25T00:00:23.182147+00:00,osm_import_terminal_v4,{},venue
Melbourne Bar,Rruga Mine Peza,Tirana,,,,,,41.3307645,19.8134262,2026-05-25T00:00:23.182147+00:00,approved,active,Albania,community,osm_venues_al_v4,al_00215,al_venues_batch_v4,2026-05-25T00:00:23.182147+00:00,osm_import_terminal_v4,{},venue
Bulevard Bar,Bulevardi Zogu i Parë,,,,,,,41.3356456,19.8168188,2026-05-25T00:00:23.182147+00:00,approved,active,Albania,community,osm_venues_al_v4,al_00216,al_venues_batch_v4,2026-05-25T00:00:23.182147+00:00,osm_import_terminal_v4,{},venue
Twist Bar,,,,,,,,41.3354774,19.8158398,2026-05-25T00:00:23.182147+00:00,approved,active,Albania,community,osm_venues_al_v4,al_00217,al_venues_batch_v4,2026-05-25T00:00:23.182147+00:00,osm_import_terminal_v4,{},venue
Wall Street Bar,Rruga Mine Peza,,,,,,,41.3335214,19.8069438,2026-05-25T00:00:23.182147+00:00,approved,active,Albania,community,osm_venues_al_v4,al_00218,al_venues_batch_v4,2026-05-25T00:00:23.182147+00:00,osm_import_terminal_v4,{},venue
Wien Bar,Rruga Fortuzi,,,,,,,41.3331472,19.8173123,2026-05-25T00:00:23.182147+00:00,approved,active,Albania,community,osm_venues_al_v4,al_00219,al_venues_batch_v4,2026-05-25T00:00:23.182147+00:00,osm_import_terminal_v4,{},venue
Casa Bar,Rruga Mustafa Matohiti,,,,,,,41.3223679,19.8239506,2026-05-25T00:00:23.182147+00:00,approved,active,Albania,community,osm_venues_al_v4,al_00220,al_venues_batch_v4,2026-05-25T00:00:23.182147+00:00,osm_import_terminal_v4,{},venue
Atika Lounge Bar,,,,,,,,41.3187966,19.8081154,2026-05-25T00:00:23.182147+00:00,approved,active,Albania,community,osm_venues_al_v4,al_00221,al_venues_batch_v4,2026-05-25T00:00:23.182147+00:00,osm_import_terminal_v4,{},venue
Kin's Bar,,,,,,,,42.0654267,19.518137,2026-05-25T00:00:23.182147+00:00,approved,active,Albania,community,osm_venues_al_v4,al_00222,al_venues_batch_v4,2026-05-25T00:00:23.182147+00:00,osm_import_terminal_v4,{},venue
BAR TISS,,,,,,,,41.335017,19.8348603,2026-05-25T00:00:23.182147+00:00,approved,active,Albania,community,osm_venues_al_v4,al_00223,al_venues_batch_v4,2026-05-25T00:00:23.182147+00:00,osm_import_terminal_v4,{},venue
Bonsai Bar,,Tirana,,,,,,41.3193818,19.8317164,2026-05-25T00:00:23.182147+00:00,approved,active,Albania,community,osm_venues_al_v4,al_00224,al_venues_batch_v4,2026-05-25T00:00:23.182147+00:00,osm_import_terminal_v4,{},venue
Bar Lotto,Rruga Muhedin Llagani,,,,,,,41.3226472,19.798172,2026-05-25T00:00:23.182147+00:00,approved,active,Albania,community,osm_venues_al_v4,al_00225,al_venues_batch_v4,2026-05-25T00:00:23.182147+00:00,osm_import_terminal_v4,{},venue
Bar Relax,,,,,,,,41.3194271,19.8040795,2026-05-25T00:00:23.182147+00:00,approved,active,Albania,community,osm_venues_al_v4,al_00226,al_venues_batch_v4,2026-05-25T00:00:23.182147+00:00,osm_import_terminal_v4,{},venue
Bar Palma,,,,,,,,41.3848278,19.7623719,2026-05-25T00:00:23.182147+00:00,approved,active,Albania,community,osm_venues_al_v4,al_00227,al_venues_batch_v4,2026-05-25T00:00:23.182147+00:00,osm_import_terminal_v4,{},venue
"Bar Kafe ""Vespa 29""",Rruga Babë Rexha,,,,,,,41.3245541,19.7964472,2026-05-25T00:00:23.182147+00:00,approved,active,Albania,community,osm_venues_al_v4,al_00228,al_venues_batch_v4,2026-05-25T00:00:23.182147+00:00,osm_import_terminal_v4,{},venue
Bar Panorama,Rruga Joklin Persi,,,,,,,41.3249872,19.7793373,2026-05-25T00:00:23.182147+00:00,approved,active,Albania,community,osm_venues_al_v4,al_00229,al_venues_batch_v4,2026-05-25T00:00:23.182147+00:00,osm_import_terminal_v4,{},venue
Retro Rooftop Bar,,,,,,,,42.0683578,19.5151918,2026-05-25T00:00:23.182147+00:00,approved,active,Albania,community,osm_venues_al_v4,al_00230,al_venues_batch_v4,2026-05-25T00:00:23.182147+00:00,osm_import_terminal_v4,{},venue
Carpe diem winebar,Rruga Pelivan Leskaj,,,,,,,40.4532946,19.486713,2026-05-25T00:00:23.182147+00:00,approved,active,Albania,community,osm_venues_al_v4,al_00231,al_venues_batch_v4,2026-05-25T00:00:23.182147+00:00,osm_import_terminal_v4,{},venue
whisky bar tirana,,,,,,,,41.3215588,19.817754,2026-05-25T00:00:23.182147+00:00,approved,active,Albania,community,osm_venues_al_v4,al_00232,al_venues_batch_v4,2026-05-25T00:00:23.182147+00:00,osm_import_terminal_v4,{},venue
Sun Bar,,Tirana,,,,,,41.3071365,19.8119255,2026-05-25T00:00:23.182147+00:00,approved,active,Albania,community,osm_venues_al_v4,al_00233,al_venues_batch_v4,2026-05-25T00:00:23.182147+00:00,osm_import_terminal_v4,{},venue
Arjel Bar 2,Rruga Mine Peza,,,,,,,41.333463,19.8085322,2026-05-25T00:00:23.182147+00:00,approved,active,Albania,community,osm_venues_al_v4,al_00234,al_venues_batch_v4,2026-05-25T00:00:23.182147+00:00,osm_import_terminal_v4,{},venue
Bar kafe,,,,4001,,,,42.0640136,19.5166814,2026-05-25T00:00:23.182147+00:00,approved,active,Albania,community,osm_venues_al_v4,al_00235,al_venues_batch_v4,2026-05-25T00:00:23.182147+00:00,osm_import_terminal_v4,{},venue
Coko Bistro & Bar,Rruga Pjetër Bogdani,,,1001,+35542258411,https://coko.al,,41.3215231,19.8163689,2026-05-25T00:00:23.182147+00:00,approved,active,Albania,community,osm_venues_al_v4,al_00236,al_venues_batch_v4,2026-05-25T00:00:23.182147+00:00,osm_import_terminal_v4,{},venue
Tissi Bar,,,,,,,,41.3044464,19.8149262,2026-05-25T00:00:23.182147+00:00,approved,active,Albania,community,osm_venues_al_v4,al_00237,al_venues_batch_v4,2026-05-25T00:00:23.182147+00:00,osm_import_terminal_v4,{},venue
Bar Koral,,,,,,,,40.4397387,19.4956294,2026-05-25T00:00:23.182147+00:00,approved,active,Albania,community,osm_venues_al_v4,al_00238,al_venues_batch_v4,2026-05-25T00:00:23.182147+00:00,osm_import_terminal_v4,{},venue
Shilla concept bar,,,,,,https://www.facebook.com/ShillaCoffeeBar/,,41.113377,20.7996516,2026-05-25T00:00:23.182147+00:00,approved,active,Albania,community,osm_venues_al_v4,al_00239,al_venues_batch_v4,2026-05-25T00:00:23.182147+00:00,osm_import_terminal_v4,{},venue
Bar Voks,,,,,,,,41.3351376,19.8141665,2026-05-25T00:00:23.182147+00:00,approved,active,Albania,community,osm_venues_al_v4,al_00240,al_venues_batch_v4,2026-05-25T00:00:23.182147+00:00,osm_import_terminal_v4,{},venue
Bar Milano,Rruga Haxhi Hysen Dalliu,,,,,,,41.3346224,19.8141938,2026-05-25T00:00:23.182147+00:00,approved,active,Albania,community,osm_venues_al_v4,al_00241,al_venues_batch_v4,2026-05-25T00:00:23.182147+00:00,osm_import_terminal_v4,{},venue
Bar Sunrise,Rruga Haxhi Hysen Dalliu,,,,,,,41.3353406,19.8140833,2026-05-25T00:00:23.182147+00:00,approved,active,Albania,community,osm_venues_al_v4,al_00242,al_venues_batch_v4,2026-05-25T00:00:23.182147+00:00,osm_import_terminal_v4,{},venue
Bar & Restorant Colombo,Rruga Haxhi Hysen Dalliu,,,,,,,41.3354656,19.8145256,2026-05-25T00:00:23.182147+00:00,approved,active,Albania,community,osm_venues_al_v4,al_00243,al_venues_batch_v4,2026-05-25T00:00:23.182147+00:00,osm_import_terminal_v4,{},venue
Baron Bar,Rruga Don Bosko,,,,,,,41.3393868,19.8029342,2026-05-25T00:00:23.182147+00:00,approved,active,Albania,community,osm_venues_al_v4,al_00244,al_venues_batch_v4,2026-05-25T00:00:23.182147+00:00,osm_import_terminal_v4,{},venue
Top Sport Bar & Lloto,Rruga Nikolla Tupe,,,,,,,41.3194566,19.8148723,2026-05-25T00:00:23.182147+00:00,approved,active,Albania,community,osm_venues_al_v4,al_00245,al_venues_batch_v4,2026-05-25T00:00:23.182147+00:00,osm_import_terminal_v4,{},venue
Bar Ilirian,Rruga Don Bosko,,,,,,,41.3394154,19.8030034,2026-05-25T00:00:23.182147+00:00,approved,active,Albania,community,osm_venues_al_v4,al_00246,al_venues_batch_v4,2026-05-25T00:00:23.182147+00:00,osm_import_terminal_v4,{},venue
Bar & Restorant & Pizzeri Berluscon,Rruga Don Bosko,,,,,,,41.339513,19.8031006,2026-05-25T00:00:23.182147+00:00,approved,active,Albania,community,osm_venues_al_v4,al_00247,al_venues_batch_v4,2026-05-25T00:00:23.182147+00:00,osm_import_terminal_v4,{},venue
Bar Kafe,,,,,,,,42.0723727,19.5149669,2026-05-25T00:00:23.182147+00:00,approved,active,Albania,community,osm_venues_al_v4,al_00248,al_venues_batch_v4,2026-05-25T00:00:23.182147+00:00,osm_import_terminal_v4,{},venue
Baron's Bar,Shoqeria Bashkimi,,,,,,,41.3212314,19.4467291,2026-05-25T00:00:23.182147+00:00,approved,active,Albania,community,osm_venues_al_v4,al_00249,al_venues_batch_v4,2026-05-25T00:00:23.182147+00:00,osm_import_terminal_v4,{},venue
Bar Pizzeri Lulishtja,,,,,,,,41.3481405,19.8600039,2026-05-25T00:00:23.182147+00:00,approved,active,Albania,community,osm_venues_al_v4,al_00250,al_venues_batch_v4,2026-05-25T00:00:23.182147+00:00,osm_import_terminal_v4,{},venue
Beach bar AMH Hotel,,,,2001,,,,41.3056041,19.4896416,2026-05-25T00:00:23.182147+00:00,approved,active,Albania,community,osm_venues_al_v4,al_00251,al_venues_batch_v4,2026-05-25T00:00:23.182147+00:00,osm_import_terminal_v4,{},venue
Ennio Bar,,,,,,,,41.317311,19.8106928,2026-05-25T00:00:23.182147+00:00,approved,active,Albania,community,osm_venues_al_v4,al_00252,al_venues_batch_v4,2026-05-25T00:00:23.182147+00:00,osm_import_terminal_v4,{},venue
Bar Quaranta,Rruga Pjetër Budi,Tirana,,,,,,41.3213729,19.833552,2026-05-25T00:00:23.182147+00:00,approved,active,Albania,community,osm_venues_al_v4,al_00253,al_venues_batch_v4,2026-05-25T00:00:23.182147+00:00,osm_import_terminal_v4,{},venue
Bar Saccaria,Rruga Pjetër Budi,Tirane,,1001,,,,41.3210638,19.8345065,2026-05-25T00:00:23.182147+00:00,approved,active,Albania,community,osm_venues_al_v4,al_00254,al_venues_batch_v4,2026-05-25T00:00:23.182147+00:00,osm_import_terminal_v4,{},venue
Bar Monopoly,Rruga Pjetër Budi,Tirane,,1001,,,,41.3213757,19.8345638,2026-05-25T00:00:23.182147+00:00,approved,active,Albania,community,osm_venues_al_v4,al_00255,al_venues_batch_v4,2026-05-25T00:00:23.182147+00:00,osm_import_terminal_v4,{},venue
Bar Iris,Rruga Pjetër Budi,Tirane,,1001,,,,41.321299,19.8348481,2026-05-25T00:00:23.182147+00:00,approved,active,Albania,community,osm_venues_al_v4,al_00256,al_venues_batch_v4,2026-05-25T00:00:23.182147+00:00,osm_import_terminal_v4,{},venue
Bar Brooklyn,Rruga Pjetër Budi,Tirana,,,,,,41.3204391,19.8392032,2026-05-25T00:00:23.182147+00:00,approved,active,Albania,community,osm_venues_al_v4,al_00257,al_venues_batch_v4,2026-05-25T00:00:23.182147+00:00,osm_import_terminal_v4,{},venue
Rio bar,Rruga Ali Pashë Guxia,,,,,,,41.3353969,19.8242499,2026-05-25T00:00:23.182147+00:00,approved,active,Albania,community,osm_venues_al_v4,al_00258,al_venues_batch_v4,2026-05-25T00:00:23.182147+00:00,osm_import_terminal_v4,{},venue
Bar Kafe Alesio,Rruga Lord Bajron,,,,,,,41.3380171,19.793107,2026-05-25T00:00:23.182147+00:00,approved,active,Albania,community,osm_venues_al_v4,al_00259,al_venues_batch_v4,2026-05-25T00:00:23.182147+00:00,osm_import_terminal_v4,{},venue
Bar Kafe Living Room,Rruga Mustafa Lleshi,Tirana,,1000,,,,41.3242735,19.8259272,2026-05-25T00:00:23.182147+00:00,approved,active,Albania,community,osm_venues_al_v4,al_00260,al_venues_batch_v4,2026-05-25T00:00:23.182147+00:00,osm_import_terminal_v4,{},venue
Zodiac Bar,,,,,,,,42.0686402,19.5122615,2026-05-25T00:00:23.182147+00:00,approved,active,Albania,community,osm_venues_al_v4,al_00261,al_venues_batch_v4,2026-05-25T00:00:23.182147+00:00,osm_import_terminal_v4,{},venue
Domus Bar,,,,,,,,41.3293989,19.8310639,2026-05-25T00:00:23.182147+00:00,approved,active,Albania,community,osm_venues_al_v4,al_00262,al_venues_batch_v4,2026-05-25T00:00:23.182147+00:00,osm_import_terminal_v4,{},venue
DiSti bar,101 Rruga Bardhyl,,,1000,00355695603949,,,41.3343403,19.8328237,2026-05-25T00:00:23.182147+00:00,approved,active,Albania,community,osm_venues_al_v4,al_00263,al_venues_batch_v4,2026-05-25T00:00:23.182147+00:00,osm_import_terminal_v4,{},venue
Kevin Bar,George W. Bush,,,,,,,41.3264386,19.8257839,2026-05-25T00:00:23.182147+00:00,approved,active,Albania,community,osm_venues_al_v4,al_00264,al_venues_batch_v4,2026-05-25T00:00:23.182147+00:00,osm_import_terminal_v4,{},venue
Flaer Bar,,,,,,,,42.0544891,19.4983364,2026-05-25T00:00:23.182147+00:00,approved,active,Albania,community,osm_venues_al_v4,al_00265,al_venues_batch_v4,2026-05-25T00:00:23.182147+00:00,osm_import_terminal_v4,{},venue
DiSti Bar,100 Rruga Bardhyl,,,1000,00355695603949,,,41.3340223,19.8334054,2026-05-25T00:00:23.182147+00:00,approved,active,Albania,community,osm_venues_al_v4,al_00266,al_venues_batch_v4,2026-05-25T00:00:23.182147+00:00,osm_import_terminal_v4,{},venue
Rooms Bistro & Bar,,,,,,,,41.3200003,19.8138692,2026-05-25T00:00:23.182147+00:00,approved,active,Albania,community,osm_venues_al_v4,al_00267,al_venues_batch_v4,2026-05-25T00:00:23.182147+00:00,osm_import_terminal_v4,{},venue
Bar Bardhi,Rruga Miftar Gërbolli,,,1001,,,,41.3416173,19.801108,2026-05-25T00:00:23.182147+00:00,approved,active,Albania,community,osm_venues_al_v4,al_00268,al_venues_batch_v4,2026-05-25T00:00:23.182147+00:00,osm_import_terminal_v4,{},venue
Mon Amour Bar,Rruga e Barrikadave,Tirana,,,,,,41.3316639,19.8203481,2026-05-25T00:00:23.182147+00:00,approved,active,Albania,community,osm_venues_al_v4,al_00269,al_venues_batch_v4,2026-05-25T00:00:23.182147+00:00,osm_import_terminal_v4,{},venue
Class Bar,,Tirana,,,,,,41.3224781,19.8497862,2026-05-25T00:00:23.182147+00:00,approved,active,Albania,community,osm_venues_al_v4,al_00270,al_venues_batch_v4,2026-05-25T00:00:23.182147+00:00,osm_import_terminal_v4,{},venue
Rizai Bar & Restaurant,"Rruga Pavarësia, Lagja 13",Durrës,,,,,,41.3137769,19.4755313,2026-05-25T00:00:23.182147+00:00,approved,active,Albania,community,osm_venues_al_v4,al_00271,al_venues_batch_v4,2026-05-25T00:00:23.182147+00:00,osm_import_terminal_v4,{},venue
Kafe Bar Besi,Sulejman Delvina,Tirana,,,,,,41.3188154,19.8124335,2026-05-25T00:00:23.182147+00:00,approved,active,Albania,community,osm_venues_al_v4,al_00272,al_venues_batch_v4,2026-05-25T00:00:23.182147+00:00,osm_import_terminal_v4,{},venue
Bar Umivers,,Tirana,,,,,,41.3329428,19.7823715,2026-05-25T00:00:23.182147+00:00,approved,active,Albania,community,osm_venues_al_v4,al_00273,al_venues_batch_v4,2026-05-25T00:00:23.182147+00:00,osm_import_terminal_v4,{},venue
Irish Pub Dublin,,,,,,,,41.1090118,20.8056768,2026-05-25T00:00:23.182147+00:00,approved,active,Albania,community,osm_venues_al_v4,al_00274,al_venues_batch_v4,2026-05-25T00:00:23.182147+00:00,osm_import_terminal_v4,{},venue
Wake Up Bar,Rruga Belul Hatibi,,,1001,,,,41.3441261,19.8417885,2026-05-25T00:00:23.182147+00:00,approved,active,Albania,community,osm_venues_al_v4,al_00275,al_venues_batch_v4,2026-05-25T00:00:23.182147+00:00,osm_import_terminal_v4,{},venue
Bar D'Anvers,,,,,,,,41.3222301,19.8297756,2026-05-25T00:00:23.182147+00:00,approved,active,Albania,community,osm_venues_al_v4,al_00276,al_venues_batch_v4,2026-05-25T00:00:23.182147+00:00,osm_import_terminal_v4,{},venue
Wilson Lounge Bar,Rruga Abdyl Frashëri,,,,,,,41.3188026,19.814898,2026-05-25T00:00:23.182147+00:00,approved,active,Albania,community,osm_venues_al_v4,al_00277,al_venues_batch_v4,2026-05-25T00:00:23.182147+00:00,osm_import_terminal_v4,{},venue
Belgian Beer Bar,Rruga Ibrahim Rugova,,,,,,,41.319663,19.81846,2026-05-25T00:00:23.182147+00:00,approved,active,Albania,community,osm_venues_al_v4,al_00278,al_venues_batch_v4,2026-05-25T00:00:23.182147+00:00,osm_import_terminal_v4,{},venue
Bar My Way,Rruga Pjetër Bogdani,,,,,,,41.3210638,19.8143255,2026-05-25T00:00:23.182147+00:00,approved,active,Albania,community,osm_venues_al_v4,al_00279,al_venues_batch_v4,2026-05-25T00:00:23.182147+00:00,osm_import_terminal_v4,{},venue
Jasmin Bar,Rruga Don Bosko,,,,,,,41.3396355,19.8029372,2026-05-25T00:00:23.182147+00:00,approved,active,Albania,community,osm_venues_al_v4,al_00280,al_venues_batch_v4,2026-05-25T00:00:23.182147+00:00,osm_import_terminal_v4,{},venue
Mapo's Irish Pub,,,,,,,,40.6171209,20.7792637,2026-05-25T00:00:23.182147+00:00,approved,active,Albania,community,osm_venues_al_v4,al_00281,al_venues_batch_v4,2026-05-25T00:00:23.182147+00:00,osm_import_terminal_v4,{},venue
Letnica Kitchen & Bar,,,,,,,,41.1133047,20.799568,2026-05-25T00:00:23.182147+00:00,approved,active,Albania,community,osm_venues_al_v4,al_00282,al_venues_batch_v4,2026-05-25T00:00:23.182147+00:00,osm_import_terminal_v4,{},venue
Bardhi,,,,,,,,41.3474325,19.8450382,2026-05-25T00:00:23.182147+00:00,approved,active,Albania,community,osm_venues_al_v4,al_00283,al_venues_batch_v4,2026-05-25T00:00:23.182147+00:00,osm_import_terminal_v4,{},venue
Basic snack bar,,,,,,,,41.3462767,19.8554455,2026-05-25T00:00:23.182147+00:00,approved,active,Albania,community,osm_venues_al_v4,al_00284,al_venues_batch_v4,2026-05-25T00:00:23.182147+00:00,osm_import_terminal_v4,{},venue
Emma Bar,,,,,,,,41.3551626,19.7750166,2026-05-25T00:00:23.182147+00:00,approved,active,Albania,community,osm_venues_al_v4,al_00285,al_venues_batch_v4,2026-05-25T00:00:23.182147+00:00,osm_import_terminal_v4,{},venue
Talo Bar,,,,,,,,40.6101589,20.7777764,2026-05-25T00:00:23.182147+00:00,approved,active,Albania,community,osm_venues_al_v4,al_00286,al_venues_batch_v4,2026-05-25T00:00:23.182147+00:00,osm_import_terminal_v4,{},venue
Bar Class,Karl Gega,Tirana,,,,,,41.3357845,19.8138326,2026-05-25T00:00:23.182147+00:00,approved,active,Albania,community,osm_venues_al_v4,al_00287,al_venues_batch_v4,2026-05-25T00:00:23.182147+00:00,osm_import_terminal_v4,{},venue
Bar OSLO,Taulantia,,,2000,+355 68 208 0199,,,41.3109432,19.4414013,2026-05-25T00:00:23.182147+00:00,approved,active,Albania,community,osm_venues_al_v4,al_00288,al_venues_batch_v4,2026-05-25T00:00:23.182147+00:00,osm_import_terminal_v4,{},venue
Sfinks Bar Gelateri,Taulantia,Durrës,,,,,,41.3107519,19.4364504,2026-05-25T00:00:23.182147+00:00,approved,active,Albania,community,osm_venues_al_v4,al_00289,al_venues_batch_v4,2026-05-25T00:00:23.182147+00:00,osm_import_terminal_v4,{},venue
Whisky Bar Tirana,Rruga Ibrahim Rugova,Tiranë,,1001,,,,41.3201034,19.8185698,2026-05-25T00:00:23.182147+00:00,approved,active,Albania,community,osm_venues_al_v4,al_00290,al_venues_batch_v4,2026-05-25T00:00:23.182147+00:00,osm_import_terminal_v4,{},venue
Bar,,,,,,,,41.3976606,19.8303695,2026-05-25T00:00:23.182147+00:00,approved,active,Albania,community,osm_venues_al_v4,al_00291,al_venues_batch_v4,2026-05-25T00:00:23.182147+00:00,osm_import_terminal_v4,{},venue
Bar Milano,Rruga Hajredin Haxhiraj,,,,,,,40.4670761,19.4856703,2026-05-25T00:00:23.182147+00:00,approved,active,Albania,community,osm_venues_al_v4,al_00292,al_venues_batch_v4,2026-05-25T00:00:23.182147+00:00,osm_import_terminal_v4,{},venue
Small Bar Tirana,,,,,,,,41.3210188,19.8142901,2026-05-25T00:00:23.182147+00:00,approved,active,Albania,community,osm_venues_al_v4,al_00293,al_venues_batch_v4,2026-05-25T00:00:23.182147+00:00,osm_import_terminal_v4,{},venue
Bar Antia,,,,,,,,41.3431259,19.8453213,2026-05-25T00:00:23.182147+00:00,approved,active,Albania,community,osm_venues_al_v4,al_00294,al_venues_batch_v4,2026-05-25T00:00:23.182147+00:00,osm_import_terminal_v4,{},venue
City Bar,Rruga Bardhyl,,,,,,,41.3379116,19.8303907,2026-05-25T00:00:23.182147+00:00,approved,active,Albania,community,osm_venues_al_v4,al_00295,al_venues_batch_v4,2026-05-25T00:00:23.182147+00:00,osm_import_terminal_v4,{},venue
Angolo bar,Rruga Kont Leopold Bertold,,,,,,,41.3293979,19.8344676,2026-05-25T00:00:23.182147+00:00,approved,active,Albania,community,osm_venues_al_v4,al_00296,al_venues_batch_v4,2026-05-25T00:00:23.182147+00:00,osm_import_terminal_v4,{},venue
Vin's Bar & Lounge,Rruga Ali Demi,,,,,,,41.3276204,19.8344348,2026-05-25T00:00:23.182147+00:00,approved,active,Albania,community,osm_venues_al_v4,al_00297,al_venues_batch_v4,2026-05-25T00:00:23.182147+00:00,osm_import_terminal_v4,{},venue
Bar Kruja,Rruga Odhise Paskali,,,,,,,41.3346838,19.8336871,2026-05-25T00:00:23.182147+00:00,approved,active,Albania,community,osm_venues_al_v4,al_00298,al_venues_batch_v4,2026-05-25T00:00:23.182147+00:00,osm_import_terminal_v4,{},venue
Bar Kafe Number 1,Rruga Hysen Xhura,Tirana,,,,,,41.3434339,19.8451294,2026-05-25T00:00:23.182147+00:00,approved,active,Albania,community,osm_venues_al_v4,al_00299,al_venues_batch_v4,2026-05-25T00:00:23.182147+00:00,osm_import_terminal_v4,{},venue
Zeribar,,Tirana,,,,,,41.3429549,19.8458981,2026-05-25T00:00:23.182147+00:00,approved,active,Albania,community,osm_venues_al_v4,al_00300,al_venues_batch_v4,2026-05-25T00:00:23.182147+00:00,osm_import_terminal_v4,{},venue
Go Bar,Rruga Xhanfize Keko,,,,,,,41.3400231,19.8432076,2026-05-25T00:00:23.182147+00:00,approved,active,Albania,community,osm_venues_al_v4,al_00301,al_venues_batch_v4,2026-05-25T00:00:23.182147+00:00,osm_import_terminal_v4,{},venue
Bar Dolce,Rruga Zihni Sako,,,,,,,41.3399531,19.8427261,2026-05-25T00:00:23.182147+00:00,approved,active,Albania,community,osm_venues_al_v4,al_00302,al_venues_batch_v4,2026-05-25T00:00:23.182147+00:00,osm_import_terminal_v4,{},venue
Only Bar,Rruga Belul Hatibi,,,,,,,41.3434923,19.8403665,2026-05-25T00:00:23.182147+00:00,approved,active,Albania,community,osm_venues_al_v4,al_00303,al_venues_batch_v4,2026-05-25T00:00:23.182147+00:00,osm_import_terminal_v4,{},venue
Crown Bar,Rruga Agush Gjergjevica,,,,,,,41.326714,19.8651937,2026-05-25T00:00:23.182147+00:00,approved,active,Albania,community,osm_venues_al_v4,al_00304,al_venues_batch_v4,2026-05-25T00:00:23.182147+00:00,osm_import_terminal_v4,{},venue
Bar Kafe Anna,Rruga Pjetër Budi,,,,,,,41.3214778,19.8453373,2026-05-25T00:00:23.182147+00:00,approved,active,Albania,community,osm_venues_al_v4,al_00305,al_venues_batch_v4,2026-05-25T00:00:23.182147+00:00,osm_import_terminal_v4,{},venue
Bar Bilardo Luis,Rruga Pjetër Budi,,,,,,,41.3203185,19.8413488,2026-05-25T00:00:23.182147+00:00,approved,active,Albania,community,osm_venues_al_v4,al_00306,al_venues_batch_v4,2026-05-25T00:00:23.182147+00:00,osm_import_terminal_v4,{},venue
Bar Lounge One,5 Bulevardi Zhan d'Ark,,,,,,,41.3312287,19.8373872,2026-05-25T00:00:23.182147+00:00,approved,active,Albania,community,osm_venues_al_v4,al_00307,al_venues_batch_v4,2026-05-25T00:00:23.182147+00:00,osm_import_terminal_v4,{},venue
Bar Cafe Mei,Rruga Xhanfize Keko,,,,,,,41.3342488,19.8345193,2026-05-25T00:00:23.182147+00:00,approved,active,Albania,community,osm_venues_al_v4,al_00308,al_venues_batch_v4,2026-05-25T00:00:23.182147+00:00,osm_import_terminal_v4,{},venue
"Bar Kafe ""Lulishte""",Rruga Dr. Shefqet Ndroqi,Tirana,,,,,,41.3127021,19.8439232,2026-05-25T00:00:23.182147+00:00,approved,active,Albania,community,osm_venues_al_v4,al_00309,al_venues_batch_v4,2026-05-25T00:00:23.182147+00:00,osm_import_terminal_v4,{},venue
Bar Milano,Rruga Adem Jashari,,,,,,,41.3221486,19.4670103,2026-05-25T00:00:23.182147+00:00,approved,active,Albania,community,osm_venues_al_v4,al_00310,al_venues_batch_v4,2026-05-25T00:00:23.182147+00:00,osm_import_terminal_v4,{},venue
Bar Milenium,Rruga Petro Nini Luarasi,,,,,,,41.3257371,19.8311276,2026-05-25T00:00:23.182147+00:00,approved,active,Albania,community,osm_venues_al_v4,al_00311,al_venues_batch_v4,2026-05-25T00:00:23.182147+00:00,osm_import_terminal_v4,{},venue
Bar Britaniku,Rruga Todi Shkurti,,,,,,,41.3253458,19.8330789,2026-05-25T00:00:23.182147+00:00,approved,active,Albania,community,osm_venues_al_v4,al_00312,al_venues_batch_v4,2026-05-25T00:00:23.182147+00:00,osm_import_terminal_v4,{},venue
Bar Lenia,Rruga Petrit Llaftiu,,,,,,,41.3354704,19.4494797,2026-05-25T00:00:23.182147+00:00,approved,active,Albania,community,osm_venues_al_v4,al_00313,al_venues_batch_v4,2026-05-25T00:00:23.182147+00:00,osm_import_terminal_v4,{},venue
Meze Bar 10,,,,,,,,41.1141181,20.8110765,2026-05-25T00:00:23.182147+00:00,approved,active,Albania,community,osm_venues_al_v4,al_00314,al_venues_batch_v4,2026-05-25T00:00:23.182147+00:00,osm_import_terminal_v4,{},venue
Bar Planet,Rruga Teodor Keko,,,,,,,41.3350218,19.7834503,2026-05-25T00:00:23.182147+00:00,approved,active,Albania,community,osm_venues_al_v4,al_00315,al_venues_batch_v4,2026-05-25T00:00:23.182147+00:00,osm_import_terminal_v4,{},venue
Eldo Bar,Rruga Petrit Llaftiu,,,,,,,41.3331989,19.4511202,2026-05-25T00:00:23.182147+00:00,approved,active,Albania,community,osm_venues_al_v4,al_00316,al_venues_batch_v4,2026-05-25T00:00:23.182147+00:00,osm_import_terminal_v4,{},venue
Bar Isi,Rruga Bajram Tusha,,,,,,,41.3273888,19.4886531,2026-05-25T00:00:23.182147+00:00,approved,active,Albania,community,osm_venues_al_v4,al_00317,al_venues_batch_v4,2026-05-25T00:00:23.182147+00:00,osm_import_terminal_v4,{},venue
Sport Bar Bilardo,Rruga Petrit Llaftiu,,,,,,,41.3339215,19.4506368,2026-05-25T00:00:23.182147+00:00,approved,active,Albania,community,osm_venues_al_v4,al_00318,al_venues_batch_v4,2026-05-25T00:00:23.182147+00:00,osm_import_terminal_v4,{},venue
Bar Lila,Rruga Bajram Tusha,,,,,,,41.326636,19.4880683,2026-05-25T00:00:23.182147+00:00,approved,active,Albania,community,osm_venues_al_v4,al_00319,al_venues_batch_v4,2026-05-25T00:00:23.182147+00:00,osm_import_terminal_v4,{},venue
Bar Mustafa,Rruga Demokracia,,,,,,,40.4764968,19.4890729,2026-05-25T00:00:23.182147+00:00,approved,active,Albania,community,osm_venues_al_v4,al_00320,al_venues_batch_v4,2026-05-25T00:00:23.182147+00:00,osm_import_terminal_v4,{},venue
Union Bar,,,,,,,,41.3159954,19.7713653,2026-05-25T00:00:23.182147+00:00,approved,active,Albania,community,osm_venues_al_v4,al_00321,al_venues_batch_v4,2026-05-25T00:00:23.182147+00:00,osm_import_terminal_v4,{},venue
Union Bar,Rruga Llazi Miho,Tirana,,,,,,41.3145681,19.7694227,2026-05-25T00:00:23.182147+00:00,approved,active,Albania,community,osm_venues_al_v4,al_00322,al_venues_batch_v4,2026-05-25T00:00:23.182147+00:00,osm_import_terminal_v4,{},venue
Bar Kafe Moni,,,,,,,,41.3289178,19.8243379,2026-05-25T00:00:23.182147+00:00,approved,active,Albania,community,osm_venues_al_v4,al_00323,al_venues_batch_v4,2026-05-25T00:00:23.182147+00:00,osm_import_terminal_v4,{},venue
Barcode,,,,,,,,41.3260879,19.8157849,2026-05-25T00:00:23.182147+00:00,approved,active,Albania,community,osm_venues_al_v4,al_00324,al_venues_batch_v4,2026-05-25T00:00:23.182147+00:00,osm_import_terminal_v4,{},venue
Bar Kafe,Rruga Sadik Petrela,,,,,,,41.3356117,19.8466951,2026-05-25T00:00:23.182147+00:00,approved,active,Albania,community,osm_venues_al_v4,al_00325,al_venues_batch_v4,2026-05-25T00:00:23.182147+00:00,osm_import_terminal_v4,{},venue
Mazrreku Bar Kafe,Rruga Universi,,,,,,,41.3417006,19.4798233,2026-05-25T00:00:23.182147+00:00,approved,active,Albania,community,osm_venues_al_v4,al_00326,al_venues_batch_v4,2026-05-25T00:00:23.182147+00:00,osm_import_terminal_v4,{},venue
Univers Bar,Rruga Vath Turja,,,,,,,41.329418,19.4919227,2026-05-25T00:00:23.182147+00:00,approved,active,Albania,community,osm_venues_al_v4,al_00327,al_venues_batch_v4,2026-05-25T00:00:23.182147+00:00,osm_import_terminal_v4,{},venue
Bar Caffe Polis,Rruga Bajram Tusha,,,,,,,41.3230732,19.4814567,2026-05-25T00:00:23.182147+00:00,approved,active,Albania,community,osm_venues_al_v4,al_00328,al_venues_batch_v4,2026-05-25T00:00:23.182147+00:00,osm_import_terminal_v4,{},venue
Winners Sport Bar,Rruga Pavarësia,,,,,,,40.4570818,19.4875641,2026-05-25T00:00:23.182147+00:00,approved,active,Albania,community,osm_venues_al_v4,al_00329,al_venues_batch_v4,2026-05-25T00:00:23.182147+00:00,osm_import_terminal_v4,{},venue
Bar Bilardio,Rruga Pavarësia,,,,,,,40.4570216,19.4875453,2026-05-25T00:00:23.182147+00:00,approved,active,Albania,community,osm_venues_al_v4,al_00330,al_venues_batch_v4,2026-05-25T00:00:23.182147+00:00,osm_import_terminal_v4,{},venue
Barcelona Bar,Rruga Pavarësia,,,,,,,40.466062,19.4901377,2026-05-25T00:00:23.182147+00:00,approved,active,Albania,community,osm_venues_al_v4,al_00331,al_venues_batch_v4,2026-05-25T00:00:23.182147+00:00,osm_import_terminal_v4,{},venue
Baron's,,,,,,,,41.3186808,19.4500796,2026-05-25T00:00:23.182147+00:00,approved,active,Albania,community,osm_venues_al_v4,al_00332,al_venues_batch_v4,2026-05-25T00:00:23.182147+00:00,osm_import_terminal_v4,{},venue
DEA Bar,,,,,,,,41.3342397,19.7773889,2026-05-25T00:00:23.182147+00:00,approved,active,Albania,community,osm_venues_al_v4,al_00333,al_venues_batch_v4,2026-05-25T00:00:23.182147+00:00,osm_import_terminal_v4,{},venue
Rege's Bar,Rruga Fehmi Agani,,,,,,,41.33898,19.7818836,2026-05-25T00:00:23.182147+00:00,approved,active,Albania,community,osm_venues_al_v4,al_00334,al_venues_batch_v4,2026-05-25T00:00:23.182147+00:00,osm_import_terminal_v4,{},venue
The bar,,,,,,,,40.4566099,19.4870076,2026-05-25T00:00:23.182147+00:00,approved,active,Albania,community,osm_venues_al_v4,al_00335,al_venues_batch_v4,2026-05-25T00:00:23.182147+00:00,osm_import_terminal_v4,{},venue
Monk's Bar,,,,,,,,41.3297141,19.7762597,2026-05-25T00:00:23.182147+00:00,approved,active,Albania,community,osm_venues_al_v4,al_00336,al_venues_batch_v4,2026-05-25T00:00:23.182147+00:00,osm_import_terminal_v4,{},venue
Bar Kristi,,,,,,,,41.3310636,19.777472,2026-05-25T00:00:23.182147+00:00,approved,active,Albania,community,osm_venues_al_v4,al_00337,al_venues_batch_v4,2026-05-25T00:00:23.182147+00:00,osm_import_terminal_v4,{},venue
Bar Kafe Germenka,,,,,,,,41.3582591,19.8450885,2026-05-25T00:00:23.182147+00:00,approved,active,Albania,community,osm_venues_al_v4,al_00338,al_venues_batch_v4,2026-05-25T00:00:23.182147+00:00,osm_import_terminal_v4,{},venue
Barcelona,,,,,,,,40.4660512,19.4902931,2026-05-25T00:00:23.182147+00:00,approved,active,Albania,community,osm_venues_al_v4,al_00339,al_venues_batch_v4,2026-05-25T00:00:23.182147+00:00,osm_import_terminal_v4,{},venue
Gold Bar-Lounge,Tom Plezha,,,,,,,41.3309598,19.7800496,2026-05-25T00:00:23.182147+00:00,approved,active,Albania,community,osm_venues_al_v4,al_00340,al_venues_batch_v4,2026-05-25T00:00:23.182147+00:00,osm_import_terminal_v4,{},venue
Bar Kafe Gead,Tom Plezha,,,,,,,41.3321965,19.7788708,2026-05-25T00:00:23.182147+00:00,approved,active,Albania,community,osm_venues_al_v4,al_00341,al_venues_batch_v4,2026-05-25T00:00:23.182147+00:00,osm_import_terminal_v4,{},venue
Barca,,,,,,,,40.4731148,19.4926567,2026-05-25T00:00:23.182147+00:00,approved,active,Albania,community,osm_venues_al_v4,al_00342,al_venues_batch_v4,2026-05-25T00:00:23.182147+00:00,osm_import_terminal_v4,{},venue
Sport bar ani,,,,,,,,40.4712649,19.4882615,2026-05-25T00:00:23.182147+00:00,approved,active,Albania,community,osm_venues_al_v4,al_00343,al_venues_batch_v4,2026-05-25T00:00:23.182147+00:00,osm_import_terminal_v4,{},venue
Bar Aleanca,Shëtitorja Murat Toptani,,,,,,,41.3260157,19.8202915,2026-05-25T00:00:23.182147+00:00,approved,active,Albania,community,osm_venues_al_v4,al_00344,al_venues_batch_v4,2026-05-25T00:00:23.182147+00:00,osm_import_terminal_v4,{},venue
Piceri Bar Cafe,Rruga Vangjel Noti,Tirana,,,,,,41.3440187,19.7878067,2026-05-25T00:00:23.182147+00:00,approved,active,Albania,community,osm_venues_al_v4,al_00345,al_venues_batch_v4,2026-05-25T00:00:23.182147+00:00,osm_import_terminal_v4,{},venue
Bar Restorant F. Feimi,Rruga Sazani,Vlorë,,9404,+355695293779,,,40.4577905,19.4706628,2026-05-25T00:00:23.182147+00:00,approved,active,Albania,community,osm_venues_al_v4,al_00346,al_venues_batch_v4,2026-05-25T00:00:23.182147+00:00,osm_import_terminal_v4,{},venue
Bar Bufe,,,,,,,,40.4735534,19.4844714,2026-05-25T00:00:23.182147+00:00,approved,active,Albania,community,osm_venues_al_v4,al_00347,al_venues_batch_v4,2026-05-25T00:00:23.182147+00:00,osm_import_terminal_v4,{},venue
Don Lounge Bar,Bulevardi Mehmet Pashë Plaku,Shkodër,,4001,,,,42.0607179,19.5108356,2026-05-25T00:00:23.182147+00:00,approved,active,Albania,community,osm_venues_al_v4,al_00348,al_venues_batch_v4,2026-05-25T00:00:23.182147+00:00,osm_import_terminal_v4,{},venue
Palma e Arte Lounge Bar,Bulevardi Bajram Curri,,,0001,00355682035826,,,41.3216332,19.8082361,2026-05-25T00:00:23.182147+00:00,approved,active,Albania,community,osm_venues_al_v4,al_00349,al_venues_batch_v4,2026-05-25T00:00:23.182147+00:00,osm_import_terminal_v4,{},venue
Bar Oslo,,,,,,,,41.3319392,19.7834584,2026-05-25T00:00:23.182147+00:00,approved,active,Albania,community,osm_venues_al_v4,al_00350,al_venues_batch_v4,2026-05-25T00:00:23.182147+00:00,osm_import_terminal_v4,{},venue
Bar Xhoni,Rruga Teodor Keko,Tirana,,,,,,41.3347297,19.7825795,2026-05-25T00:00:23.182147+00:00,approved,active,Albania,community,osm_venues_al_v4,al_00351,al_venues_batch_v4,2026-05-25T00:00:23.182147+00:00,osm_import_terminal_v4,{},venue
Henri BAR,Rruga Gramoz Pashko,Tirana,,,,,,41.3180868,19.8376574,2026-05-25T00:00:23.182147+00:00,approved,active,Albania,community,osm_venues_al_v4,al_00352,al_venues_batch_v4,2026-05-25T00:00:23.182147+00:00,osm_import_terminal_v4,{},venue
Cataluña Lounge Bar,Rruga Muhamet Gjollesha,Tirana,,1001,+355 69 753 9575,https://www.instagram.com/catalunabar_/,,41.3311883,19.8040487,2026-05-25T00:00:23.182147+00:00,approved,active,Albania,community,osm_venues_al_v4,al_00353,al_venues_batch_v4,2026-05-25T00:00:23.182147+00:00,osm_import_terminal_v4,{},venue
Bar Biss,,,,,,,,41.3324073,19.7814055,2026-05-25T00:00:23.182147+00:00,approved,active,Albania,community,osm_venues_al_v4,al_00354,al_venues_batch_v4,2026-05-25T00:00:23.182147+00:00,osm_import_terminal_v4,{},venue
Bar Oniro,,,,,,,,41.3343379,19.7780635,2026-05-25T00:00:23.182147+00:00,approved,active,Albania,community,osm_venues_al_v4,al_00355,al_venues_batch_v4,2026-05-25T00:00:23.182147+00:00,osm_import_terminal_v4,{},venue
Queen's Pub Korce,Bulevardi Republika,Korçë,,,,,,40.6178117,20.7825165,2026-05-25T00:00:23.182147+00:00,approved,active,Albania,community,osm_venues_al_v4,al_00356,al_venues_batch_v4,2026-05-25T00:00:23.182147+00:00,osm_import_terminal_v4,{},venue
GT Bar,,,,,,,,41.3200576,19.8142628,2026-05-25T00:00:23.182147+00:00,approved,active,Albania,community,osm_venues_al_v4,al_00357,al_venues_batch_v4,2026-05-25T00:00:23.182147+00:00,osm_import_terminal_v4,{},venue
Bar Kings,,,,,,,,41.3236099,19.8367254,2026-05-25T00:00:23.182147+00:00,approved,active,Albania,community,osm_venues_al_v4,al_00358,al_venues_batch_v4,2026-05-25T00:00:23.182147+00:00,osm_import_terminal_v4,{},venue
Wood Green Bar & Longue,Rruga Dervish Hatixhe,Tirana,,,,,,41.3331971,19.8175513,2026-05-25T00:00:23.182147+00:00,approved,active,Albania,community,osm_venues_al_v4,al_00359,al_venues_batch_v4,2026-05-25T00:00:23.182147+00:00,osm_import_terminal_v4,{},venue
Bar Pizzeri Hallaci,,,,,,,,41.3703368,19.7687575,2026-05-25T00:00:23.182147+00:00,approved,active,Albania,community,osm_venues_al_v4,al_00360,al_venues_batch_v4,2026-05-25T00:00:23.182147+00:00,osm_import_terminal_v4,{},venue
Bar Palma,,,,,,,,41.3334073,19.8404721,2026-05-25T00:00:23.182147+00:00,approved,active,Albania,community,osm_venues_al_v4,al_00361,al_venues_batch_v4,2026-05-25T00:00:23.182147+00:00,osm_import_terminal_v4,{},venue
Golden Bar,,,,,,,,41.3495703,19.8589974,2026-05-25T00:00:23.182147+00:00,approved,active,Albania,community,osm_venues_al_v4,al_00362,al_venues_batch_v4,2026-05-25T00:00:23.182147+00:00,osm_import_terminal_v4,{},venue
BarKafe Palma,,,,,,,,41.3335065,19.8395773,2026-05-25T00:00:23.182147+00:00,approved,active,Albania,community,osm_venues_al_v4,al_00363,al_venues_batch_v4,2026-05-25T00:00:23.182147+00:00,osm_import_terminal_v4,{},venue
Cheers Irish Pub,Rruga Pjetër Bogdani,Tirana,,,,,,41.321182,19.8140826,2026-05-25T00:00:23.182147+00:00,approved,active,Albania,community,osm_venues_al_v4,al_00364,al_venues_batch_v4,2026-05-25T00:00:23.182147+00:00,osm_import_terminal_v4,{},venue
Bar Kafe,,,,,,,,42.0582398,19.5053452,2026-05-25T00:00:23.182147+00:00,approved,active,Albania,community,osm_venues_al_v4,al_00365,al_venues_batch_v4,2026-05-25T00:00:23.182147+00:00,osm_import_terminal_v4,{},venue
Bar Kafe,,,,,,,,42.057609,19.5116155,2026-05-25T00:00:23.182147+00:00,approved,active,Albania,community,osm_venues_al_v4,al_00366,al_venues_batch_v4,2026-05-25T00:00:23.182147+00:00,osm_import_terminal_v4,{},venue
Bar Teo,Rruga Azem Galica,Paskuqan,,,,,,41.3523609,19.8053266,2026-05-25T00:00:23.182147+00:00,approved,active,Albania,community,osm_venues_al_v4,al_00367,al_venues_batch_v4,2026-05-25T00:00:23.182147+00:00,osm_import_terminal_v4,{},venue
18° Wine Bar,Rruga Njazi Demi,Tirana,,,,,,41.320978,19.8091566,2026-05-25T00:00:23.182147+00:00,approved,active,Albania,community,osm_venues_al_v4,al_00368,al_venues_batch_v4,2026-05-25T00:00:23.182147+00:00,osm_import_terminal_v4,{},venue
Bar Kafe,,,,,,,,42.0748811,19.5149347,2026-05-25T00:00:23.182147+00:00,approved,active,Albania,community,osm_venues_al_v4,al_00369,al_venues_batch_v4,2026-05-25T00:00:23.182147+00:00,osm_import_terminal_v4,{},venue
Bar Kinostudio,,,,,,,,41.3470764,19.8468734,2026-05-25T00:00:23.182147+00:00,approved,active,Albania,community,osm_venues_al_v4,al_00370,al_venues_batch_v4,2026-05-25T00:00:23.182147+00:00,osm_import_terminal_v4,{},venue
London Grind Bar,,,,,,,,41.3261064,19.7865187,2026-05-25T00:00:23.182147+00:00,approved,active,Albania,community,osm_venues_al_v4,al_00371,al_venues_batch_v4,2026-05-25T00:00:23.182147+00:00,osm_import_terminal_v4,{},venue
Bar Pipo,,,,,,,,41.3222537,19.7940174,2026-05-25T00:00:23.182147+00:00,approved,active,Albania,community,osm_venues_al_v4,al_00372,al_venues_batch_v4,2026-05-25T00:00:23.182147+00:00,osm_import_terminal_v4,{},venue
Grey's Bar,,,,,,,,41.3279204,19.780717,2026-05-25T00:00:23.182147+00:00,approved,active,Albania,community,osm_venues_al_v4,al_00373,al_venues_batch_v4,2026-05-25T00:00:23.182147+00:00,osm_import_terminal_v4,{},venue
Bar Kodra,Rruga Gramozi,,,,,,,41.3599682,19.7792547,2026-05-25T00:00:23.182147+00:00,approved,active,Albania,community,osm_venues_al_v4,al_00374,al_venues_batch_v4,2026-05-25T00:00:23.182147+00:00,osm_import_terminal_v4,{},venue
Bar Millennium Garden,,,,,,,,41.3258895,19.8209497,2026-05-25T00:00:23.182147+00:00,approved,active,Albania,community,osm_venues_al_v4,al_00375,al_venues_batch_v4,2026-05-25T00:00:23.182147+00:00,osm_import_terminal_v4,{},venue
Xhedis Bar,,,,,,,,42.0664975,19.5207527,2026-05-25T00:00:23.182147+00:00,approved,active,Albania,community,osm_venues_al_v4,al_00376,al_venues_batch_v4,2026-05-25T00:00:23.182147+00:00,osm_import_terminal_v4,{},venue
Bar Kafe Pije Freskuese,,,,,,,,41.3128297,19.4329566,2026-05-25T00:00:23.182147+00:00,approved,active,Albania,community,osm_venues_al_v4,al_00377,al_venues_batch_v4,2026-05-25T00:00:23.182147+00:00,osm_import_terminal_v4,{},venue
Bar Nelsa,Rruga Muhamed Deliu,Tirana,,,,,,41.3450741,19.85736,2026-05-25T00:00:23.182147+00:00,approved,active,Albania,community,osm_venues_al_v4,al_00378,al_venues_batch_v4,2026-05-25T00:00:23.182147+00:00,osm_import_terminal_v4,{},venue
Bar Lulishte Tirona,Rruga e Kavajës,Tirana,,,,,,41.3277574,19.8156264,2026-05-25T00:00:23.182147+00:00,approved,active,Albania,community,osm_venues_al_v4,al_00379,al_venues_batch_v4,2026-05-25T00:00:23.182147+00:00,osm_import_terminal_v4,{},venue
Nottingham Forest Coctail Bar,,,,,,,,40.4357969,19.4958722,2026-05-25T00:00:23.182147+00:00,approved,active,Albania,community,osm_venues_al_v4,al_00380,al_venues_batch_v4,2026-05-25T00:00:23.182147+00:00,osm_import_terminal_v4,{},venue
Bar kafe Erika,,,,,,,,41.3407677,19.8428757,2026-05-25T00:00:23.182147+00:00,approved,active,Albania,community,osm_venues_al_v4,al_00381,al_venues_batch_v4,2026-05-25T00:00:23.182147+00:00,osm_import_terminal_v4,{},venue
Orio Bar,,,,,,,,41.3399528,19.8437204,2026-05-25T00:00:23.182147+00:00,approved,active,Albania,community,osm_venues_al_v4,al_00382,al_venues_batch_v4,2026-05-25T00:00:23.182147+00:00,osm_import_terminal_v4,{},venue
Bar Pizzeria Famiglia,,,,,,,,41.3396618,19.8433709,2026-05-25T00:00:23.182147+00:00,approved,active,Albania,community,osm_venues_al_v4,al_00383,al_venues_batch_v4,2026-05-25T00:00:23.182147+00:00,osm_import_terminal_v4,{},venue
Republika,,,,,,,,40.6187613,20.7832264,2026-05-25T00:00:23.182147+00:00,approved,active,Albania,community,osm_venues_al_v4,al_00384,al_venues_batch_v4,2026-05-25T00:00:23.182147+00:00,osm_import_terminal_v4,{},venue
Art Bar,,,,,,,,40.611446,20.7764337,2026-05-25T00:00:23.182147+00:00,approved,active,Albania,community,osm_venues_al_v4,al_00385,al_venues_batch_v4,2026-05-25T00:00:23.182147+00:00,osm_import_terminal_v4,{},venue
Ujvara Restaurant & GastroBar,,,,,,,,41.3202073,19.8116544,2026-05-25T00:00:23.182147+00:00,approved,active,Albania,community,osm_venues_al_v4,al_00386,al_venues_batch_v4,2026-05-25T00:00:23.182147+00:00,osm_import_terminal_v4,{},venue
Super Sport,,,,,,,,40.6162687,20.7817811,2026-05-25T00:00:23.182147+00:00,approved,active,Albania,community,osm_venues_al_v4,al_00387,al_venues_batch_v4,2026-05-25T00:00:23.182147+00:00,osm_import_terminal_v4,{},venue
Bar - Restorant 3dddi,Rruga Kongresi i Manastirit,,,,,,,41.3401567,19.8385591,2026-05-25T00:00:23.182147+00:00,approved,active,Albania,community,osm_venues_al_v4,al_00388,al_venues_batch_v4,2026-05-25T00:00:23.182147+00:00,osm_import_terminal_v4,{},venue
"Bar Piceri Restaurant ""Anchor""",Rruga Shyqyri AliMerko,,,,,,,40.4496462,19.4916338,2026-05-25T00:00:23.182147+00:00,approved,active,Albania,community,osm_venues_al_v4,al_00389,al_venues_batch_v4,2026-05-25T00:00:23.182147+00:00,osm_import_terminal_v4,{},venue
A Cocktail Bar,,,,,,,,40.6169988,20.7751141,2026-05-25T00:00:23.182147+00:00,approved,active,Albania,community,osm_venues_al_v4,al_00390,al_venues_batch_v4,2026-05-25T00:00:23.182147+00:00,osm_import_terminal_v4,{},venue
Bar Toptani,,,,,,,,41.3270746,19.8224972,2026-05-25T00:00:23.182147+00:00,approved,active,Albania,community,osm_venues_al_v4,al_00391,al_venues_batch_v4,2026-05-25T00:00:23.182147+00:00,osm_import_terminal_v4,{},venue
Jungle Zoo Resto Bar,,,,,,,,41.308844,19.8109352,2026-05-25T00:00:23.182147+00:00,approved,active,Albania,community,osm_venues_al_v4,al_00392,al_venues_batch_v4,2026-05-25T00:00:23.182147+00:00,osm_import_terminal_v4,{},venue
Bar Niel,,,,,,,,41.3331967,19.8419387,2026-05-25T00:00:23.182147+00:00,approved,active,Albania,community,osm_venues_al_v4,al_00393,al_venues_batch_v4,2026-05-25T00:00:23.182147+00:00,osm_import_terminal_v4,{},venue
Tiki Bar,,,,,,,,41.318301,19.8171908,2026-05-25T00:00:23.182147+00:00,approved,active,Albania,community,osm_venues_al_v4,al_00394,al_venues_batch_v4,2026-05-25T00:00:23.182147+00:00,osm_import_terminal_v4,{},venue
Bar Cafe Uazi,,Tirana,,,,,,41.3396411,19.7883688,2026-05-25T00:00:23.182147+00:00,approved,active,Albania,community,osm_venues_al_v4,al_00395,al_venues_batch_v4,2026-05-25T00:00:23.182147+00:00,osm_import_terminal_v4,{},venue
ParkSide Coffee Bar,,,,,,,,41.3146172,19.8131501,2026-05-25T00:00:23.182147+00:00,approved,active,Albania,community,osm_venues_al_v4,al_00396,al_venues_batch_v4,2026-05-25T00:00:23.182147+00:00,osm_import_terminal_v4,{},venue
"Bar Restorant ""Porto Azzurro""",,,,,,,,41.3139488,19.4768676,2026-05-25T00:00:23.182147+00:00,approved,active,Albania,community,osm_venues_al_v4,al_00397,al_venues_batch_v4,2026-05-25T00:00:23.182147+00:00,osm_import_terminal_v4,{},venue
Aqua Lounge Bar & Restaurant,Rruga e Currilave,,,,,,,41.3162497,19.43266,2026-05-25T00:00:23.182147+00:00,approved,active,Albania,community,osm_venues_al_v4,al_00398,al_venues_batch_v4,2026-05-25T00:00:23.182147+00:00,osm_import_terminal_v4,{},venue
Sense Bar,,,,,,,,41.3317363,19.8130847,2026-05-25T00:00:23.182147+00:00,approved,active,Albania,community,osm_venues_al_v4,al_00399,al_venues_batch_v4,2026-05-25T00:00:23.182147+00:00,osm_import_terminal_v4,{},venue
Gardenia Snack Bar,,,,,,,,41.3324865,19.8099422,2026-05-25T00:00:23.182147+00:00,approved,active,Albania,community,osm_venues_al_v4,al_00400,al_venues_batch_v4,2026-05-25T00:00:23.182147+00:00,osm_import_terminal_v4,{},venue
Club Sport,,,,,,,,41.331721,19.8111396,2026-05-25T00:00:23.182147+00:00,approved,active,Albania,community,osm_venues_al_v4,al_00401,al_venues_batch_v4,2026-05-25T00:00:23.182147+00:00,osm_import_terminal_v4,{},venue
Excellent - Bar Birrari Billardo,,,,,,,,41.3305953,19.8182723,2026-05-25T00:00:23.182147+00:00,approved,active,Albania,community,osm_venues_al_v4,al_00402,al_venues_batch_v4,2026-05-25T00:00:23.182147+00:00,osm_import_terminal_v4,{},venue
Shark Beach Bar,,,,,,,,41.3147641,19.433045,2026-05-25T00:00:23.182147+00:00,approved,active,Albania,community,osm_venues_al_v4,al_00403,al_venues_batch_v4,2026-05-25T00:00:23.182147+00:00,osm_import_terminal_v4,{},venue
Cross bar,,,,,,,,41.3447543,19.8415011,2026-05-25T00:00:23.182147+00:00,approved,active,Albania,community,osm_venues_al_v4,al_00404,al_venues_batch_v4,2026-05-25T00:00:23.182147+00:00,osm_import_terminal_v4,{},venue
Bar Bohem,,,,,,,,41.3460584,19.8490627,2026-05-25T00:00:23.182147+00:00,approved,active,Albania,community,osm_venues_al_v4,al_00405,al_venues_batch_v4,2026-05-25T00:00:23.182147+00:00,osm_import_terminal_v4,{},venue
MAK Bar,Rruga Ndre Mjeda,Tirana,,,,,,41.3275264,19.7953736,2026-05-25T00:00:23.182147+00:00,approved,active,Albania,community,osm_venues_al_v4,al_00406,al_venues_batch_v4,2026-05-25T00:00:23.182147+00:00,osm_import_terminal_v4,{},venue
Utopia Bar Coffee,,,,,,,,41.32498,19.803574,2026-05-25T00:00:23.182147+00:00,approved,active,Albania,community,osm_venues_al_v4,al_00407,al_venues_batch_v4,2026-05-25T00:00:23.182147+00:00,osm_import_terminal_v4,{},venue
Bar 21,,,,,,,,41.3260242,19.8031053,2026-05-25T00:00:23.182147+00:00,approved,active,Albania,community,osm_venues_al_v4,al_00408,al_venues_batch_v4,2026-05-25T00:00:23.182147+00:00,osm_import_terminal_v4,{},venue
Bar Kafe Ganiu,,,,,,,,41.3250265,19.8017578,2026-05-25T00:00:23.182147+00:00,approved,active,Albania,community,osm_venues_al_v4,al_00409,al_venues_batch_v4,2026-05-25T00:00:23.182147+00:00,osm_import_terminal_v4,{},venue
Pado Bar,,,,,,,,41.3247038,19.8013619,2026-05-25T00:00:23.182147+00:00,approved,active,Albania,community,osm_venues_al_v4,al_00410,al_venues_batch_v4,2026-05-25T00:00:23.182147+00:00,osm_import_terminal_v4,{},venue
Bar Kafe Andi,,,,,,,,41.3236862,19.8009632,2026-05-25T00:00:23.182147+00:00,approved,active,Albania,community,osm_venues_al_v4,al_00411,al_venues_batch_v4,2026-05-25T00:00:23.182147+00:00,osm_import_terminal_v4,{},venue
Lounge Bar Nordic,,,,,,,,41.3232109,19.7998565,2026-05-25T00:00:23.182147+00:00,approved,active,Albania,community,osm_venues_al_v4,al_00412,al_venues_batch_v4,2026-05-25T00:00:23.182147+00:00,osm_import_terminal_v4,{},venue
Bar Posta,,,,,,,,41.3179952,19.8136469,2026-05-25T00:00:23.182147+00:00,approved,active,Albania,community,osm_venues_al_v4,al_00413,al_venues_batch_v4,2026-05-25T00:00:23.182147+00:00,osm_import_terminal_v4,{},venue
Cosmo Bar Restaurant,2 Plazh Rruga Ura E Dajlanit,,,,,,,41.3151126,19.469705,2026-05-25T00:00:23.182147+00:00,approved,active,Albania,community,osm_venues_al_v4,al_00414,al_venues_batch_v4,2026-05-25T00:00:23.182147+00:00,osm_import_terminal_v4,{},venue
Angel's Lounge Bar,,,,,,,,41.3230126,19.8249866,2026-05-25T00:00:23.182147+00:00,approved,active,Albania,community,osm_venues_al_v4,al_00415,al_venues_batch_v4,2026-05-25T00:00:23.182147+00:00,osm_import_terminal_v4,{},venue
Bar Boho,,,,,,,,41.3464114,19.8376934,2026-05-25T00:00:23.182147+00:00,approved,active,Albania,community,osm_venues_al_v4,al_00416,al_venues_batch_v4,2026-05-25T00:00:23.182147+00:00,osm_import_terminal_v4,{},venue
Bitter Bar and Bistro,,,,,,https://bitterrestaurant.com/,,41.3322607,19.8170289,2026-05-25T00:00:23.182147+00:00,approved,active,Albania,community,osm_venues_al_v4,al_00417,al_venues_batch_v4,2026-05-25T00:00:23.182147+00:00,osm_import_terminal_v4,{},venue
Molla Bar,,,,,,,,41.3455806,19.8508646,2026-05-25T00:00:23.182147+00:00,approved,active,Albania,community,osm_venues_al_v4,al_00418,al_venues_batch_v4,2026-05-25T00:00:23.182147+00:00,osm_import_terminal_v4,{},venue
Amorino Lounge Bar,Rruga Ibrahim Rugova,,,,,,,41.3238543,19.8172088,2026-05-25T00:00:23.182147+00:00,approved,active,Albania,community,osm_venues_al_v4,al_00419,al_venues_batch_v4,2026-05-25T00:00:23.182147+00:00,osm_import_terminal_v4,{},venue
Ges' Bar,,,,,,,,41.3272518,19.8223779,2026-05-25T00:00:23.182147+00:00,approved,active,Albania,community,osm_venues_al_v4,al_00420,al_venues_batch_v4,2026-05-25T00:00:23.182147+00:00,osm_import_terminal_v4,{},venue
BarKafe Mirlindi,Rruga Vaçe Zela,,,,,,,41.3253532,19.7936386,2026-05-25T00:00:23.182147+00:00,approved,active,Albania,community,osm_venues_al_v4,al_00421,al_venues_batch_v4,2026-05-25T00:00:23.182147+00:00,osm_import_terminal_v4,{},venue
Bar Vllaznia,,,,,,,,42.0706875,19.5059351,2026-05-25T00:00:23.182147+00:00,approved,active,Albania,community,osm_venues_al_v4,al_00422,al_venues_batch_v4,2026-05-25T00:00:23.182147+00:00,osm_import_terminal_v4,{},venue
The Bar,,,,,,,,41.3209845,19.8163088,2026-05-25T00:00:23.182147+00:00,approved,active,Albania,community,osm_venues_al_v4,al_00423,al_venues_batch_v4,2026-05-25T00:00:23.182147+00:00,osm_import_terminal_v4,{},venue
Bar Baba Karlo,,,,,,,,41.3225523,19.8154616,2026-05-25T00:00:23.182147+00:00,approved,active,Albania,community,osm_venues_al_v4,al_00424,al_venues_batch_v4,2026-05-25T00:00:23.182147+00:00,osm_import_terminal_v4,{},venue
Bar NEELL,,,,,,,,41.3325471,19.8417062,2026-05-25T00:00:23.182147+00:00,approved,active,Albania,community,osm_venues_al_v4,al_00425,al_venues_batch_v4,2026-05-25T00:00:23.182147+00:00,osm_import_terminal_v4,{},venue
Café Bar Zürich,Rruga Sotir Caci,Tirana,,,,,,41.3433674,19.8656238,2026-05-25T00:00:23.182147+00:00,approved,active,Albania,community,osm_venues_al_v4,al_00426,al_venues_batch_v4,2026-05-25T00:00:23.182147+00:00,osm_import_terminal_v4,{},venue
Bar Kafe Thesari,Rruga Muhamed Deliu,Tirana,,,,,,41.3499307,19.867187,2026-05-25T00:00:23.182147+00:00,approved,active,Albania,community,osm_venues_al_v4,al_00427,al_venues_batch_v4,2026-05-25T00:00:23.182147+00:00,osm_import_terminal_v4,{},venue
Brown Lounge Bar,13 Rruga Pavarësia,Durrës,,2001,+355684260133,,,41.3140595,19.4765713,2026-05-25T00:00:23.182147+00:00,approved,active,Albania,community,osm_venues_al_v4,al_00428,al_venues_batch_v4,2026-05-25T00:00:23.182147+00:00,osm_import_terminal_v4,{},venue
Play Bar,,,,,,,,41.3183376,19.8323687,2026-05-25T00:00:23.182147+00:00,approved,active,Albania,community,osm_venues_al_v4,al_00429,al_venues_batch_v4,2026-05-25T00:00:23.182147+00:00,osm_import_terminal_v4,{},venue
Bar-Kafe,,,,,,,,41.3247613,19.8263346,2026-05-25T00:00:23.182147+00:00,approved,active,Albania,community,osm_venues_al_v4,al_00430,al_venues_batch_v4,2026-05-25T00:00:23.182147+00:00,osm_import_terminal_v4,{},venue
111 Lounge Bar,,,,,,,,41.3778681,19.7991644,2026-05-25T00:00:23.182147+00:00,approved,active,Albania,community,osm_venues_al_v4,al_00431,al_venues_batch_v4,2026-05-25T00:00:23.182147+00:00,osm_import_terminal_v4,{},venue
Bar Ledio,Rruga Selman Çera,Paskuqan,,,,,,41.3573953,19.7813027,2026-05-25T00:00:23.182147+00:00,approved,active,Albania,community,osm_venues_al_v4,al_00432,al_venues_batch_v4,2026-05-25T00:00:23.182147+00:00,osm_import_terminal_v4,{},venue
New Irish Pub,,,,,,,,41.321727,19.8166046,2026-05-25T00:00:23.182147+00:00,approved,active,Albania,community,osm_venues_al_v4,al_00433,al_venues_batch_v4,2026-05-25T00:00:23.182147+00:00,osm_import_terminal_v4,{},venue
Lake Bar,,Paskuqan,,,,,,41.3612677,19.7879605,2026-05-25T00:00:23.182147+00:00,approved,active,Albania,community,osm_venues_al_v4,al_00434,al_venues_batch_v4,2026-05-25T00:00:23.182147+00:00,osm_import_terminal_v4,{},venue
Uni Bar,Rruga e Shkodrës,Tirana,,,,,,41.3610372,19.7724721,2026-05-25T00:00:23.182147+00:00,approved,active,Albania,community,osm_venues_al_v4,al_00435,al_venues_batch_v4,2026-05-25T00:00:23.182147+00:00,osm_import_terminal_v4,{},venue
Baste Live - Bar Sallon,,,,,,,,41.3137961,19.8034982,2026-05-25T00:00:23.182147+00:00,approved,active,Albania,community,osm_venues_al_v4,al_00436,al_venues_batch_v4,2026-05-25T00:00:23.182147+00:00,osm_import_terminal_v4,{},venue
