venue_name,address,city,state,zip_code,phone,website,sports_supported,latitude,longitude,approved_at,photo_review_status,admin_status,country,origin_type,community_source,community_source_id,community_seed_batch,community_seeded_at,community_curated_by,community_provenance,place_type
Voulez Bar,,,,,,,,-34.5792027,-58.4126688,2026-05-25T00:11:57.816491+00:00,approved,active,Argentina,community,osm_venues_ar_v4,ar_00001,ar_venues_batch_v4,2026-05-25T00:11:57.816491+00:00,osm_import_terminal_v4,{},venue
bule-bar,,,,,,,,-34.6395072,-58.5057209,2026-05-25T00:11:57.816491+00:00,approved,active,Argentina,community,osm_venues_ar_v4,ar_00002,ar_venues_batch_v4,2026-05-25T00:11:57.816491+00:00,osm_import_terminal_v4,{},venue
Macondo Bar,,,,,,,,-34.5885084,-58.4302819,2026-05-25T00:11:57.816491+00:00,approved,active,Argentina,community,osm_venues_ar_v4,ar_00003,ar_venues_batch_v4,2026-05-25T00:11:57.816491+00:00,osm_import_terminal_v4,{},venue
Cine Bar,,,,,,,,-34.6034,-58.3955902,2026-05-25T00:11:57.816491+00:00,approved,active,Argentina,community,osm_venues_ar_v4,ar_00004,ar_venues_batch_v4,2026-05-25T00:11:57.816491+00:00,osm_import_terminal_v4,{},venue
Dickens Pub,3017 Avenida Diagonal Pueyrredón,,,,,,,-37.9986806,-57.5515151,2026-05-25T00:11:57.816491+00:00,approved,active,Argentina,community,osm_venues_ar_v4,ar_00005,ar_venues_batch_v4,2026-05-25T00:11:57.816491+00:00,osm_import_terminal_v4,{},venue
La Flor de Barracas,,,,,,,,-34.6417763,-58.3795602,2026-05-25T00:11:57.816491+00:00,approved,active,Argentina,community,osm_venues_ar_v4,ar_00006,ar_venues_batch_v4,2026-05-25T00:11:57.816491+00:00,osm_import_terminal_v4,{},venue
Gran Bar Danzón,1161 Libertad,Ciudad Autónoma de Buenos Aires,,,+54 11 4811-1108,http://www.granbardanzon.com.ar,,-34.5948934,-58.3843075,2026-05-25T00:11:57.816491+00:00,approved,active,Argentina,community,osm_venues_ar_v4,ar_00007,ar_venues_batch_v4,2026-05-25T00:11:57.816491+00:00,osm_import_terminal_v4,{},venue
Martin Sur Bar & Restó,Avenida General San Martín Sur,Godoy Cruz,,,,,,-32.9309891,-68.849648,2026-05-25T00:11:57.816491+00:00,approved,active,Argentina,community,osm_venues_ar_v4,ar_00008,ar_venues_batch_v4,2026-05-25T00:11:57.816491+00:00,osm_import_terminal_v4,{},venue
Liverpool Pub,,,,,,,,-32.8916533,-68.8398574,2026-05-25T00:11:57.816491+00:00,approved,active,Argentina,community,osm_venues_ar_v4,ar_00009,ar_venues_batch_v4,2026-05-25T00:11:57.816491+00:00,osm_import_terminal_v4,{},venue
Argentino Resto Bar,,,,,,,,-32.8962746,-68.8436862,2026-05-25T00:11:57.816491+00:00,approved,active,Argentina,community,osm_venues_ar_v4,ar_00010,ar_venues_batch_v4,2026-05-25T00:11:57.816491+00:00,osm_import_terminal_v4,{},venue
Lobby Bar,,,,,,,,-32.8995902,-68.841934,2026-05-25T00:11:57.816491+00:00,approved,active,Argentina,community,osm_venues_ar_v4,ar_00011,ar_venues_batch_v4,2026-05-25T00:11:57.816491+00:00,osm_import_terminal_v4,{},venue
Barro,Amigorena,,,,,,,-32.8916772,-68.8388963,2026-05-25T00:11:57.816491+00:00,approved,active,Argentina,community,osm_venues_ar_v4,ar_00012,ar_venues_batch_v4,2026-05-25T00:11:57.816491+00:00,osm_import_terminal_v4,{},venue
La Barca,120 General Espejo,Mendoza,,,54 0261 4233367,,,-32.8893442,-68.8408806,2026-05-25T00:11:57.816491+00:00,approved,active,Argentina,community,osm_venues_ar_v4,ar_00013,ar_venues_batch_v4,2026-05-25T00:11:57.816491+00:00,osm_import_terminal_v4,{},venue
Francesco Barbera Ristorante,1124 Chile,,,,+54 0261 4253912,http://www.francescoristorante.com.ar/,,-32.8876568,-68.8454109,2026-05-25T00:11:57.816491+00:00,approved,active,Argentina,community,osm_venues_ar_v4,ar_00014,ar_venues_batch_v4,2026-05-25T00:11:57.816491+00:00,osm_import_terminal_v4,{},venue
Tacobar,406 Avenida Bartolomé Mitre,Mendoza,,,,,,-32.8876758,-68.8441395,2026-05-25T00:11:57.816491+00:00,approved,active,Argentina,community,osm_venues_ar_v4,ar_00015,ar_venues_batch_v4,2026-05-25T00:11:57.816491+00:00,osm_import_terminal_v4,{},venue
Bar Banana Rana,80 Bruno Morón,Mendoza,,,54 261 4295993,,,-32.8992317,-68.840606,2026-05-25T00:11:57.816491+00:00,approved,active,Argentina,community,osm_venues_ar_v4,ar_00016,ar_venues_batch_v4,2026-05-25T00:11:57.816491+00:00,osm_import_terminal_v4,{},venue
Beirut Cafe & Bar,,,,,,,,-32.8932446,-68.8384021,2026-05-25T00:11:57.816491+00:00,approved,active,Argentina,community,osm_venues_ar_v4,ar_00017,ar_venues_batch_v4,2026-05-25T00:11:57.816491+00:00,osm_import_terminal_v4,{},venue
Queens Bar,,,,,,,,-32.9457546,-60.6493964,2026-05-25T00:11:57.816491+00:00,approved,active,Argentina,community,osm_venues_ar_v4,ar_00018,ar_venues_batch_v4,2026-05-25T00:11:57.816491+00:00,osm_import_terminal_v4,{},venue
Bar Conde,,,,,,,,-34.5777767,-58.4495217,2026-05-25T00:11:57.816491+00:00,approved,active,Argentina,community,osm_venues_ar_v4,ar_00019,ar_venues_batch_v4,2026-05-25T00:11:57.816491+00:00,osm_import_terminal_v4,{},venue
Bar Británico,399 Brasil,Ciudad Autónoma de Buenos Aires,,,,,,-34.6252644,-58.3709659,2026-05-25T00:11:57.816491+00:00,approved,active,Argentina,community,osm_venues_ar_v4,ar_00020,ar_venues_batch_v4,2026-05-25T00:11:57.816491+00:00,osm_import_terminal_v4,{},venue
Il Barista,,,,,,,,-34.606665,-58.375142,2026-05-25T00:11:57.816491+00:00,approved,active,Argentina,community,osm_venues_ar_v4,ar_00021,ar_venues_batch_v4,2026-05-25T00:11:57.816491+00:00,osm_import_terminal_v4,{},venue
Bar Dorrego,1098 Defensa,Ciudad Autónoma de Buenos Aires,,,,,,-34.620613,-58.371309,2026-05-25T00:11:57.816491+00:00,approved,active,Argentina,community,osm_venues_ar_v4,ar_00022,ar_venues_batch_v4,2026-05-25T00:11:57.816491+00:00,osm_import_terminal_v4,{},venue
Bar CEICIN,,,,,,,,-31.4355706,-64.1939457,2026-05-25T00:11:57.816491+00:00,approved,active,Argentina,community,osm_venues_ar_v4,ar_00023,ar_venues_batch_v4,2026-05-25T00:11:57.816491+00:00,osm_import_terminal_v4,{},venue
Olazabar,,,,,+54 11 4787-5490,,,-34.5554173,-58.4500368,2026-05-25T00:11:57.816491+00:00,approved,active,Argentina,community,osm_venues_ar_v4,ar_00024,ar_venues_batch_v4,2026-05-25T00:11:57.816491+00:00,osm_import_terminal_v4,{},venue
Diseño Bar,5921 Avenida Del Libertador,Ciudad Autónoma de Buenos Aires,,,,,,-34.5572788,-58.4469172,2026-05-25T00:11:57.816491+00:00,approved,active,Argentina,community,osm_venues_ar_v4,ar_00025,ar_venues_batch_v4,2026-05-25T00:11:57.816491+00:00,osm_import_terminal_v4,{},venue
Open Bar,,,,,,,,-34.5407604,-58.474096,2026-05-25T00:11:57.816491+00:00,approved,active,Argentina,community,osm_venues_ar_v4,ar_00026,ar_venues_batch_v4,2026-05-25T00:11:57.816491+00:00,osm_import_terminal_v4,{},venue
Bar,,,,,,,,-34.6004369,-58.4204773,2026-05-25T00:11:57.816491+00:00,approved,active,Argentina,community,osm_venues_ar_v4,ar_00027,ar_venues_batch_v4,2026-05-25T00:11:57.816491+00:00,osm_import_terminal_v4,{},venue
Open Bar,,,,,,,,-34.5409386,-58.4745906,2026-05-25T00:11:57.816491+00:00,approved,active,Argentina,community,osm_venues_ar_v4,ar_00028,ar_venues_batch_v4,2026-05-25T00:11:57.816491+00:00,osm_import_terminal_v4,{},venue
Barra Chalaca,,,,,,,,-34.552911,-58.45264,2026-05-25T00:11:57.816491+00:00,approved,active,Argentina,community,osm_venues_ar_v4,ar_00029,ar_venues_batch_v4,2026-05-25T00:11:57.816491+00:00,osm_import_terminal_v4,{},venue
Barbaro,,,,,,,,-34.5978613,-58.3732264,2026-05-25T00:11:57.816491+00:00,approved,active,Argentina,community,osm_venues_ar_v4,ar_00030,ar_venues_batch_v4,2026-05-25T00:11:57.816491+00:00,osm_import_terminal_v4,{},venue
Bar - Café - Minutas,502 Juan Ramírez de Velasco,Ciudad Autónoma de Buenos Aires,,1414,,,,-34.5983127,-58.4365953,2026-05-25T00:11:57.816491+00:00,approved,active,Argentina,community,osm_venues_ar_v4,ar_00031,ar_venues_batch_v4,2026-05-25T00:11:57.816491+00:00,osm_import_terminal_v4,{},venue
Dark Bar,,,,,,,,-34.6090476,-58.3793581,2026-05-25T00:11:57.816491+00:00,approved,active,Argentina,community,osm_venues_ar_v4,ar_00032,ar_venues_batch_v4,2026-05-25T00:11:57.816491+00:00,osm_import_terminal_v4,{},venue
Almacén Bar y Picadas,,,,,,,,-34.6239178,-58.3898859,2026-05-25T00:11:57.816491+00:00,approved,active,Argentina,community,osm_venues_ar_v4,ar_00033,ar_venues_batch_v4,2026-05-25T00:11:57.816491+00:00,osm_import_terminal_v4,{},venue
La Barraca,,,,,,,,-38.0070513,-57.5866302,2026-05-25T00:11:57.816491+00:00,approved,active,Argentina,community,osm_venues_ar_v4,ar_00034,ar_venues_batch_v4,2026-05-25T00:11:57.816491+00:00,osm_import_terminal_v4,{},venue
Zoom Resto-Bar,,,,,,,,-34.6160583,-58.3710314,2026-05-25T00:11:57.816491+00:00,approved,active,Argentina,community,osm_venues_ar_v4,ar_00035,ar_venues_batch_v4,2026-05-25T00:11:57.816491+00:00,osm_import_terminal_v4,{},venue
La Barrica,,,,,,,,-32.9003321,-68.8005731,2026-05-25T00:11:57.816491+00:00,approved,active,Argentina,community,osm_venues_ar_v4,ar_00036,ar_venues_batch_v4,2026-05-25T00:11:57.816491+00:00,osm_import_terminal_v4,{},venue
Bar Seddon,695 Defensa,Ciudad Autónoma de Buenos Aires,,,,,,-34.6159225,-58.3718043,2026-05-25T00:11:57.816491+00:00,approved,active,Argentina,community,osm_venues_ar_v4,ar_00037,ar_venues_batch_v4,2026-05-25T00:11:57.816491+00:00,osm_import_terminal_v4,{},venue
Bar Berlin,,,,,,,,-32.9411331,-60.6374851,2026-05-25T00:11:57.816491+00:00,approved,active,Argentina,community,osm_venues_ar_v4,ar_00038,ar_venues_batch_v4,2026-05-25T00:11:57.816491+00:00,osm_import_terminal_v4,{},venue
Tucson Steak House & Bar,,,,,,,,-32.9159487,-68.8231308,2026-05-25T00:11:57.816491+00:00,approved,active,Argentina,community,osm_venues_ar_v4,ar_00039,ar_venues_batch_v4,2026-05-25T00:11:57.816491+00:00,osm_import_terminal_v4,{},venue
Cafe Sportman,,,,,,,,-32.9084859,-68.8599641,2026-05-25T00:11:57.816491+00:00,approved,active,Argentina,community,osm_venues_ar_v4,ar_00040,ar_venues_batch_v4,2026-05-25T00:11:57.816491+00:00,osm_import_terminal_v4,{},venue
Lomos Papito Barloa,300 Avenida General San Martín,Las Heras,,,,,,-32.8632234,-68.8323484,2026-05-25T00:11:57.816491+00:00,approved,active,Argentina,community,osm_venues_ar_v4,ar_00041,ar_venues_batch_v4,2026-05-25T00:11:57.816491+00:00,osm_import_terminal_v4,{},venue
Pichin Bar,802 Avenida de Mayo,Ciudad Autónoma de Buenos Aires,,C1084AAQ,,,,-34.6089535,-58.377938,2026-05-25T00:11:57.816491+00:00,approved,active,Argentina,community,osm_venues_ar_v4,ar_00042,ar_venues_batch_v4,2026-05-25T00:11:57.816491+00:00,osm_import_terminal_v4,{},venue
Bar de Cao,2400 Avenida Independencia,Ciudad Autónoma de Buenos Aires,,C1225AAS,,,,-34.6186862,-58.3999166,2026-05-25T00:11:57.816491+00:00,approved,active,Argentina,community,osm_venues_ar_v4,ar_00043,ar_venues_batch_v4,2026-05-25T00:11:57.816491+00:00,osm_import_terminal_v4,{},venue
Bar Sur,299 Estados Unidos,Ciudad Autónoma de Buenos Aires,,,,https://www.bar-sur.com.ar/h/index.html,,-34.6183462,-58.3700905,2026-05-25T00:11:57.816491+00:00,approved,active,Argentina,community,osm_venues_ar_v4,ar_00044,ar_venues_batch_v4,2026-05-25T00:11:57.816491+00:00,osm_import_terminal_v4,{},venue
Bar Los Laureles,2290 Avenida General Iriarte,Ciudad Autónoma de Buenos Aires,,,+54 11 4303-3393,,,-34.6495516,-58.3794547,2026-05-25T00:11:57.816491+00:00,approved,active,Argentina,community,osm_venues_ar_v4,ar_00045,ar_venues_batch_v4,2026-05-25T00:11:57.816491+00:00,osm_import_terminal_v4,{},venue
Achtung Bar,523 Estados Unidos,Ciudad Autónoma de Buenos Aires,,,,,,-34.6184473,-58.3733294,2026-05-25T00:11:57.816491+00:00,approved,active,Argentina,community,osm_venues_ar_v4,ar_00046,ar_venues_batch_v4,2026-05-25T00:11:57.816491+00:00,osm_import_terminal_v4,{},venue
La Barcelonesa,1401 Billinghurst,Ciudad Autónoma de Buenos Aires,,,,,,-34.5936309,-58.4126233,2026-05-25T00:11:57.816491+00:00,approved,active,Argentina,community,osm_venues_ar_v4,ar_00047,ar_venues_batch_v4,2026-05-25T00:11:57.816491+00:00,osm_import_terminal_v4,{},venue
La Josefina Parrilla Resto Bar,,,,,,,,-34.5804068,-58.4145411,2026-05-25T00:11:57.816491+00:00,approved,active,Argentina,community,osm_venues_ar_v4,ar_00048,ar_venues_batch_v4,2026-05-25T00:11:57.816491+00:00,osm_import_terminal_v4,{},venue
Jerome Brew Pub Express Córdoba,545 Avenida Marcelo T. de Alvear,Córdoba,,5000,+54-351-(15)518-0354,,,-31.4213376,-64.1908733,2026-05-25T00:11:57.816491+00:00,approved,active,Argentina,community,osm_venues_ar_v4,ar_00049,ar_venues_batch_v4,2026-05-25T00:11:57.816491+00:00,osm_import_terminal_v4,{},venue
Cafe Bar,Avenida Paseo Colón,Ciudad Autónoma de Buenos Aires,,,,,,-34.6219097,-58.368476,2026-05-25T00:11:57.816491+00:00,approved,active,Argentina,community,osm_venues_ar_v4,ar_00050,ar_venues_batch_v4,2026-05-25T00:11:57.816491+00:00,osm_import_terminal_v4,{},venue
Sports n' Rock Bar,936 Reconquista,Ciudad Autónoma de Buenos Aires,,1058,,,,-34.5969277,-58.373184,2026-05-25T00:11:57.816491+00:00,approved,active,Argentina,community,osm_venues_ar_v4,ar_00051,ar_venues_batch_v4,2026-05-25T00:11:57.816491+00:00,osm_import_terminal_v4,{},venue
Barra III,3000 Avenida Colón,Mar del Plata,,7600,,,,-38.0016892,-57.5541713,2026-05-25T00:11:57.816491+00:00,approved,active,Argentina,community,osm_venues_ar_v4,ar_00052,ar_venues_batch_v4,2026-05-25T00:11:57.816491+00:00,osm_import_terminal_v4,{},venue
HEISENBERG – BAR & LAB,1028 Boulevard Chacabuco,Córdoba,,X5000,03517318038,https://heisenbergbar.ar/,,-31.429339,-64.1853648,2026-05-25T00:11:57.816491+00:00,approved,active,Argentina,community,osm_venues_ar_v4,ar_00053,ar_venues_batch_v4,2026-05-25T00:11:57.816491+00:00,osm_import_terminal_v4,{},venue
GioBar,1288 Chile,,,,,,,-32.8875183,-68.8453717,2026-05-25T00:11:57.816491+00:00,approved,active,Argentina,community,osm_venues_ar_v4,ar_00054,ar_venues_batch_v4,2026-05-25T00:11:57.816491+00:00,osm_import_terminal_v4,{},venue
Post Street Bar,1885 Thames,Ciudad Autónoma de Buenos Aires,,,,,,-34.5862315,-58.4281608,2026-05-25T00:11:57.816491+00:00,approved,active,Argentina,community,osm_venues_ar_v4,ar_00055,ar_venues_batch_v4,2026-05-25T00:11:57.816491+00:00,osm_import_terminal_v4,{},venue
Valentino Bar,Marcelo T. de Alvear,Ciudad Autónoma de Buenos Aires,,,,,,-34.5966787,-58.3802088,2026-05-25T00:11:57.816491+00:00,approved,active,Argentina,community,osm_venues_ar_v4,ar_00056,ar_venues_batch_v4,2026-05-25T00:11:57.816491+00:00,osm_import_terminal_v4,{},venue
The Temple Bar,Marcelo T. de Alvear,Ciudad Autónoma de Buenos Aires,,,,,,-34.5965196,-58.3805144,2026-05-25T00:11:57.816491+00:00,approved,active,Argentina,community,osm_venues_ar_v4,ar_00057,ar_venues_batch_v4,2026-05-25T00:11:57.816491+00:00,osm_import_terminal_v4,{},venue
Bar Bulldog,846 Avenida Alicia Moreau de Justo,Ciudad Autónoma de Buenos Aires,,C1107AAV,,https://www.facebook.com/bulldogbargrill/,,-34.6075794,-58.3663104,2026-05-25T00:11:57.816491+00:00,approved,active,Argentina,community,osm_venues_ar_v4,ar_00058,ar_venues_batch_v4,2026-05-25T00:11:57.816491+00:00,osm_import_terminal_v4,{},venue
Kraken Bar,970 Avenida Alicia Moreau de Justo,Ciudad Autónoma de Buenos Aires,,C1107,,https://www.facebook.com/KrakenBarOficial/about/,,-34.6088397,-58.3662472,2026-05-25T00:11:57.816491+00:00,approved,active,Argentina,community,osm_venues_ar_v4,ar_00059,ar_venues_batch_v4,2026-05-25T00:11:57.816491+00:00,osm_import_terminal_v4,{},venue
Puente Gran Bar,876 Avenida Alicia Moreau de Justo,Ciudad Autónoma de Buenos Aires,,C1107AAV,,https://www.facebook.com/puentegrandbar/,,-34.6079186,-58.3662954,2026-05-25T00:11:57.816491+00:00,approved,active,Argentina,community,osm_venues_ar_v4,ar_00060,ar_venues_batch_v4,2026-05-25T00:11:57.816491+00:00,osm_import_terminal_v4,{},venue
Bar Setenta y Siete,671 Estados Unidos,Ciudad Autónoma de Buenos Aires,,,,http://www.barsetentaysiete.com/,,-34.6184679,-58.3753849,2026-05-25T00:11:57.816491+00:00,approved,active,Argentina,community,osm_venues_ar_v4,ar_00061,ar_venues_batch_v4,2026-05-25T00:11:57.816491+00:00,osm_import_terminal_v4,{},venue
La Barrera 1980,Soler,Ciudad Autónoma de Buenos Aires,,,,https://www.labarrera1980.com.ar,,-34.5807214,-58.4325868,2026-05-25T00:11:57.816491+00:00,approved,active,Argentina,community,osm_venues_ar_v4,ar_00062,ar_venues_batch_v4,2026-05-25T00:11:57.816491+00:00,osm_import_terminal_v4,{},venue
En Borges Bar,,,,,,,,-34.5887523,-58.4297384,2026-05-25T00:11:57.816491+00:00,approved,active,Argentina,community,osm_venues_ar_v4,ar_00063,ar_venues_batch_v4,2026-05-25T00:11:57.816491+00:00,osm_import_terminal_v4,{},venue
Irish Pub Sullivan's,El Salvador,,,,,,,-34.5878889,-58.4291719,2026-05-25T00:11:57.816491+00:00,approved,active,Argentina,community,osm_venues_ar_v4,ar_00064,ar_venues_batch_v4,2026-05-25T00:11:57.816491+00:00,osm_import_terminal_v4,{},venue
Barbieca,,,,,,,,-34.6255844,-58.3724797,2026-05-25T00:11:57.816491+00:00,approved,active,Argentina,community,osm_venues_ar_v4,ar_00065,ar_venues_batch_v4,2026-05-25T00:11:57.816491+00:00,osm_import_terminal_v4,{},venue
The Temple Bar,4677 Costa Rica,Ciudad Autónoma de Buenos Aires,,,+54 11 4831-5430,,,-34.5881232,-58.4267961,2026-05-25T00:11:57.816491+00:00,approved,active,Argentina,community,osm_venues_ar_v4,ar_00066,ar_venues_batch_v4,2026-05-25T00:11:57.816491+00:00,osm_import_terminal_v4,{},venue
Esquina Taki Bar,3003 Avenida García del Río,Ciudad Autónoma de Buenos Aires,,C1429,,,,-34.5495216,-58.47546,2026-05-25T00:11:57.816491+00:00,approved,active,Argentina,community,osm_venues_ar_v4,ar_00067,ar_venues_batch_v4,2026-05-25T00:11:57.816491+00:00,osm_import_terminal_v4,{},venue
Terminal Krakovia Bar,,,,,,,,-34.6236428,-58.4306028,2026-05-25T00:11:57.816491+00:00,approved,active,Argentina,community,osm_venues_ar_v4,ar_00068,ar_venues_batch_v4,2026-05-25T00:11:57.816491+00:00,osm_import_terminal_v4,{},venue
Bar Flux,Marcelo T. de Alvear,Ciudad Autónoma de Buenos Aires,,,,,,-34.5968059,-58.3810813,2026-05-25T00:11:57.816491+00:00,approved,active,Argentina,community,osm_venues_ar_v4,ar_00069,ar_venues_batch_v4,2026-05-25T00:11:57.816491+00:00,osm_import_terminal_v4,{},venue
Cervecería Antares - Bar de la Fábrica,7749 12 de Octubre,Mar del Plata,,7600,,http://www.cervezaantares.com/,,-38.0135714,-57.5852761,2026-05-25T00:11:57.816491+00:00,approved,active,Argentina,community,osm_venues_ar_v4,ar_00070,ar_venues_batch_v4,2026-05-25T00:11:57.816491+00:00,osm_import_terminal_v4,{},venue
Oh Madrid Bar,Remedios de Escalada,,,,,,,-32.8821023,-68.8367823,2026-05-25T00:11:57.816491+00:00,approved,active,Argentina,community,osm_venues_ar_v4,ar_00071,ar_venues_batch_v4,2026-05-25T00:11:57.816491+00:00,osm_import_terminal_v4,{},venue
People Bar,451 Arístides Villanueva,,,,54 0261 4298686; 4291112,,,-32.8917437,-68.8572204,2026-05-25T00:11:57.816491+00:00,approved,active,Argentina,community,osm_venues_ar_v4,ar_00072,ar_venues_batch_v4,2026-05-25T00:11:57.816491+00:00,osm_import_terminal_v4,{},venue
Anush Resto Bar,1646 Avenida Leandro N. Alem,Córdoba,,5000,+54 351 4734251,,,-31.3855472,-64.1590844,2026-05-25T00:11:57.816491+00:00,approved,active,Argentina,community,osm_venues_ar_v4,ar_00073,ar_venues_batch_v4,2026-05-25T00:11:57.816491+00:00,osm_import_terminal_v4,{},venue
Pepper RestoBar,2201 Bulnes,Ciudad Autónoma de Buenos Aires,,,,,,-34.5864447,-58.4103792,2026-05-25T00:11:57.816491+00:00,approved,active,Argentina,community,osm_venues_ar_v4,ar_00074,ar_venues_batch_v4,2026-05-25T00:11:57.816491+00:00,osm_import_terminal_v4,{},venue
Clark's Irish Pub,,,,,,,,-31.4264675,-64.1846828,2026-05-25T00:11:57.816491+00:00,approved,active,Argentina,community,osm_venues_ar_v4,ar_00075,ar_venues_batch_v4,2026-05-25T00:11:57.816491+00:00,osm_import_terminal_v4,{},venue
Bar BQ,,,,,,,,-34.5817449,-58.4373749,2026-05-25T00:11:57.816491+00:00,approved,active,Argentina,community,osm_venues_ar_v4,ar_00076,ar_venues_batch_v4,2026-05-25T00:11:57.816491+00:00,osm_import_terminal_v4,{},venue
Rio Cafe Bar,901 Aníbal Troilo,Ciudad Autónoma de Buenos Aires,,,,,,-34.6038471,-58.4320517,2026-05-25T00:11:57.816491+00:00,approved,active,Argentina,community,osm_venues_ar_v4,ar_00077,ar_venues_batch_v4,2026-05-25T00:11:57.816491+00:00,osm_import_terminal_v4,{},venue
Bar El Faro,4099 Avenida de los Constituyentes,,,,,,,-34.5848308,-58.4885138,2026-05-25T00:11:57.816491+00:00,approved,active,Argentina,community,osm_venues_ar_v4,ar_00078,ar_venues_batch_v4,2026-05-25T00:11:57.816491+00:00,osm_import_terminal_v4,{},venue
Snackbar,,,,,,,,-34.6316957,-58.3987651,2026-05-25T00:11:57.816491+00:00,approved,active,Argentina,community,osm_venues_ar_v4,ar_00079,ar_venues_batch_v4,2026-05-25T00:11:57.816491+00:00,osm_import_terminal_v4,{},venue
Restobar Upar,1751 3 de Febrero,Rosario,,2000,+54 341 421-4357,http://www.upar.com.ar/,,-32.9512927,-60.6488452,2026-05-25T00:11:57.816491+00:00,approved,active,Argentina,community,osm_venues_ar_v4,ar_00080,ar_venues_batch_v4,2026-05-25T00:11:57.816491+00:00,osm_import_terminal_v4,{},venue
Bartola,,,,,,,,-34.5878587,-58.4271796,2026-05-25T00:11:57.816491+00:00,approved,active,Argentina,community,osm_venues_ar_v4,ar_00081,ar_venues_batch_v4,2026-05-25T00:11:57.816491+00:00,osm_import_terminal_v4,{},venue
Budabar,,,,,,,,-34.5881872,-58.4266808,2026-05-25T00:11:57.816491+00:00,approved,active,Argentina,community,osm_venues_ar_v4,ar_00082,ar_venues_batch_v4,2026-05-25T00:11:57.816491+00:00,osm_import_terminal_v4,{},venue
Bar Sheldon,Honduras,Ciudad Autónoma de Buenos Aires,,,,,,-34.5889622,-58.4295532,2026-05-25T00:11:57.816491+00:00,approved,active,Argentina,community,osm_venues_ar_v4,ar_00083,ar_venues_batch_v4,2026-05-25T00:11:57.816491+00:00,osm_import_terminal_v4,{},venue
Bar 1890,100 Las Flores,Wilde,,1875,+54 11 4207-1073,,,-34.7030109,-58.3164543,2026-05-25T00:11:57.816491+00:00,approved,active,Argentina,community,osm_venues_ar_v4,ar_00084,ar_venues_batch_v4,2026-05-25T00:11:57.816491+00:00,osm_import_terminal_v4,{},venue
CLUB- BAR DE VILLA ESQUIU,,,,,,,,-31.3677139,-64.109191,2026-05-25T00:11:57.816491+00:00,approved,active,Argentina,community,osm_venues_ar_v4,ar_00085,ar_venues_batch_v4,2026-05-25T00:11:57.816491+00:00,osm_import_terminal_v4,{},venue
Monzú Pizzeria Bar,3975 José Antonio Cabrera,Ciudad Autónoma de Buenos Aires,,,,,,-34.5962663,-58.4227273,2026-05-25T00:11:57.816491+00:00,approved,active,Argentina,community,osm_venues_ar_v4,ar_00086,ar_venues_batch_v4,2026-05-25T00:11:57.816491+00:00,osm_import_terminal_v4,{},venue
Sunderland Bar,2010 Avenida Manuel Belgrano,Rosario,,2000,+54 341 482-3663,,,-32.9646314,-60.6218212,2026-05-25T00:11:57.816491+00:00,approved,active,Argentina,community,osm_venues_ar_v4,ar_00087,ar_venues_batch_v4,2026-05-25T00:11:57.816491+00:00,osm_import_terminal_v4,{},venue
Valentinas resto bar,,,,,,,,-31.371928,-64.230442,2026-05-25T00:11:57.816491+00:00,approved,active,Argentina,community,osm_venues_ar_v4,ar_00088,ar_venues_batch_v4,2026-05-25T00:11:57.816491+00:00,osm_import_terminal_v4,{},venue
Bar Sorocabana,,,,,+543514227872,,,-31.4175452,-64.1832646,2026-05-25T00:11:57.816491+00:00,approved,active,Argentina,community,osm_venues_ar_v4,ar_00089,ar_venues_batch_v4,2026-05-25T00:11:57.816491+00:00,osm_import_terminal_v4,{},venue
Ebro: Restaurant Bar,390 Avenida Entre Ríos,Ciudad Autónoma de Buenos Aires,,C1079ABQ,011 4372 7574,,,-34.6136649,-58.3914915,2026-05-25T00:11:57.816491+00:00,approved,active,Argentina,community,osm_venues_ar_v4,ar_00090,ar_venues_batch_v4,2026-05-25T00:11:57.816491+00:00,osm_import_terminal_v4,{},venue
Torbellinos Pub,1451 Rioja,,,,,,,-32.8854125,-68.8353426,2026-05-25T00:11:57.816491+00:00,approved,active,Argentina,community,osm_venues_ar_v4,ar_00091,ar_venues_batch_v4,2026-05-25T00:11:57.816491+00:00,osm_import_terminal_v4,{},venue
La Barra,Avenida 44 - Presidente Arturo Umberto Illia,,,,,,,-34.5680377,-58.5164799,2026-05-25T00:11:57.816491+00:00,approved,active,Argentina,community,osm_venues_ar_v4,ar_00092,ar_venues_batch_v4,2026-05-25T00:11:57.816491+00:00,osm_import_terminal_v4,{},venue
D'Sastre Resto Bar,308 Arístides Villanueva,,,,,,,-32.8924073,-68.8551071,2026-05-25T00:11:57.816491+00:00,approved,active,Argentina,community,osm_venues_ar_v4,ar_00093,ar_venues_batch_v4,2026-05-25T00:11:57.816491+00:00,osm_import_terminal_v4,{},venue
William Brown - Irish Pub,303 Arístides Villanueva,Mendoza,,,+54 0261 4200693,,,-32.8921706,-68.8548521,2026-05-25T00:11:57.816491+00:00,approved,active,Argentina,community,osm_venues_ar_v4,ar_00094,ar_venues_batch_v4,2026-05-25T00:11:57.816491+00:00,osm_import_terminal_v4,{},venue
70 30 Bar,1514 Thames,Ciudad Autónoma de Buenos Aires,,C1414DDF,,,,-34.5886318,-58.4320794,2026-05-25T00:11:57.816491+00:00,approved,active,Argentina,community,osm_venues_ar_v4,ar_00095,ar_venues_batch_v4,2026-05-25T00:11:57.816491+00:00,osm_import_terminal_v4,{},venue
The Temple Bar,1822 Avenida General Las Heras,Ciudad Autónoma de Buenos Aires,,,+54 11 4805-0733,http://www.thetemplebar.com.ar/recoleta/bar,,-34.5917063,-58.3921984,2026-05-25T00:11:57.816491+00:00,approved,active,Argentina,community,osm_venues_ar_v4,ar_00096,ar_venues_batch_v4,2026-05-25T00:11:57.816491+00:00,osm_import_terminal_v4,{},venue
Delhi Darbar,,,,,,,,-34.5995638,-58.3721624,2026-05-25T00:11:57.816491+00:00,approved,active,Argentina,community,osm_venues_ar_v4,ar_00097,ar_venues_batch_v4,2026-05-25T00:11:57.816491+00:00,osm_import_terminal_v4,{},venue
YOLO Bar,,,,,,,,-34.5809057,-58.4270899,2026-05-25T00:11:57.816491+00:00,approved,active,Argentina,community,osm_venues_ar_v4,ar_00098,ar_venues_batch_v4,2026-05-25T00:11:57.816491+00:00,osm_import_terminal_v4,{},venue
Sláinte Irish Pub,6066 Avenida San Martín,Ciudad Autónoma de Buenos Aires,,,,,,-34.5954092,-58.501343,2026-05-25T00:11:57.816491+00:00,approved,active,Argentina,community,osm_venues_ar_v4,ar_00099,ar_venues_batch_v4,2026-05-25T00:11:57.816491+00:00,osm_import_terminal_v4,{},venue
Chopper's bar,,,,,,,,-32.9761657,-60.6617429,2026-05-25T00:11:57.816491+00:00,approved,active,Argentina,community,osm_venues_ar_v4,ar_00100,ar_venues_batch_v4,2026-05-25T00:11:57.816491+00:00,osm_import_terminal_v4,{},venue
Único Bar & Bistro,,,,,,,,-34.5841565,-58.4365204,2026-05-25T00:11:57.816491+00:00,approved,active,Argentina,community,osm_venues_ar_v4,ar_00101,ar_venues_batch_v4,2026-05-25T00:11:57.816491+00:00,osm_import_terminal_v4,{},venue
Uvas Wine Bar,,,,,,,,-32.8888529,-68.8460793,2026-05-25T00:11:57.816491+00:00,approved,active,Argentina,community,osm_venues_ar_v4,ar_00102,ar_venues_batch_v4,2026-05-25T00:11:57.816491+00:00,osm_import_terminal_v4,{},venue
Garage Bar,Chile,Ciudad Autónoma de Buenos Aires,,,,,,-34.6161524,-58.3750215,2026-05-25T00:11:57.816491+00:00,approved,active,Argentina,community,osm_venues_ar_v4,ar_00103,ar_venues_batch_v4,2026-05-25T00:11:57.816491+00:00,osm_import_terminal_v4,{},venue
Barko,,,,,,,,-37.9980854,-57.547132,2026-05-25T00:11:57.816491+00:00,approved,active,Argentina,community,osm_venues_ar_v4,ar_00104,ar_venues_batch_v4,2026-05-25T00:11:57.816491+00:00,osm_import_terminal_v4,{},venue
New Bar,,,,,,,,-37.9960583,-57.5510422,2026-05-25T00:11:57.816491+00:00,approved,active,Argentina,community,osm_venues_ar_v4,ar_00105,ar_venues_batch_v4,2026-05-25T00:11:57.816491+00:00,osm_import_terminal_v4,{},venue
Café Metro Bar,528 Cerrito,Ciudad Autónoma de Buenos Aires,,,+54 11 4382-4692,,,-34.6022877,-58.3825443,2026-05-25T00:11:57.816491+00:00,approved,active,Argentina,community,osm_venues_ar_v4,ar_00106,ar_venues_batch_v4,2026-05-25T00:11:57.816491+00:00,osm_import_terminal_v4,{},venue
Resto Bar Montego Bay,,,,,,,,-31.3923524,-64.1654072,2026-05-25T00:11:57.816491+00:00,approved,active,Argentina,community,osm_venues_ar_v4,ar_00107,ar_venues_batch_v4,2026-05-25T00:11:57.816491+00:00,osm_import_terminal_v4,{},venue
Restó Pub,,,,,,,,-31.4239845,-64.1805033,2026-05-25T00:11:57.816491+00:00,approved,active,Argentina,community,osm_venues_ar_v4,ar_00108,ar_venues_batch_v4,2026-05-25T00:11:57.816491+00:00,osm_import_terminal_v4,{},venue
Bar Osvaldo,,,,,,,,-34.6140611,-58.3789396,2026-05-25T00:11:57.816491+00:00,approved,active,Argentina,community,osm_venues_ar_v4,ar_00109,ar_venues_batch_v4,2026-05-25T00:11:57.816491+00:00,osm_import_terminal_v4,{},venue
Barba Rubia,,,,,,,,-32.8900444,-68.838275,2026-05-25T00:11:57.816491+00:00,approved,active,Argentina,community,osm_venues_ar_v4,ar_00110,ar_venues_batch_v4,2026-05-25T00:11:57.816491+00:00,osm_import_terminal_v4,{},venue
Jerome Brew Bar,Arístides Villanueva,,,,,,,-32.8920194,-68.8557279,2026-05-25T00:11:57.816491+00:00,approved,active,Argentina,community,osm_venues_ar_v4,ar_00111,ar_venues_batch_v4,2026-05-25T00:11:57.816491+00:00,osm_import_terminal_v4,{},venue
Lolla Bar,98 bis Callao,Rosario,,2000,,,,-32.9319229,-60.6575807,2026-05-25T00:11:57.816491+00:00,approved,active,Argentina,community,osm_venues_ar_v4,ar_00112,ar_venues_batch_v4,2026-05-25T00:11:57.816491+00:00,osm_import_terminal_v4,{},venue
Barbacoa Parrilla,2133 Bollini,Ciudad Autónoma de Buenos Aires,,,+54 11 4805-8230,,,-34.5874571,-58.4043032,2026-05-25T00:11:57.816491+00:00,approved,active,Argentina,community,osm_venues_ar_v4,ar_00113,ar_venues_batch_v4,2026-05-25T00:11:57.816491+00:00,osm_import_terminal_v4,{},venue
Holm Bar,2637 Holmberg,Ciudad Autónoma de Buenos Aires,,1430,,,,-34.567773,-58.4781433,2026-05-25T00:11:57.816491+00:00,approved,active,Argentina,community,osm_venues_ar_v4,ar_00114,ar_venues_batch_v4,2026-05-25T00:11:57.816491+00:00,osm_import_terminal_v4,{},venue
Bar Rayuela,,,,,,,,-34.5966484,-58.4862514,2026-05-25T00:11:57.816491+00:00,approved,active,Argentina,community,osm_venues_ar_v4,ar_00115,ar_venues_batch_v4,2026-05-25T00:11:57.816491+00:00,osm_import_terminal_v4,{},venue
Cafetería & Resto Bar,,,,,,,,-34.6040667,-58.3823885,2026-05-25T00:11:57.816491+00:00,approved,active,Argentina,community,osm_venues_ar_v4,ar_00116,ar_venues_batch_v4,2026-05-25T00:11:57.816491+00:00,osm_import_terminal_v4,{},venue
Pizza Bar,,,,,,,,-34.6310207,-58.3854106,2026-05-25T00:11:57.816491+00:00,approved,active,Argentina,community,osm_venues_ar_v4,ar_00117,ar_venues_batch_v4,2026-05-25T00:11:57.816491+00:00,osm_import_terminal_v4,{},venue
Euforia Bar,,,,,,,,-32.9219954,-68.8468204,2026-05-25T00:11:57.816491+00:00,approved,active,Argentina,community,osm_venues_ar_v4,ar_00118,ar_venues_batch_v4,2026-05-25T00:11:57.816491+00:00,osm_import_terminal_v4,{},venue
Bar Arizona,,,,,,,,-34.6308045,-58.3978321,2026-05-25T00:11:57.816491+00:00,approved,active,Argentina,community,osm_venues_ar_v4,ar_00119,ar_venues_batch_v4,2026-05-25T00:11:57.816491+00:00,osm_import_terminal_v4,{},venue
Los Nonos de Barracas,Isabel la Católica,Ciudad Autónoma de Buenos Aires,,,,,,-34.6434542,-58.3723375,2026-05-25T00:11:57.816491+00:00,approved,active,Argentina,community,osm_venues_ar_v4,ar_00120,ar_venues_batch_v4,2026-05-25T00:11:57.816491+00:00,osm_import_terminal_v4,{},venue
Bar Argerich,Avenida Almirante Brown,Ciudad Autónoma de Buenos Aires,,,,,,-34.6279379,-58.3665539,2026-05-25T00:11:57.816491+00:00,approved,active,Argentina,community,osm_venues_ar_v4,ar_00121,ar_venues_batch_v4,2026-05-25T00:11:57.816491+00:00,osm_import_terminal_v4,{},venue
Erik Bar,,,,,,,,-34.5881863,-58.4311334,2026-05-25T00:11:57.816491+00:00,approved,active,Argentina,community,osm_venues_ar_v4,ar_00122,ar_venues_batch_v4,2026-05-25T00:11:57.816491+00:00,osm_import_terminal_v4,{},venue
Bar Irlanda,,,,,,,,-32.952413,-60.6424213,2026-05-25T00:11:57.816491+00:00,approved,active,Argentina,community,osm_venues_ar_v4,ar_00123,ar_venues_batch_v4,2026-05-25T00:11:57.816491+00:00,osm_import_terminal_v4,{},venue
Bar Stuttgart,,,,,,,,-32.9551332,-60.6521438,2026-05-25T00:11:57.816491+00:00,approved,active,Argentina,community,osm_venues_ar_v4,ar_00124,ar_venues_batch_v4,2026-05-25T00:11:57.816491+00:00,osm_import_terminal_v4,{},venue
Cafe Bar,Avenida Brasil,Ciudad Autónoma de Buenos Aires,,,,,,-34.6339259,-58.4063255,2026-05-25T00:11:57.816491+00:00,approved,active,Argentina,community,osm_venues_ar_v4,ar_00125,ar_venues_batch_v4,2026-05-25T00:11:57.816491+00:00,osm_import_terminal_v4,{},venue
Bar Restaurant,Avenida Almafuerte,Ciudad Autónoma de Buenos Aires,,,,,,-34.6472326,-58.4151609,2026-05-25T00:11:57.816491+00:00,approved,active,Argentina,community,osm_venues_ar_v4,ar_00126,ar_venues_batch_v4,2026-05-25T00:11:57.816491+00:00,osm_import_terminal_v4,{},venue
Restaurante Bar,Perdriel,Ciudad Autónoma de Buenos Aires,,,,,,-34.6341798,-58.3885622,2026-05-25T00:11:57.816491+00:00,approved,active,Argentina,community,osm_venues_ar_v4,ar_00127,ar_venues_batch_v4,2026-05-25T00:11:57.816491+00:00,osm_import_terminal_v4,{},venue
Remiseria Bar,Avenida Osvaldo Cruz,Ciudad Autónoma de Buenos Aires,,,,,,-34.6558388,-58.4024973,2026-05-25T00:11:57.816491+00:00,approved,active,Argentina,community,osm_venues_ar_v4,ar_00128,ar_venues_batch_v4,2026-05-25T00:11:57.816491+00:00,osm_import_terminal_v4,{},venue
Bar & Heladerías,Avenida General Iriarte,Ciudad Autónoma de Buenos Aires,,,,,,-34.6510673,-58.3997796,2026-05-25T00:11:57.816491+00:00,approved,active,Argentina,community,osm_venues_ar_v4,ar_00129,ar_venues_batch_v4,2026-05-25T00:11:57.816491+00:00,osm_import_terminal_v4,{},venue
Bulebar,2969 Avenida García del Río,Ciudad Autónoma de Buenos Aires,,C1429DEF,,https://www.bulebar.com.ar/,,-34.5494136,-58.4750005,2026-05-25T00:11:57.816491+00:00,approved,active,Argentina,community,osm_venues_ar_v4,ar_00130,ar_venues_batch_v4,2026-05-25T00:11:57.816491+00:00,osm_import_terminal_v4,{},venue
The Monkey´s Bar,4462 Guatemala,Ciudad Autónoma de Buenos Aires,,,,,,-34.5881715,-58.4223307,2026-05-25T00:11:57.816491+00:00,approved,active,Argentina,community,osm_venues_ar_v4,ar_00131,ar_venues_batch_v4,2026-05-25T00:11:57.816491+00:00,osm_import_terminal_v4,{},venue
Bar Soria,5151 Gorriti,Ciudad Autónoma de Buenos Aires,,,,,,-34.5882895,-58.4326977,2026-05-25T00:11:57.816491+00:00,approved,active,Argentina,community,osm_venues_ar_v4,ar_00132,ar_venues_batch_v4,2026-05-25T00:11:57.816491+00:00,osm_import_terminal_v4,{},venue
Barlovento,Carlos Francisco Melo,,,,,,,-34.5403015,-58.503015,2026-05-25T00:11:57.816491+00:00,approved,active,Argentina,community,osm_venues_ar_v4,ar_00133,ar_venues_batch_v4,2026-05-25T00:11:57.816491+00:00,osm_import_terminal_v4,{},venue
Pizzería El Barba,1302 Avenida Lope de Vega,Ciudad Autónoma de Buenos Aires,,C1407BNZ,+54 11 4639-6363; +54 11 4639-6278,,,-34.6276099,-58.5074934,2026-05-25T00:11:57.816491+00:00,approved,active,Argentina,community,osm_venues_ar_v4,ar_00134,ar_venues_batch_v4,2026-05-25T00:11:57.816491+00:00,osm_import_terminal_v4,{},venue
Santos Barriles,425 - Rodríguez Peña,,,,,,,-34.5981311,-58.5435541,2026-05-25T00:11:57.816491+00:00,approved,active,Argentina,community,osm_venues_ar_v4,ar_00135,ar_venues_batch_v4,2026-05-25T00:11:57.816491+00:00,osm_import_terminal_v4,{},venue
Bar Yotala,,,,,,,,-34.7356876,-58.4801157,2026-05-25T00:11:57.816491+00:00,approved,active,Argentina,community,osm_venues_ar_v4,ar_00136,ar_venues_batch_v4,2026-05-25T00:11:57.816491+00:00,osm_import_terminal_v4,{},venue
Resto Bar,Avenida Olazábal,Ciudad Autónoma de Buenos Aires,,,,,,-34.5797744,-58.4918816,2026-05-25T00:11:57.816491+00:00,approved,active,Argentina,community,osm_venues_ar_v4,ar_00137,ar_venues_batch_v4,2026-05-25T00:11:57.816491+00:00,osm_import_terminal_v4,{},venue
Go Bar,José Antonio Cabrera,Ciudad Autónoma de Buenos Aires,,,,,,-34.5823745,-58.442799,2026-05-25T00:11:57.816491+00:00,approved,active,Argentina,community,osm_venues_ar_v4,ar_00138,ar_venues_batch_v4,2026-05-25T00:11:57.816491+00:00,osm_import_terminal_v4,{},venue
Zulu Bar,4185 Monroe,Ciudad Autónoma de Buenos Aires,,,+54 11 4545-1964,,,-34.5686811,-58.4770305,2026-05-25T00:11:57.816491+00:00,approved,active,Argentina,community,osm_venues_ar_v4,ar_00139,ar_venues_batch_v4,2026-05-25T00:11:57.816491+00:00,osm_import_terminal_v4,{},venue
Ciro Bar,,,,,,,,-34.613253,-58.4797488,2026-05-25T00:11:57.816491+00:00,approved,active,Argentina,community,osm_venues_ar_v4,ar_00140,ar_venues_batch_v4,2026-05-25T00:11:57.816491+00:00,osm_import_terminal_v4,{},venue
Pub,,,,,,,,-34.6174743,-58.3701566,2026-05-25T00:11:57.816491+00:00,approved,active,Argentina,community,osm_venues_ar_v4,ar_00141,ar_venues_batch_v4,2026-05-25T00:11:57.816491+00:00,osm_import_terminal_v4,{},venue
Bar Piedras,,,,,,,,-34.6173378,-58.3774552,2026-05-25T00:11:57.816491+00:00,approved,active,Argentina,community,osm_venues_ar_v4,ar_00142,ar_venues_batch_v4,2026-05-25T00:11:57.816491+00:00,osm_import_terminal_v4,{},venue
Rotiseria Bar,Lavalle,Ciudad Autónoma de Buenos Aires,,,,,,-34.6009914,-58.4141217,2026-05-25T00:11:57.816491+00:00,approved,active,Argentina,community,osm_venues_ar_v4,ar_00143,ar_venues_batch_v4,2026-05-25T00:11:57.816491+00:00,osm_import_terminal_v4,{},venue
Urbe Bar,,,,,,,,-34.6166206,-58.3715416,2026-05-25T00:11:57.816491+00:00,approved,active,Argentina,community,osm_venues_ar_v4,ar_00144,ar_venues_batch_v4,2026-05-25T00:11:57.816491+00:00,osm_import_terminal_v4,{},venue
Barba Roja,,,,,,,,-34.614148,-58.3717814,2026-05-25T00:11:57.816491+00:00,approved,active,Argentina,community,osm_venues_ar_v4,ar_00145,ar_venues_batch_v4,2026-05-25T00:11:57.816491+00:00,osm_import_terminal_v4,{},venue
debar,3602 Lavalle,Ciudad Autónoma de Buenos Aires,,1190,,,,-34.600474,-58.4163021,2026-05-25T00:11:57.816491+00:00,approved,active,Argentina,community,osm_venues_ar_v4,ar_00146,ar_venues_batch_v4,2026-05-25T00:11:57.816491+00:00,osm_import_terminal_v4,{},venue
Borne Bar de Copas,,,,,,,,-34.6160143,-58.3720751,2026-05-25T00:11:57.816491+00:00,approved,active,Argentina,community,osm_venues_ar_v4,ar_00147,ar_venues_batch_v4,2026-05-25T00:11:57.816491+00:00,osm_import_terminal_v4,{},venue
Resto Bar,General Nazar,,,,,,,-34.6951387,-58.5326427,2026-05-25T00:11:57.816491+00:00,approved,active,Argentina,community,osm_venues_ar_v4,ar_00148,ar_venues_batch_v4,2026-05-25T00:11:57.816491+00:00,osm_import_terminal_v4,{},venue
Modo Bar,,,,,,,,-34.6985963,-58.5072414,2026-05-25T00:11:57.816491+00:00,approved,active,Argentina,community,osm_venues_ar_v4,ar_00149,ar_venues_batch_v4,2026-05-25T00:11:57.816491+00:00,osm_import_terminal_v4,{},venue
Baronia,,,,,,,,-34.6634567,-58.5205544,2026-05-25T00:11:57.816491+00:00,approved,active,Argentina,community,osm_venues_ar_v4,ar_00150,ar_venues_batch_v4,2026-05-25T00:11:57.816491+00:00,osm_import_terminal_v4,{},venue
Río Bar,Avenida Corrientes,Ciudad Autónoma de Buenos Aires,,,,,,-34.6046274,-58.3943462,2026-05-25T00:11:57.816491+00:00,approved,active,Argentina,community,osm_venues_ar_v4,ar_00151,ar_venues_batch_v4,2026-05-25T00:11:57.816491+00:00,osm_import_terminal_v4,{},venue
Buffalo Bar,,,,,,,,-32.8923104,-68.8557373,2026-05-25T00:11:57.816491+00:00,approved,active,Argentina,community,osm_venues_ar_v4,ar_00152,ar_venues_batch_v4,2026-05-25T00:11:57.816491+00:00,osm_import_terminal_v4,{},venue
Bar Ecuador,Maipú,Ciudad Autónoma de Buenos Aires,,,+54 11 4328-6306,,,-34.6065116,-58.3766272,2026-05-25T00:11:57.816491+00:00,approved,active,Argentina,community,osm_venues_ar_v4,ar_00153,ar_venues_batch_v4,2026-05-25T00:11:57.816491+00:00,osm_import_terminal_v4,{},venue
Bar the Bar,,,,,,,,-34.6083307,-58.3790399,2026-05-25T00:11:57.816491+00:00,approved,active,Argentina,community,osm_venues_ar_v4,ar_00154,ar_venues_batch_v4,2026-05-25T00:11:57.816491+00:00,osm_import_terminal_v4,{},venue
Restó Bar Tolomé,,,,,,,,-34.6070881,-58.379726,2026-05-25T00:11:57.816491+00:00,approved,active,Argentina,community,osm_venues_ar_v4,ar_00155,ar_venues_batch_v4,2026-05-25T00:11:57.816491+00:00,osm_import_terminal_v4,{},venue
Kentucky Pizzeria Bar,Bartolomé Mitre,Ciudad Autónoma de Buenos Aires,,,,,,-34.6065031,-58.3709414,2026-05-25T00:11:57.816491+00:00,approved,active,Argentina,community,osm_venues_ar_v4,ar_00156,ar_venues_batch_v4,2026-05-25T00:11:57.816491+00:00,osm_import_terminal_v4,{},venue
Serena's Restaurante & Bar,Viamonte,Ciudad Autónoma de Buenos Aires,,,,,,-34.5998704,-58.3764751,2026-05-25T00:11:57.816491+00:00,approved,active,Argentina,community,osm_venues_ar_v4,ar_00157,ar_venues_batch_v4,2026-05-25T00:11:57.816491+00:00,osm_import_terminal_v4,{},venue
St. George Snack Bar,Viamonte,Ciudad Autónoma de Buenos Aires,,,,,,-34.6000202,-58.3762288,2026-05-25T00:11:57.816491+00:00,approved,active,Argentina,community,osm_venues_ar_v4,ar_00158,ar_venues_batch_v4,2026-05-25T00:11:57.816491+00:00,osm_import_terminal_v4,{},venue
Bar Tucumán,Tucumán,,,,,,,-34.6011993,-58.3792541,2026-05-25T00:11:57.816491+00:00,approved,active,Argentina,community,osm_venues_ar_v4,ar_00159,ar_venues_batch_v4,2026-05-25T00:11:57.816491+00:00,osm_import_terminal_v4,{},venue
El Viejo Bar,1101 Almirante Brown,Ramos Mejía,,1704,4464-1459,https://www.instagram.com/el_viejo_bar,,-34.6492577,-58.5479601,2026-05-25T00:11:57.816491+00:00,approved,active,Argentina,community,osm_venues_ar_v4,ar_00160,ar_venues_batch_v4,2026-05-25T00:11:57.816491+00:00,osm_import_terminal_v4,{},venue
Rodi-Bar,1900 Vicente López,Ciudad Autónoma de Buenos Aires,,,,,,-34.5900841,-58.3919113,2026-05-25T00:11:57.816491+00:00,approved,active,Argentina,community,osm_venues_ar_v4,ar_00161,ar_venues_batch_v4,2026-05-25T00:11:57.816491+00:00,osm_import_terminal_v4,{},venue
Bar El Coloñal,,,,,,,,-34.6124964,-58.3745855,2026-05-25T00:11:57.816491+00:00,approved,active,Argentina,community,osm_venues_ar_v4,ar_00162,ar_venues_batch_v4,2026-05-25T00:11:57.816491+00:00,osm_import_terminal_v4,{},venue
Don Ebaristo,Domingo F. Sarmiento,,,,,,,-32.8897045,-68.7989388,2026-05-25T00:11:57.816491+00:00,approved,active,Argentina,community,osm_venues_ar_v4,ar_00163,ar_venues_batch_v4,2026-05-25T00:11:57.816491+00:00,osm_import_terminal_v4,{},venue
Unplug Bar,1132 Rivadavia,Ciudad Autónoma de Buenos Aires,,,+54 11 4381-6876,,,-34.6085433,-58.382577,2026-05-25T00:11:57.816491+00:00,approved,active,Argentina,community,osm_venues_ar_v4,ar_00164,ar_venues_batch_v4,2026-05-25T00:11:57.816491+00:00,osm_import_terminal_v4,{},venue
Bar Broa,4599 Deheza,Ciudad Autónoma de Buenos Aires,,,,,,-34.5431423,-58.4782768,2026-05-25T00:11:57.816491+00:00,approved,active,Argentina,community,osm_venues_ar_v4,ar_00165,ar_venues_batch_v4,2026-05-25T00:11:57.816491+00:00,osm_import_terminal_v4,{},venue
El Barcito,,,,,,,,-34.5900277,-58.4399782,2026-05-25T00:11:57.816491+00:00,approved,active,Argentina,community,osm_venues_ar_v4,ar_00166,ar_venues_batch_v4,2026-05-25T00:11:57.816491+00:00,osm_import_terminal_v4,{},venue
Mi Barrio & Mi Gente,704 General José Gervasio Artigas,Ciudad Autónoma de Buenos Aires,,C1406ABL,,,,-34.6224106,-58.4672278,2026-05-25T00:11:57.816491+00:00,approved,active,Argentina,community,osm_venues_ar_v4,ar_00167,ar_venues_batch_v4,2026-05-25T00:11:57.816491+00:00,osm_import_terminal_v4,{},venue
Believe Irish Pub,241 Avenida Colón,,,,54 0261 4295567,,,-32.8942552,-68.8435958,2026-05-25T00:11:57.816491+00:00,approved,active,Argentina,community,osm_venues_ar_v4,ar_00168,ar_venues_batch_v4,2026-05-25T00:11:57.816491+00:00,osm_import_terminal_v4,{},venue
Barba Azul,2699 Avenida Álvarez Thomas,Ciudad Autónoma de Buenos Aires,,1431,+54 11 4523-4227,,,-34.5749262,-58.4784506,2026-05-25T00:11:57.816491+00:00,approved,active,Argentina,community,osm_venues_ar_v4,ar_00169,ar_venues_batch_v4,2026-05-25T00:11:57.816491+00:00,osm_import_terminal_v4,{},venue
Fukuro Noodle bar,5514 Costa Rica,Ciudad Autónoma de Buenos Aires,,,,,,-34.5832923,-58.433967,2026-05-25T00:11:57.816491+00:00,approved,active,Argentina,community,osm_venues_ar_v4,ar_00170,ar_venues_batch_v4,2026-05-25T00:11:57.816491+00:00,osm_import_terminal_v4,{},venue
M Street Bar,5935 Nicaragua,Ciudad Autónoma de Buenos Aires,,1414,+54 11 4776-8602,http://www.mstreetbar.com.ar/,,-34.5788386,-58.4369109,2026-05-25T00:11:57.816491+00:00,approved,active,Argentina,community,osm_venues_ar_v4,ar_00171,ar_venues_batch_v4,2026-05-25T00:11:57.816491+00:00,osm_import_terminal_v4,{},venue
Gaettano bar,,,,,,,,-31.4167385,-64.1771448,2026-05-25T00:11:57.816491+00:00,approved,active,Argentina,community,osm_venues_ar_v4,ar_00172,ar_venues_batch_v4,2026-05-25T00:11:57.816491+00:00,osm_import_terminal_v4,{},venue
Celta Bar,1701 Sarmiento,Ciudad Autónoma de Buenos Aires,,,,http://www.losnotablea.com.ar,,-34.6056608,-58.390907,2026-05-25T00:11:57.816491+00:00,approved,active,Argentina,community,osm_venues_ar_v4,ar_00173,ar_venues_batch_v4,2026-05-25T00:11:57.816491+00:00,osm_import_terminal_v4,{},venue
Banana Bar,,,,,,,,-32.8926613,-68.8521594,2026-05-25T00:11:57.816491+00:00,approved,active,Argentina,community,osm_venues_ar_v4,ar_00174,ar_venues_batch_v4,2026-05-25T00:11:57.816491+00:00,osm_import_terminal_v4,{},venue
Bar La Cigale,597 25 de Mayo,,,,,,,-34.6009838,-58.3711812,2026-05-25T00:11:57.816491+00:00,approved,active,Argentina,community,osm_venues_ar_v4,ar_00175,ar_venues_batch_v4,2026-05-25T00:11:57.816491+00:00,osm_import_terminal_v4,{},venue
paradojas bar,,,,,,,,-31.4240569,-64.1914941,2026-05-25T00:11:57.816491+00:00,approved,active,Argentina,community,osm_venues_ar_v4,ar_00176,ar_venues_batch_v4,2026-05-25T00:11:57.816491+00:00,osm_import_terminal_v4,{},venue
La Barra,484 Avenida Córdoba,,,,,,,-34.598803,-58.3740889,2026-05-25T00:11:57.816491+00:00,approved,active,Argentina,community,osm_venues_ar_v4,ar_00177,ar_venues_batch_v4,2026-05-25T00:11:57.816491+00:00,osm_import_terminal_v4,{},venue
La Barca,Avenida Montevideo,,,,,,,-34.7176719,-58.3061916,2026-05-25T00:11:57.816491+00:00,approved,active,Argentina,community,osm_venues_ar_v4,ar_00178,ar_venues_batch_v4,2026-05-25T00:11:57.816491+00:00,osm_import_terminal_v4,{},venue
Tauro Grill & Bar,,,,,,,,-32.9385586,-60.6735756,2026-05-25T00:11:57.816491+00:00,approved,active,Argentina,community,osm_venues_ar_v4,ar_00179,ar_venues_batch_v4,2026-05-25T00:11:57.816491+00:00,osm_import_terminal_v4,{},venue
El Barrilito,,,,,,,,-32.9304105,-60.7282121,2026-05-25T00:11:57.816491+00:00,approved,active,Argentina,community,osm_venues_ar_v4,ar_00180,ar_venues_batch_v4,2026-05-25T00:11:57.816491+00:00,osm_import_terminal_v4,{},venue
El Bar,1016 Corrientes,Rosario,,2000,,,,-32.9485112,-60.6431837,2026-05-25T00:11:57.816491+00:00,approved,active,Argentina,community,osm_venues_ar_v4,ar_00181,ar_venues_batch_v4,2026-05-25T00:11:57.816491+00:00,osm_import_terminal_v4,{},venue
Barroco,Zeballos,Rosario,,,,,,-32.9571019,-60.6292507,2026-05-25T00:11:57.816491+00:00,approved,active,Argentina,community,osm_venues_ar_v4,ar_00182,ar_venues_batch_v4,2026-05-25T00:11:57.816491+00:00,osm_import_terminal_v4,{},venue
Rosebar,,,,,,,,-34.5855113,-58.4342957,2026-05-25T00:11:57.816491+00:00,approved,active,Argentina,community,osm_venues_ar_v4,ar_00183,ar_venues_batch_v4,2026-05-25T00:11:57.816491+00:00,osm_import_terminal_v4,{},venue
Chulavista Beach Bar,2272 Avenida Eudoro Carrasco,Rosario,,2005,,,,-32.890044,-60.6861015,2026-05-25T00:11:57.816491+00:00,approved,active,Argentina,community,osm_venues_ar_v4,ar_00184,ar_venues_batch_v4,2026-05-25T00:11:57.816491+00:00,osm_import_terminal_v4,{},venue
Dársena Bar,4354 José Antonio Cabrera,Ciudad Autónoma de Buenos Aires,,,,,,-34.5946288,-58.4258806,2026-05-25T00:11:57.816491+00:00,approved,active,Argentina,community,osm_venues_ar_v4,ar_00185,ar_venues_batch_v4,2026-05-25T00:11:57.816491+00:00,osm_import_terminal_v4,{},venue
The Barbeer,Boulevard Chacabuco,,,,,,,-31.4294795,-64.1853999,2026-05-25T00:11:57.816491+00:00,approved,active,Argentina,community,osm_venues_ar_v4,ar_00186,ar_venues_batch_v4,2026-05-25T00:11:57.816491+00:00,osm_import_terminal_v4,{},venue
Trova Bar,,,,,,,,-34.5816062,-58.4393733,2026-05-25T00:11:57.816491+00:00,approved,active,Argentina,community,osm_venues_ar_v4,ar_00187,ar_venues_batch_v4,2026-05-25T00:11:57.816491+00:00,osm_import_terminal_v4,{},venue
Parque Bar Botanico,,,,,,,,-34.5888895,-58.4325208,2026-05-25T00:11:57.816491+00:00,approved,active,Argentina,community,osm_venues_ar_v4,ar_00188,ar_venues_batch_v4,2026-05-25T00:11:57.816491+00:00,osm_import_terminal_v4,{},venue
The Beer Pub,San Juan,Rosario,,2000,,,,-32.9481914,-60.6505957,2026-05-25T00:11:57.816491+00:00,approved,active,Argentina,community,osm_venues_ar_v4,ar_00189,ar_venues_batch_v4,2026-05-25T00:11:57.816491+00:00,osm_import_terminal_v4,{},venue
Aqua Bar,,,,,,,,-32.9112614,-60.6751245,2026-05-25T00:11:57.816491+00:00,approved,active,Argentina,community,osm_venues_ar_v4,ar_00190,ar_venues_batch_v4,2026-05-25T00:11:57.816491+00:00,osm_import_terminal_v4,{},venue
El Perro Del Lombardo5,521 Arístides Villanueva,,,,,,,-32.8915359,-68.8583287,2026-05-25T00:11:57.816491+00:00,approved,active,Argentina,community,osm_venues_ar_v4,ar_00191,ar_venues_batch_v4,2026-05-25T00:11:57.816491+00:00,osm_import_terminal_v4,{},venue
The Bar,Avenida Pablo Ricchieri,,,,,,,-31.4505978,-64.176845,2026-05-25T00:11:57.816491+00:00,approved,active,Argentina,community,osm_venues_ar_v4,ar_00192,ar_venues_batch_v4,2026-05-25T00:11:57.816491+00:00,osm_import_terminal_v4,{},venue
Bar Cafe Eiffel,46 Ayacucho,,,,,,,-31.4150272,-64.1897613,2026-05-25T00:11:57.816491+00:00,approved,active,Argentina,community,osm_venues_ar_v4,ar_00193,ar_venues_batch_v4,2026-05-25T00:11:57.816491+00:00,osm_import_terminal_v4,{},venue
Eatbar,,,,,,,,-34.6159642,-58.3655659,2026-05-25T00:11:57.816491+00:00,approved,active,Argentina,community,osm_venues_ar_v4,ar_00194,ar_venues_batch_v4,2026-05-25T00:11:57.816491+00:00,osm_import_terminal_v4,{},venue
Seta Bar,3972 Gorriti,Ciudad Autónoma de Buenos Aires,,,,,,-34.5954918,-58.4209702,2026-05-25T00:11:57.816491+00:00,approved,active,Argentina,community,osm_venues_ar_v4,ar_00195,ar_venues_batch_v4,2026-05-25T00:11:57.816491+00:00,osm_import_terminal_v4,{},venue
La Bartola de Barracas,,,,,+54 11 3979-3095,,,-34.6535788,-58.3810499,2026-05-25T00:11:57.816491+00:00,approved,active,Argentina,community,osm_venues_ar_v4,ar_00196,ar_venues_batch_v4,2026-05-25T00:11:57.816491+00:00,osm_import_terminal_v4,{},venue
El Pirata de Barracas,,,,,,,,-34.6525087,-58.3760127,2026-05-25T00:11:57.816491+00:00,approved,active,Argentina,community,osm_venues_ar_v4,ar_00197,ar_venues_batch_v4,2026-05-25T00:11:57.816491+00:00,osm_import_terminal_v4,{},venue
Los Pitufos Bar - Pool,,,,,,,,-32.9090754,-68.8593064,2026-05-25T00:11:57.816491+00:00,approved,active,Argentina,community,osm_venues_ar_v4,ar_00198,ar_venues_batch_v4,2026-05-25T00:11:57.816491+00:00,osm_import_terminal_v4,{},venue
Wunderbar,2830 Avenida Crámer,Ciudad Autónoma de Buenos Aires,,1428,+54 11 2133-7805,https://www.wunderbar.com.ar/,,-34.5585085,-58.466827,2026-05-25T00:11:57.816491+00:00,approved,active,Argentina,community,osm_venues_ar_v4,ar_00199,ar_venues_batch_v4,2026-05-25T00:11:57.816491+00:00,osm_import_terminal_v4,{},venue
Chaco bar,,,,,,,,-34.6171574,-58.429175,2026-05-25T00:11:57.816491+00:00,approved,active,Argentina,community,osm_venues_ar_v4,ar_00200,ar_venues_batch_v4,2026-05-25T00:11:57.816491+00:00,osm_import_terminal_v4,{},venue
El Bar de Kowalski,835 Billinghurst,Ciudad Autónoma de Buenos Aires,,1174,,,,-34.60034,-58.4149298,2026-05-25T00:11:57.816491+00:00,approved,active,Argentina,community,osm_venues_ar_v4,ar_00201,ar_venues_batch_v4,2026-05-25T00:11:57.816491+00:00,osm_import_terminal_v4,{},venue
Santos Vega Draught Bar,5924 Avenida Coronel Niceto Vega,Ciudad Autónoma de Buenos Aires,,,,https://santos-vega.com/,,-34.5843673,-58.442959,2026-05-25T00:11:57.816491+00:00,approved,active,Argentina,community,osm_venues_ar_v4,ar_00202,ar_venues_batch_v4,2026-05-25T00:11:57.816491+00:00,osm_import_terminal_v4,{},venue
Deli Bar & take away,1470 Peatonal Córdoba,Rosario,,,,,,-32.9454055,-60.6434102,2026-05-25T00:11:57.816491+00:00,approved,active,Argentina,community,osm_venues_ar_v4,ar_00203,ar_venues_batch_v4,2026-05-25T00:11:57.816491+00:00,osm_import_terminal_v4,{},venue
La Barra vinos & carnes,,,,,,,,-32.888944,-68.8500261,2026-05-25T00:11:57.816491+00:00,approved,active,Argentina,community,osm_venues_ar_v4,ar_00204,ar_venues_batch_v4,2026-05-25T00:11:57.816491+00:00,osm_import_terminal_v4,{},venue
bardot,,,,,,,,-32.8877976,-68.8493219,2026-05-25T00:11:57.816491+00:00,approved,active,Argentina,community,osm_venues_ar_v4,ar_00205,ar_venues_batch_v4,2026-05-25T00:11:57.816491+00:00,osm_import_terminal_v4,{},venue
Bar El Destello,1460 Gascón,Ciudad Autónoma de Buenos Aires,,,,https://bareldestello.com.ar/,,-34.5934006,-58.4229219,2026-05-25T00:11:57.816491+00:00,approved,active,Argentina,community,osm_venues_ar_v4,ar_00206,ar_venues_batch_v4,2026-05-25T00:11:57.816491+00:00,osm_import_terminal_v4,{},venue
Bartola,,,,,,,,-34.5565829,-58.4524789,2026-05-25T00:11:57.816491+00:00,approved,active,Argentina,community,osm_venues_ar_v4,ar_00207,ar_venues_batch_v4,2026-05-25T00:11:57.816491+00:00,osm_import_terminal_v4,{},venue
Baris Cerveca artesanal,779 Marcelo T. de Alvear,Ciudad Autónoma de Buenos Aires,,,,,,-34.5963014,-58.3782779,2026-05-25T00:11:57.816491+00:00,approved,active,Argentina,community,osm_venues_ar_v4,ar_00208,ar_venues_batch_v4,2026-05-25T00:11:57.816491+00:00,osm_import_terminal_v4,{},venue
Anasagasti Bar,2067 Anasagasti,Ciudad Autónoma de Buenos Aires,,,,http://www.anasagasti.com.ar,,-34.5888842,-58.4113918,2026-05-25T00:11:57.816491+00:00,approved,active,Argentina,community,osm_venues_ar_v4,ar_00209,ar_venues_batch_v4,2026-05-25T00:11:57.816491+00:00,osm_import_terminal_v4,{},venue
Barista Coffee House,1404 Ocampo,Rosario,,2000,,,,-32.965583,-60.6475535,2026-05-25T00:11:57.816491+00:00,approved,active,Argentina,community,osm_venues_ar_v4,ar_00210,ar_venues_batch_v4,2026-05-25T00:11:57.816491+00:00,osm_import_terminal_v4,{},venue
The Hole bar,1743 Armenia,Ciudad Autónoma de Buenos Aires,,,,,,-34.589079,-58.4266579,2026-05-25T00:11:57.816491+00:00,approved,active,Argentina,community,osm_venues_ar_v4,ar_00211,ar_venues_batch_v4,2026-05-25T00:11:57.816491+00:00,osm_import_terminal_v4,{},venue
Bar 3 Calaveras,,,,,,,,-31.4318391,-64.1878088,2026-05-25T00:11:57.816491+00:00,approved,active,Argentina,community,osm_venues_ar_v4,ar_00212,ar_venues_batch_v4,2026-05-25T00:11:57.816491+00:00,osm_import_terminal_v4,{},venue
Bar! Merci,455 Carlos Calvo,Ciudad Autónoma de Buenos Aires,,,,,,-34.619495,-58.3724483,2026-05-25T00:11:57.816491+00:00,approved,active,Argentina,community,osm_venues_ar_v4,ar_00213,ar_venues_batch_v4,2026-05-25T00:11:57.816491+00:00,osm_import_terminal_v4,{},venue
Adorado Bar,1251 Alvarado,,,,,,,-38.0166304,-57.5416484,2026-05-25T00:11:57.816491+00:00,approved,active,Argentina,community,osm_venues_ar_v4,ar_00214,ar_venues_batch_v4,2026-05-25T00:11:57.816491+00:00,osm_import_terminal_v4,{},venue
Bar Patagonia,,,,,,,,-34.6010404,-58.3999012,2026-05-25T00:11:57.816491+00:00,approved,active,Argentina,community,osm_venues_ar_v4,ar_00215,ar_venues_batch_v4,2026-05-25T00:11:57.816491+00:00,osm_import_terminal_v4,{},venue
Café Bar Cristóbal,,,,,,,,-34.6186176,-58.3973928,2026-05-25T00:11:57.816491+00:00,approved,active,Argentina,community,osm_venues_ar_v4,ar_00216,ar_venues_batch_v4,2026-05-25T00:11:57.816491+00:00,osm_import_terminal_v4,{},venue
Jerome - The Beer Republic,1602 Uriarte,Ciudad Autónoma de Buenos Aires,,,,,,-34.5872935,-58.4320692,2026-05-25T00:11:57.816491+00:00,approved,active,Argentina,community,osm_venues_ar_v4,ar_00217,ar_venues_batch_v4,2026-05-25T00:11:57.816491+00:00,osm_import_terminal_v4,{},venue
Santos Barriles,,,,,,,,-34.600042,-58.546327,2026-05-25T00:11:57.816491+00:00,approved,active,Argentina,community,osm_venues_ar_v4,ar_00218,ar_venues_batch_v4,2026-05-25T00:11:57.816491+00:00,osm_import_terminal_v4,{},venue
Bar La Norita,,,,,,,,-34.6418215,-58.5277713,2026-05-25T00:11:57.816491+00:00,approved,active,Argentina,community,osm_venues_ar_v4,ar_00219,ar_venues_batch_v4,2026-05-25T00:11:57.816491+00:00,osm_import_terminal_v4,{},venue
Rosa Bar,,,,,,,,-34.6425038,-58.5275836,2026-05-25T00:11:57.816491+00:00,approved,active,Argentina,community,osm_venues_ar_v4,ar_00220,ar_venues_batch_v4,2026-05-25T00:11:57.816491+00:00,osm_import_terminal_v4,{},venue
Abarrote,Paraguay,Rosario,,,,,,-32.944525,-60.643616,2026-05-25T00:11:57.816491+00:00,approved,active,Argentina,community,osm_venues_ar_v4,ar_00221,ar_venues_batch_v4,2026-05-25T00:11:57.816491+00:00,osm_import_terminal_v4,{},venue
VALHALLA Bar Vikingo,825 Bolívar,Ciudad Autónoma de Buenos Aires,,,+54 11 4300-7901,,,-34.6174969,-58.373159,2026-05-25T00:11:57.816491+00:00,approved,active,Argentina,community,osm_venues_ar_v4,ar_00222,ar_venues_batch_v4,2026-05-25T00:11:57.816491+00:00,osm_import_terminal_v4,{},venue
Nicasio Restobar,344 Bulevar Nicasio Oroño,Rosario,,,+54 341 437-7166,,,-32.9384231,-60.6522615,2026-05-25T00:11:57.816491+00:00,approved,active,Argentina,community,osm_venues_ar_v4,ar_00223,ar_venues_batch_v4,2026-05-25T00:11:57.816491+00:00,osm_import_terminal_v4,{},venue
Barú,,,,,,,,-34.5929535,-58.4283156,2026-05-25T00:11:57.816491+00:00,approved,active,Argentina,community,osm_venues_ar_v4,ar_00224,ar_venues_batch_v4,2026-05-25T00:11:57.816491+00:00,osm_import_terminal_v4,{},venue
Bar Tia Rosa,Inmigrantes 1,Ciudad Autónoma de Buenos Aires,,1104,,,,-34.5824668,-58.3768135,2026-05-25T00:11:57.816491+00:00,approved,active,Argentina,community,osm_venues_ar_v4,ar_00225,ar_venues_batch_v4,2026-05-25T00:11:57.816491+00:00,osm_import_terminal_v4,{},venue
Desarmadero Bar,4295 Gorriti,Ciudad Autónoma de Buenos Aires,,,+54 9 11 6737 6903,https://www.desarmadero.com.ar/,,-34.5941489,-58.42417,2026-05-25T00:11:57.816491+00:00,approved,active,Argentina,community,osm_venues_ar_v4,ar_00226,ar_venues_batch_v4,2026-05-25T00:11:57.816491+00:00,osm_import_terminal_v4,{},venue
Doc bar de vino,4977 José Antonio Cabrera,Ciudad Autónoma de Buenos Aires,,,,,,-34.5900383,-58.4319599,2026-05-25T00:11:57.816491+00:00,approved,active,Argentina,community,osm_venues_ar_v4,ar_00227,ar_venues_batch_v4,2026-05-25T00:11:57.816491+00:00,osm_import_terminal_v4,{},venue
Vico wine bar,1149 Gurruchaga,,,,,,,-34.5925953,-58.4341519,2026-05-25T00:11:57.816491+00:00,approved,active,Argentina,community,osm_venues_ar_v4,ar_00228,ar_venues_batch_v4,2026-05-25T00:11:57.816491+00:00,osm_import_terminal_v4,{},venue
Bar y Vermú La Fuerza,1409 Avenida Dorrego,Ciudad Autónoma de Buenos Aires,,,,,,-34.5856015,-58.4449673,2026-05-25T00:11:57.816491+00:00,approved,active,Argentina,community,osm_venues_ar_v4,ar_00229,ar_venues_batch_v4,2026-05-25T00:11:57.816491+00:00,osm_import_terminal_v4,{},venue
Bar,188 Presidente Quintana,Ciudad Autónoma de Buenos Aires,,,,,,-34.5909632,-58.3867987,2026-05-25T00:11:57.816491+00:00,approved,active,Argentina,community,osm_venues_ar_v4,ar_00230,ar_venues_batch_v4,2026-05-25T00:11:57.816491+00:00,osm_import_terminal_v4,{},venue
D'Oro Italian Bar,159 Perú,Ciudad Autónoma de Buenos Aires,,C1067AAC,+54 11 5052-0381,https://doroitalianbar.com/,,-34.6098431,-58.3749938,2026-05-25T00:11:57.816491+00:00,approved,active,Argentina,community,osm_venues_ar_v4,ar_00231,ar_venues_batch_v4,2026-05-25T00:11:57.816491+00:00,osm_import_terminal_v4,{},venue
Bar Roma,806 Tomás Manuel de Anchorena,Ciudad Autónoma de Buenos Aires,,,,,,-34.5993646,-58.4088163,2026-05-25T00:11:57.816491+00:00,approved,active,Argentina,community,osm_venues_ar_v4,ar_00232,ar_venues_batch_v4,2026-05-25T00:11:57.816491+00:00,osm_import_terminal_v4,{},venue
Ocio bar,6430 Avenida Mendoza,Rosario,,,+54 341 458-0284,,,-32.9399246,-60.7095749,2026-05-25T00:11:57.816491+00:00,approved,active,Argentina,community,osm_venues_ar_v4,ar_00233,ar_venues_batch_v4,2026-05-25T00:11:57.816491+00:00,osm_import_terminal_v4,{},venue
Lutero Bar,3801 Avenida Jorge Newbery,Ciudad Autónoma de Buenos Aires,,,,,,-34.5859757,-58.4500606,2026-05-25T00:11:57.816491+00:00,approved,active,Argentina,community,osm_venues_ar_v4,ar_00234,ar_venues_batch_v4,2026-05-25T00:11:57.816491+00:00,osm_import_terminal_v4,{},venue
Trade Sky Bar,222 Avenida Corrientes,Ciudad Autónoma de Buenos Aires,,,,,,-34.6032827,-58.3705371,2026-05-25T00:11:57.816491+00:00,approved,active,Argentina,community,osm_venues_ar_v4,ar_00235,ar_venues_batch_v4,2026-05-25T00:11:57.816491+00:00,osm_import_terminal_v4,{},venue
Bar El Container,,,,,,,,-32.8836144,-68.8564927,2026-05-25T00:11:57.816491+00:00,approved,active,Argentina,community,osm_venues_ar_v4,ar_00236,ar_venues_batch_v4,2026-05-25T00:11:57.816491+00:00,osm_import_terminal_v4,{},venue
Bartolo's Pizzas y Tartas,,,,,,,,-37.995354,-57.5528811,2026-05-25T00:11:57.816491+00:00,approved,active,Argentina,community,osm_venues_ar_v4,ar_00237,ar_venues_batch_v4,2026-05-25T00:11:57.816491+00:00,osm_import_terminal_v4,{},venue
GTX Bar & Grill,1598 Bahía Blanca,,,,,,,-37.9791559,-57.584145,2026-05-25T00:11:57.816491+00:00,approved,active,Argentina,community,osm_venues_ar_v4,ar_00238,ar_venues_batch_v4,2026-05-25T00:11:57.816491+00:00,osm_import_terminal_v4,{},venue
Bar Café La Humedad,2540 Carlos Calvo,Ciudad Autónoma de Buenos Aires,,,,,,-34.6210654,-58.4013865,2026-05-25T00:11:57.816491+00:00,approved,active,Argentina,community,osm_venues_ar_v4,ar_00239,ar_venues_batch_v4,2026-05-25T00:11:57.816491+00:00,osm_import_terminal_v4,{},venue
Bar Baltimore,Brown,Rosario,,,,,,-32.9322163,-60.6639748,2026-05-25T00:11:57.816491+00:00,approved,active,Argentina,community,osm_venues_ar_v4,ar_00240,ar_venues_batch_v4,2026-05-25T00:11:57.816491+00:00,osm_import_terminal_v4,{},venue
Fenix Bar de Playa,,,,,,,,-38.0883343,-57.5413923,2026-05-25T00:11:57.816491+00:00,approved,active,Argentina,community,osm_venues_ar_v4,ar_00241,ar_venues_batch_v4,2026-05-25T00:11:57.816491+00:00,osm_import_terminal_v4,{},venue
Garden Bar,,,,,,,,-34.6091179,-58.5168346,2026-05-25T00:11:57.816491+00:00,approved,active,Argentina,community,osm_venues_ar_v4,ar_00242,ar_venues_batch_v4,2026-05-25T00:11:57.816491+00:00,osm_import_terminal_v4,{},venue
La Birra Bar,,,,,,,,-34.6115351,-58.520673,2026-05-25T00:11:57.816491+00:00,approved,active,Argentina,community,osm_venues_ar_v4,ar_00243,ar_venues_batch_v4,2026-05-25T00:11:57.816491+00:00,osm_import_terminal_v4,{},venue
Bar Viejo Munich,,,,,,,,-32.9618189,-60.6365136,2026-05-25T00:11:57.816491+00:00,approved,active,Argentina,community,osm_venues_ar_v4,ar_00244,ar_venues_batch_v4,2026-05-25T00:11:57.816491+00:00,osm_import_terminal_v4,{},venue
Bar Colage,,,,,,,,-34.6091975,-58.5175056,2026-05-25T00:11:57.816491+00:00,approved,active,Argentina,community,osm_venues_ar_v4,ar_00245,ar_venues_batch_v4,2026-05-25T00:11:57.816491+00:00,osm_import_terminal_v4,{},venue
Bar 7/11,Entre Ríos,Rosario,,,,,,-32.9490222,-60.6415963,2026-05-25T00:11:57.816491+00:00,approved,active,Argentina,community,osm_venues_ar_v4,ar_00246,ar_venues_batch_v4,2026-05-25T00:11:57.816491+00:00,osm_import_terminal_v4,{},venue
Trapabar,,,,,,,,-34.5965429,-58.4974147,2026-05-25T00:11:57.816491+00:00,approved,active,Argentina,community,osm_venues_ar_v4,ar_00247,ar_venues_batch_v4,2026-05-25T00:11:57.816491+00:00,osm_import_terminal_v4,{},venue
Cazona Bar Resto,545 General Bustos,Córdoba,,5000,,,,-31.4019511,-64.1860523,2026-05-25T00:11:57.816491+00:00,approved,active,Argentina,community,osm_venues_ar_v4,ar_00248,ar_venues_batch_v4,2026-05-25T00:11:57.816491+00:00,osm_import_terminal_v4,{},venue
Kika Resto Bar,Justo José de Urquiza,Rosario,,,,,,-32.941709,-60.6438247,2026-05-25T00:11:57.816491+00:00,approved,active,Argentina,community,osm_venues_ar_v4,ar_00249,ar_venues_batch_v4,2026-05-25T00:11:57.816491+00:00,osm_import_terminal_v4,{},venue
Ciento cinco bar,,,,,,,,-32.9353499,-60.6528235,2026-05-25T00:11:57.816491+00:00,approved,active,Argentina,community,osm_venues_ar_v4,ar_00250,ar_venues_batch_v4,2026-05-25T00:11:57.816491+00:00,osm_import_terminal_v4,{},venue
Tulum Bar de Playa,,,,,,,,-38.0756544,-57.5429748,2026-05-25T00:11:57.816491+00:00,approved,active,Argentina,community,osm_venues_ar_v4,ar_00251,ar_venues_batch_v4,2026-05-25T00:11:57.816491+00:00,osm_import_terminal_v4,{},venue
Ruda Bar,824 Crámer,Ciudad Autónoma de Buenos Aires,,1426,+54 9 11 5638 4016,,,-34.573075,-58.4486488,2026-05-25T00:11:57.816491+00:00,approved,active,Argentina,community,osm_venues_ar_v4,ar_00252,ar_venues_batch_v4,2026-05-25T00:11:57.816491+00:00,osm_import_terminal_v4,{},venue
Taxi Bar,,,,,,,,-34.6092048,-58.4172287,2026-05-25T00:11:57.816491+00:00,approved,active,Argentina,community,osm_venues_ar_v4,ar_00253,ar_venues_batch_v4,2026-05-25T00:11:57.816491+00:00,osm_import_terminal_v4,{},venue
Ambar,,,,,,,,-34.5807904,-58.4069542,2026-05-25T00:11:57.816491+00:00,approved,active,Argentina,community,osm_venues_ar_v4,ar_00254,ar_venues_batch_v4,2026-05-25T00:11:57.816491+00:00,osm_import_terminal_v4,{},venue
Drink House Bar,411 Coronel Beltrán,Godoy Cruz,,5501,,,,-32.9188501,-68.8504172,2026-05-25T00:11:57.816491+00:00,approved,active,Argentina,community,osm_venues_ar_v4,ar_00255,ar_venues_batch_v4,2026-05-25T00:11:57.816491+00:00,osm_import_terminal_v4,{},venue
Bar Junior,Mitre,Rosario,,,,,,-32.9467128,-60.6396195,2026-05-25T00:11:57.816491+00:00,approved,active,Argentina,community,osm_venues_ar_v4,ar_00256,ar_venues_batch_v4,2026-05-25T00:11:57.816491+00:00,osm_import_terminal_v4,{},venue
Magnolia Bar,Santa Fe,Rosario,,,,,,-32.9438921,-60.6451356,2026-05-25T00:11:57.816491+00:00,approved,active,Argentina,community,osm_venues_ar_v4,ar_00257,ar_venues_batch_v4,2026-05-25T00:11:57.816491+00:00,osm_import_terminal_v4,{},venue
Bar Junior,Bartolomé Mitre,Rosario,,,,,,-32.9466969,-60.6396121,2026-05-25T00:11:57.816491+00:00,approved,active,Argentina,community,osm_venues_ar_v4,ar_00258,ar_venues_batch_v4,2026-05-25T00:11:57.816491+00:00,osm_import_terminal_v4,{},venue
Good Bar,,,,,,,,-32.9428978,-60.6374382,2026-05-25T00:11:57.816491+00:00,approved,active,Argentina,community,osm_venues_ar_v4,ar_00259,ar_venues_batch_v4,2026-05-25T00:11:57.816491+00:00,osm_import_terminal_v4,{},venue
Bar Ping Pong,5257 Iberá,Ciudad Autónoma de Buenos Aires,,C1431,+54 11 5876-7333,https://www.nteeventos.com.ar/ping-pong-eventos,,-34.5679992,-58.4926711,2026-05-25T00:11:57.816491+00:00,approved,active,Argentina,community,osm_venues_ar_v4,ar_00260,ar_venues_batch_v4,2026-05-25T00:11:57.816491+00:00,osm_import_terminal_v4,{},venue
Escaleno Resto Bar,605 Avenida Deodoro Roca,,,,0351 4682757,https://www.instagram.com/escaleno_,,-31.4298778,-64.1806238,2026-05-25T00:11:57.816491+00:00,approved,active,Argentina,community,osm_venues_ar_v4,ar_00261,ar_venues_batch_v4,2026-05-25T00:11:57.816491+00:00,osm_import_terminal_v4,{},venue
Bartola,1761 Junín,Ciudad Autónoma de Buenos Aires,,,,,,-34.5888041,-58.3923138,2026-05-25T00:11:57.816491+00:00,approved,active,Argentina,community,osm_venues_ar_v4,ar_00262,ar_venues_batch_v4,2026-05-25T00:11:57.816491+00:00,osm_import_terminal_v4,{},venue
Orange Bar,,,,,,,,-34.5712784,-58.4905199,2026-05-25T00:11:57.816491+00:00,approved,active,Argentina,community,osm_venues_ar_v4,ar_00263,ar_venues_batch_v4,2026-05-25T00:11:57.816491+00:00,osm_import_terminal_v4,{},venue
Bocados bar & la Kermés,1045 25 de Mayo,,,,,,,-31.4154212,-64.1687527,2026-05-25T00:11:57.816491+00:00,approved,active,Argentina,community,osm_venues_ar_v4,ar_00264,ar_venues_batch_v4,2026-05-25T00:11:57.816491+00:00,osm_import_terminal_v4,{},venue
Loreto Garden Bar,2912 Virrey Loreto,Ciudad Autónoma de Buenos Aires,,,,,,-34.5722299,-58.4535806,2026-05-25T00:11:57.816491+00:00,approved,active,Argentina,community,osm_venues_ar_v4,ar_00265,ar_venues_batch_v4,2026-05-25T00:11:57.816491+00:00,osm_import_terminal_v4,{},venue
Backroom Bar,,,,,,https://backroom-bar.com/,,-34.5863155,-58.4261316,2026-05-25T00:11:57.816491+00:00,approved,active,Argentina,community,osm_venues_ar_v4,ar_00266,ar_venues_batch_v4,2026-05-25T00:11:57.816491+00:00,osm_import_terminal_v4,{},venue
Cell Block cantobar,3914 Avenida Maipú,Olivos,,B1636,,,,-34.500095,-58.4967451,2026-05-25T00:11:57.816491+00:00,approved,active,Argentina,community,osm_venues_ar_v4,ar_00267,ar_venues_batch_v4,2026-05-25T00:11:57.816491+00:00,osm_import_terminal_v4,{},venue
Negroni Bistro & Sushi Bar,,,,,,,,-34.5531425,-58.4367268,2026-05-25T00:11:57.816491+00:00,approved,active,Argentina,community,osm_venues_ar_v4,ar_00268,ar_venues_batch_v4,2026-05-25T00:11:57.816491+00:00,osm_import_terminal_v4,{},venue
Open Bar Atlanta,,,,,,,,-34.594905,-58.4509845,2026-05-25T00:11:57.816491+00:00,approved,active,Argentina,community,osm_venues_ar_v4,ar_00269,ar_venues_batch_v4,2026-05-25T00:11:57.816491+00:00,osm_import_terminal_v4,{},venue
Café Bartolomé,,,,,,,,-34.6077397,-58.389225,2026-05-25T00:11:57.816491+00:00,approved,active,Argentina,community,osm_venues_ar_v4,ar_00270,ar_venues_batch_v4,2026-05-25T00:11:57.816491+00:00,osm_import_terminal_v4,{},venue
El Bar de Julio,1129 Avenida Presidente Roque Sáenz Peña,Ciudad Autónoma de Buenos Aires,,,,,,-34.6030192,-58.3826511,2026-05-25T00:11:57.816491+00:00,approved,active,Argentina,community,osm_venues_ar_v4,ar_00271,ar_venues_batch_v4,2026-05-25T00:11:57.816491+00:00,osm_import_terminal_v4,{},venue
Bar Amigos,1417,Ciudad Autónoma de Buenos Aires,,,,,,-34.6063755,-58.3866228,2026-05-25T00:11:57.816491+00:00,approved,active,Argentina,community,osm_venues_ar_v4,ar_00272,ar_venues_batch_v4,2026-05-25T00:11:57.816491+00:00,osm_import_terminal_v4,{},venue
Niceto Bar,,,,,,,,-34.5872616,-58.4383209,2026-05-25T00:11:57.816491+00:00,approved,active,Argentina,community,osm_venues_ar_v4,ar_00273,ar_venues_batch_v4,2026-05-25T00:11:57.816491+00:00,osm_import_terminal_v4,{},venue
La Maquinita Surf Bar & Restaurant,,,,,,,,-38.0876558,-57.5434255,2026-05-25T00:11:57.816491+00:00,approved,active,Argentina,community,osm_venues_ar_v4,ar_00274,ar_venues_batch_v4,2026-05-25T00:11:57.816491+00:00,osm_import_terminal_v4,{},venue
Patagonia bar cervecero,4086 Rodríguez del Busto,,,,,,,-31.3676556,-64.2198098,2026-05-25T00:11:57.816491+00:00,approved,active,Argentina,community,osm_venues_ar_v4,ar_00275,ar_venues_batch_v4,2026-05-25T00:11:57.816491+00:00,osm_import_terminal_v4,{},venue
City Bar,2550 Avenida Fondo de la Legua,,,,+54 9 11 5226-5780,https://www.citybar.com.ar/,,-34.5107059,-58.5327979,2026-05-25T00:11:57.816491+00:00,approved,active,Argentina,community,osm_venues_ar_v4,ar_00276,ar_venues_batch_v4,2026-05-25T00:11:57.816491+00:00,osm_import_terminal_v4,{},venue
Fresh Kitchen Bar,,,,,,,,-34.6017422,-58.4049502,2026-05-25T00:11:57.816491+00:00,approved,active,Argentina,community,osm_venues_ar_v4,ar_00277,ar_venues_batch_v4,2026-05-25T00:11:57.816491+00:00,osm_import_terminal_v4,{},venue
HANA Poke & Bar,1988 Fitz Roy,Ciudad Autónoma de Buenos Aires,,,,,,-34.581789,-58.4337732,2026-05-25T00:11:57.816491+00:00,approved,active,Argentina,community,osm_venues_ar_v4,ar_00278,ar_venues_batch_v4,2026-05-25T00:11:57.816491+00:00,osm_import_terminal_v4,{},venue
Federal Bar,,,,,,,,-34.6121916,-58.3860645,2026-05-25T00:11:57.816491+00:00,approved,active,Argentina,community,osm_venues_ar_v4,ar_00279,ar_venues_batch_v4,2026-05-25T00:11:57.816491+00:00,osm_import_terminal_v4,{},venue
Barrio del Loco,,,,,,,,-34.5572897,-58.4440577,2026-05-25T00:11:57.816491+00:00,approved,active,Argentina,community,osm_venues_ar_v4,ar_00280,ar_venues_batch_v4,2026-05-25T00:11:57.816491+00:00,osm_import_terminal_v4,{},venue
Quotidiano - Bar de Pasta,,,,,,,,-34.5890404,-58.3938965,2026-05-25T00:11:57.816491+00:00,approved,active,Argentina,community,osm_venues_ar_v4,ar_00281,ar_venues_batch_v4,2026-05-25T00:11:57.816491+00:00,osm_import_terminal_v4,{},venue
Bar La Esquina,,,,,,,,-31.4163963,-64.1781149,2026-05-25T00:11:57.816491+00:00,approved,active,Argentina,community,osm_venues_ar_v4,ar_00282,ar_venues_batch_v4,2026-05-25T00:11:57.816491+00:00,osm_import_terminal_v4,{},venue
Crespo Bar,,,,,,,,-34.5986727,-58.4366115,2026-05-25T00:11:57.816491+00:00,approved,active,Argentina,community,osm_venues_ar_v4,ar_00283,ar_venues_batch_v4,2026-05-25T00:11:57.816491+00:00,osm_import_terminal_v4,{},venue
Barracuda,1899 Corrientes,,,7600,,,,-38.0024597,-57.5451851,2026-05-25T00:11:57.816491+00:00,approved,active,Argentina,community,osm_venues_ar_v4,ar_00284,ar_venues_batch_v4,2026-05-25T00:11:57.816491+00:00,osm_import_terminal_v4,{},venue
La Birra Bar,,,,,,,,-34.7407978,-58.3925838,2026-05-25T00:11:57.816491+00:00,approved,active,Argentina,community,osm_venues_ar_v4,ar_00285,ar_venues_batch_v4,2026-05-25T00:11:57.816491+00:00,osm_import_terminal_v4,{},venue
Barley,2314 Pedro José Agrelo,Rosario,,,,,,-32.8910587,-60.6918179,2026-05-25T00:11:57.816491+00:00,approved,active,Argentina,community,osm_venues_ar_v4,ar_00286,ar_venues_batch_v4,2026-05-25T00:11:57.816491+00:00,osm_import_terminal_v4,{},venue
Themis Café y Bar,,,,,,,,-38.0072689,-57.5448986,2026-05-25T00:11:57.816491+00:00,approved,active,Argentina,community,osm_venues_ar_v4,ar_00287,ar_venues_batch_v4,2026-05-25T00:11:57.816491+00:00,osm_import_terminal_v4,{},venue
PublicBar,,,,,,,,-34.6107338,-58.3636798,2026-05-25T00:11:57.816491+00:00,approved,active,Argentina,community,osm_venues_ar_v4,ar_00288,ar_venues_batch_v4,2026-05-25T00:11:57.816491+00:00,osm_import_terminal_v4,{},venue
Sanata Bar,,,,,,,,-34.6057179,-58.4150613,2026-05-25T00:11:57.816491+00:00,approved,active,Argentina,community,osm_venues_ar_v4,ar_00289,ar_venues_batch_v4,2026-05-25T00:11:57.816491+00:00,osm_import_terminal_v4,{},venue
Tegui Barra,1973 Rodríguez Peña,Ciudad Autónoma de Buenos Aires,,,,,,-34.5884567,-58.3862576,2026-05-25T00:11:57.816491+00:00,approved,active,Argentina,community,osm_venues_ar_v4,ar_00290,ar_venues_batch_v4,2026-05-25T00:11:57.816491+00:00,osm_import_terminal_v4,{},venue
Barev,2272 Aráoz,Ciudad Autónoma de Buenos Aires,,,,,,-34.5876339,-58.4182519,2026-05-25T00:11:57.816491+00:00,approved,active,Argentina,community,osm_venues_ar_v4,ar_00291,ar_venues_batch_v4,2026-05-25T00:11:57.816491+00:00,osm_import_terminal_v4,{},venue
Negroni Bistro & Sushi Bar,,,,,,,,-34.6063411,-58.3641368,2026-05-25T00:11:57.816491+00:00,approved,active,Argentina,community,osm_venues_ar_v4,ar_00292,ar_venues_batch_v4,2026-05-25T00:11:57.816491+00:00,osm_import_terminal_v4,{},venue
Famous Loungebar,Fitz Roy,,,,,,,-34.5845599,-58.4366418,2026-05-25T00:11:57.816491+00:00,approved,active,Argentina,community,osm_venues_ar_v4,ar_00293,ar_venues_batch_v4,2026-05-25T00:11:57.816491+00:00,osm_import_terminal_v4,{},venue
Puerta Uno Bar,1667 Juramento,,,,,https://www.puertauno.com,,-34.5577775,-58.4497434,2026-05-25T00:11:57.816491+00:00,approved,active,Argentina,community,osm_venues_ar_v4,ar_00294,ar_venues_batch_v4,2026-05-25T00:11:57.816491+00:00,osm_import_terminal_v4,{},venue
Quotidiano Bar De Pastas,,,,,,,,-34.588122,-58.4098601,2026-05-25T00:11:57.816491+00:00,approved,active,Argentina,community,osm_venues_ar_v4,ar_00295,ar_venues_batch_v4,2026-05-25T00:11:57.816491+00:00,osm_import_terminal_v4,{},venue
La Sorellina Pizza Bar,1393 Capitán General Ramón Freire,Ciudad Autónoma de Buenos Aires,,,,,,-34.5729784,-58.4566843,2026-05-25T00:11:57.816491+00:00,approved,active,Argentina,community,osm_venues_ar_v4,ar_00296,ar_venues_batch_v4,2026-05-25T00:11:57.816491+00:00,osm_import_terminal_v4,{},venue
Cala Cast Bar de Playa,,,,,,,,-38.0808466,-57.5367241,2026-05-25T00:11:57.816491+00:00,approved,active,Argentina,community,osm_venues_ar_v4,ar_00297,ar_venues_batch_v4,2026-05-25T00:11:57.816491+00:00,osm_import_terminal_v4,{},venue
Waikiki Surfers Bar,,,,,,,,-38.0805005,-57.5385371,2026-05-25T00:11:57.816491+00:00,approved,active,Argentina,community,osm_venues_ar_v4,ar_00298,ar_venues_batch_v4,2026-05-25T00:11:57.816491+00:00,osm_import_terminal_v4,{},venue
Liangliang Barbecue,,,,,,,,-34.556088,-58.4498969,2026-05-25T00:11:57.816491+00:00,approved,active,Argentina,community,osm_venues_ar_v4,ar_00299,ar_venues_batch_v4,2026-05-25T00:11:57.816491+00:00,osm_import_terminal_v4,{},venue
Bar Avenida,Avenida 85 - Libertador General San Martín,Villa Lynch,,B1672,,,,-34.583896,-58.5290114,2026-05-25T00:11:57.816491+00:00,approved,active,Argentina,community,osm_venues_ar_v4,ar_00300,ar_venues_batch_v4,2026-05-25T00:11:57.816491+00:00,osm_import_terminal_v4,{},venue
Olympo Sky Bar,1464 Avenida Corrientes,Ciudad Autónoma de Buenos Aires,,,,,,-34.6042103,-58.387493,2026-05-25T00:11:57.816491+00:00,approved,active,Argentina,community,osm_venues_ar_v4,ar_00301,ar_venues_batch_v4,2026-05-25T00:11:57.816491+00:00,osm_import_terminal_v4,{},venue
La Bartola de Barracas,1702 Avenida Manuel A. Montes de Oca,Ciudad Autónoma de Buenos Aires,,1270,,,,-34.6466243,-58.3728373,2026-05-25T00:11:57.816491+00:00,approved,active,Argentina,community,osm_venues_ar_v4,ar_00302,ar_venues_batch_v4,2026-05-25T00:11:57.816491+00:00,osm_import_terminal_v4,{},venue
Tacuara Bar de Playa,,,,,,,,-38.0872643,-57.5409368,2026-05-25T00:11:57.816491+00:00,approved,active,Argentina,community,osm_venues_ar_v4,ar_00303,ar_venues_batch_v4,2026-05-25T00:11:57.816491+00:00,osm_import_terminal_v4,{},venue
Lions Bar Cafe,Charrúa & Berón de Astrada,Ciudad Autónoma de Buenos Aires,,1437,01149189812,,,-34.6593619,-58.4244538,2026-05-25T00:11:57.816491+00:00,approved,active,Argentina,community,osm_venues_ar_v4,ar_00304,ar_venues_batch_v4,2026-05-25T00:11:57.816491+00:00,osm_import_terminal_v4,{},venue
Los Girasoles (Bar Pool Café),,,,,,,,-34.6102246,-58.3697227,2026-05-25T00:11:57.816491+00:00,approved,active,Argentina,community,osm_venues_ar_v4,ar_00305,ar_venues_batch_v4,2026-05-25T00:11:57.816491+00:00,osm_import_terminal_v4,{},venue
Monti Bar de Pastas - Boedo,,,,,,,,-34.6222872,-58.4166306,2026-05-25T00:11:57.816491+00:00,approved,active,Argentina,community,osm_venues_ar_v4,ar_00306,ar_venues_batch_v4,2026-05-25T00:11:57.816491+00:00,osm_import_terminal_v4,{},venue
Barú,,,,,,,,-34.5535397,-58.4596545,2026-05-25T00:11:57.816491+00:00,approved,active,Argentina,community,osm_venues_ar_v4,ar_00307,ar_venues_batch_v4,2026-05-25T00:11:57.816491+00:00,osm_import_terminal_v4,{},venue
I AM BARISTA,,,,,,,,-34.626905,-58.4431285,2026-05-25T00:11:57.816491+00:00,approved,active,Argentina,community,osm_venues_ar_v4,ar_00308,ar_venues_batch_v4,2026-05-25T00:11:57.816491+00:00,osm_import_terminal_v4,{},venue
Helka wine bar,1117 Capitán General Ramón Freire,,,,,,,-34.5742395,-58.4543929,2026-05-25T00:11:57.816491+00:00,approved,active,Argentina,community,osm_venues_ar_v4,ar_00309,ar_venues_batch_v4,2026-05-25T00:11:57.816491+00:00,osm_import_terminal_v4,{},venue
Bar Don Juan,2702 Camarones,,,,,,,-34.6112085,-58.478108,2026-05-25T00:11:57.816491+00:00,approved,active,Argentina,community,osm_venues_ar_v4,ar_00310,ar_venues_batch_v4,2026-05-25T00:11:57.816491+00:00,osm_import_terminal_v4,{},venue
La Mala Pub,Ciclovía del Libertador,,,,,,,-34.570929,-58.4221372,2026-05-25T00:11:57.816491+00:00,approved,active,Argentina,community,osm_venues_ar_v4,ar_00311,ar_venues_batch_v4,2026-05-25T00:11:57.816491+00:00,osm_import_terminal_v4,{},venue
Gilmour Bar,8832 Avenida General Paz,Ciudad Autónoma de Buenos Aires,,1408,,,,-34.619015,-58.5302192,2026-05-25T00:11:57.816491+00:00,approved,active,Argentina,community,osm_venues_ar_v4,ar_00312,ar_venues_batch_v4,2026-05-25T00:11:57.816491+00:00,osm_import_terminal_v4,{},venue
Cafe-Bar Sol de Mayo,Avenida Lafuente & Tabaré,CABA,,C1437BVB,011 15-2245-1508,,,-34.6629785,-58.438706,2026-05-25T00:11:57.816491+00:00,approved,active,Argentina,community,osm_venues_ar_v4,ar_00313,ar_venues_batch_v4,2026-05-25T00:11:57.816491+00:00,osm_import_terminal_v4,{},venue
Bar Cerveceria Tridenta,,,,,,,,-32.8804071,-68.851651,2026-05-25T00:11:57.816491+00:00,approved,active,Argentina,community,osm_venues_ar_v4,ar_00314,ar_venues_batch_v4,2026-05-25T00:11:57.816491+00:00,osm_import_terminal_v4,{},venue
Barley Beer,,,,,,,,-31.4248425,-64.1941128,2026-05-25T00:11:57.816491+00:00,approved,active,Argentina,community,osm_venues_ar_v4,ar_00315,ar_venues_batch_v4,2026-05-25T00:11:57.816491+00:00,osm_import_terminal_v4,{},venue
Balto Resto Bar,783 Belgrano,,,,,,,-31.4239652,-64.1920032,2026-05-25T00:11:57.816491+00:00,approved,active,Argentina,community,osm_venues_ar_v4,ar_00316,ar_venues_batch_v4,2026-05-25T00:11:57.816491+00:00,osm_import_terminal_v4,{},venue
Good Bar,789 Belgrano,,,,,,,-31.4240627,-64.1920437,2026-05-25T00:11:57.816491+00:00,approved,active,Argentina,community,osm_venues_ar_v4,ar_00317,ar_venues_batch_v4,2026-05-25T00:11:57.816491+00:00,osm_import_terminal_v4,{},venue
Ambar,,,,,,,,-34.5904869,-58.406776,2026-05-25T00:11:57.816491+00:00,approved,active,Argentina,community,osm_venues_ar_v4,ar_00318,ar_venues_batch_v4,2026-05-25T00:11:57.816491+00:00,osm_import_terminal_v4,{},venue
Hawaii Love Bar,8420 Avenida Juan Bautista Justo,,,,,,,-34.6345127,-58.5069084,2026-05-25T00:11:57.816491+00:00,approved,active,Argentina,community,osm_venues_ar_v4,ar_00319,ar_venues_batch_v4,2026-05-25T00:11:57.816491+00:00,osm_import_terminal_v4,{},venue
Bronx Coffee Bar,Avenida Juan Bautista Justo,,,,,,,-34.6135471,-58.4722858,2026-05-25T00:11:57.816491+00:00,approved,active,Argentina,community,osm_venues_ar_v4,ar_00320,ar_venues_batch_v4,2026-05-25T00:11:57.816491+00:00,osm_import_terminal_v4,{},venue
El Desembarco,862 Bolívar,,,,,,,-34.6178764,-58.3729899,2026-05-25T00:11:57.816491+00:00,approved,active,Argentina,community,osm_venues_ar_v4,ar_00321,ar_venues_batch_v4,2026-05-25T00:11:57.816491+00:00,osm_import_terminal_v4,{},venue
Barine,3096 French,,,,,,,-34.5865069,-58.4065506,2026-05-25T00:11:57.816491+00:00,approved,active,Argentina,community,osm_venues_ar_v4,ar_00322,ar_venues_batch_v4,2026-05-25T00:11:57.816491+00:00,osm_import_terminal_v4,{},venue
Bar de Bandera,390 Teniente General Eustaquio Frías,,,,,,,-34.6017696,-58.4338876,2026-05-25T00:11:57.816491+00:00,approved,active,Argentina,community,osm_venues_ar_v4,ar_00323,ar_venues_batch_v4,2026-05-25T00:11:57.816491+00:00,osm_import_terminal_v4,{},venue
Canti Bar,Bonpland,,,,,,,-34.5897556,-58.4454329,2026-05-25T00:11:57.816491+00:00,approved,active,Argentina,community,osm_venues_ar_v4,ar_00324,ar_venues_batch_v4,2026-05-25T00:11:57.816491+00:00,osm_import_terminal_v4,{},venue
Koko Bao Bar,Arévalo,,,,,,,-34.5825874,-58.4421248,2026-05-25T00:11:57.816491+00:00,approved,active,Argentina,community,osm_venues_ar_v4,ar_00325,ar_venues_batch_v4,2026-05-25T00:11:57.816491+00:00,osm_import_terminal_v4,{},venue
Ruderico Café RestoBar,,,,,,,,-38.0063877,-57.5424533,2026-05-25T00:11:57.816491+00:00,approved,active,Argentina,community,osm_venues_ar_v4,ar_00326,ar_venues_batch_v4,2026-05-25T00:11:57.816491+00:00,osm_import_terminal_v4,{},venue
Coffee Bar Rosa,,,,,+541127396883,,,-34.5735904,-58.4909031,2026-05-25T00:11:57.816491+00:00,approved,active,Argentina,community,osm_venues_ar_v4,ar_00327,ar_venues_batch_v4,2026-05-25T00:11:57.816491+00:00,osm_import_terminal_v4,{},venue
Wine Bar Palermo,,,,,,,,-34.5845484,-58.4377101,2026-05-25T00:11:57.816491+00:00,approved,active,Argentina,community,osm_venues_ar_v4,ar_00328,ar_venues_batch_v4,2026-05-25T00:11:57.816491+00:00,osm_import_terminal_v4,{},venue
Bar De Mi Tierra,729 Cafferata,Rosario,,2002,,,,-32.9400488,-60.669331,2026-05-25T00:11:57.816491+00:00,approved,active,Argentina,community,osm_venues_ar_v4,ar_00329,ar_venues_batch_v4,2026-05-25T00:11:57.816491+00:00,osm_import_terminal_v4,{},venue
Feca Bar & Bistro,,,,,,,,-32.9452031,-60.6364412,2026-05-25T00:11:57.816491+00:00,approved,active,Argentina,community,osm_venues_ar_v4,ar_00330,ar_venues_batch_v4,2026-05-25T00:11:57.816491+00:00,osm_import_terminal_v4,{},venue
Sain Patrick's Irish Pub,,,,,,,,-34.5889721,-58.3946966,2026-05-25T00:11:57.816491+00:00,approved,active,Argentina,community,osm_venues_ar_v4,ar_00331,ar_venues_batch_v4,2026-05-25T00:11:57.816491+00:00,osm_import_terminal_v4,{},venue
Barro Café,,,,,,,,-34.5688312,-58.460743,2026-05-25T00:11:57.816491+00:00,approved,active,Argentina,community,osm_venues_ar_v4,ar_00332,ar_venues_batch_v4,2026-05-25T00:11:57.816491+00:00,osm_import_terminal_v4,{},venue
Malibu Bar,573 Buenos Aires,Córdoba,,X5000,,,,-31.42343,-64.1855484,2026-05-25T00:11:57.816491+00:00,approved,active,Argentina,community,osm_venues_ar_v4,ar_00333,ar_venues_batch_v4,2026-05-25T00:11:57.816491+00:00,osm_import_terminal_v4,{},venue
Pimi Bar,,,,,,,,-32.9419346,-60.6425969,2026-05-25T00:11:57.816491+00:00,approved,active,Argentina,community,osm_venues_ar_v4,ar_00334,ar_venues_batch_v4,2026-05-25T00:11:57.816491+00:00,osm_import_terminal_v4,{},venue
victor Audio Bar,,,,,,,,-34.5837818,-58.4290441,2026-05-25T00:11:57.816491+00:00,approved,active,Argentina,community,osm_venues_ar_v4,ar_00335,ar_venues_batch_v4,2026-05-25T00:11:57.816491+00:00,osm_import_terminal_v4,{},venue
Gran Lago Restobar,2351 Avenida Intendente Morcillo,Rosario,,S2000,+54 341 447-3305,,,-32.9556222,-60.6585297,2026-05-25T00:11:57.816491+00:00,approved,active,Argentina,community,osm_venues_ar_v4,ar_00336,ar_venues_batch_v4,2026-05-25T00:11:57.816491+00:00,osm_import_terminal_v4,{},venue
Bar Dakkar,,,,,,,,-31.408393,-64.1963607,2026-05-25T00:11:57.816491+00:00,approved,active,Argentina,community,osm_venues_ar_v4,ar_00337,ar_venues_batch_v4,2026-05-25T00:11:57.816491+00:00,osm_import_terminal_v4,{},venue
Bar Iberia,,,,,,,,-34.6092223,-58.3833694,2026-05-25T00:11:57.816491+00:00,approved,active,Argentina,community,osm_venues_ar_v4,ar_00338,ar_venues_batch_v4,2026-05-25T00:11:57.816491+00:00,osm_import_terminal_v4,{},venue
Café Bar Oriente,1800 Avenida Álvarez Thomas,Ciudad Autónoma de Buenos Aires,,C1427CDR,,,,-34.5791507,-58.4659372,2026-05-25T00:11:57.816491+00:00,approved,active,Argentina,community,osm_venues_ar_v4,ar_00339,ar_venues_batch_v4,2026-05-25T00:11:57.816491+00:00,osm_import_terminal_v4,{},venue
The Marine Bar,1775 Juan Díaz de Solís,Dock Sud,,B1871ASD,,,,-34.6551234,-58.3408518,2026-05-25T00:11:57.816491+00:00,approved,active,Argentina,community,osm_venues_ar_v4,ar_00340,ar_venues_batch_v4,2026-05-25T00:11:57.816491+00:00,osm_import_terminal_v4,{},venue
IT! Italy Ristorante & Café & Bar,181 Avenida Hipólito Yrigoyen,Córdoba,,X5000,03512005626,https://www.ititaly.com.ar/,,-31.422678,-64.1875278,2026-05-25T00:11:57.816491+00:00,approved,active,Argentina,community,osm_venues_ar_v4,ar_00341,ar_venues_batch_v4,2026-05-25T00:11:57.816491+00:00,osm_import_terminal_v4,{},venue
Al Volo Bar,,,,,,,,-32.948636,-60.7412205,2026-05-25T00:11:57.816491+00:00,approved,active,Argentina,community,osm_venues_ar_v4,ar_00342,ar_venues_batch_v4,2026-05-25T00:11:57.816491+00:00,osm_import_terminal_v4,{},venue
Burger Bar & Cafe,,,,,,,,-32.9335344,-68.8489614,2026-05-25T00:11:57.816491+00:00,approved,active,Argentina,community,osm_venues_ar_v4,ar_00343,ar_venues_batch_v4,2026-05-25T00:11:57.816491+00:00,osm_import_terminal_v4,{},venue
El Barón de La Cerveza,,,,,,,,-38.0442883,-57.5444649,2026-05-25T00:11:57.816491+00:00,approved,active,Argentina,community,osm_venues_ar_v4,ar_00344,ar_venues_batch_v4,2026-05-25T00:11:57.816491+00:00,osm_import_terminal_v4,{},venue
Brewpub,45 Ángelo de Peredo,Córdoba,,X5000,,,,-31.4284033,-64.1900209,2026-05-25T00:11:57.816491+00:00,approved,active,Argentina,community,osm_venues_ar_v4,ar_00345,ar_venues_batch_v4,2026-05-25T00:11:57.816491+00:00,osm_import_terminal_v4,{},venue
Austral Bar,1424 Obispo Trejo y Sanabria,Córdoba,,X5000,,,,-31.431692,-64.1921725,2026-05-25T00:11:57.816491+00:00,approved,active,Argentina,community,osm_venues_ar_v4,ar_00346,ar_venues_batch_v4,2026-05-25T00:11:57.816491+00:00,osm_import_terminal_v4,{},venue
LA TERMINAL - Ruin Bar,1079 Avenida Vélez Sarsfield,,,5000,,https://linktr.ee/_laterminal?fbclid=PAdGRjcAMoGfJleHRuA2FlbQIxMQABp_Pg9Uxlv0gTT79o-mQcTSMNA12bJQPuzIK4zRj19XUMQJpXu3Y1HU3BQM-o_aem_LfL_PHB3KKgP1lDIZTQAjg,,-31.4272211,-64.1915714,2026-05-25T00:11:57.816491+00:00,approved,active,Argentina,community,osm_venues_ar_v4,ar_00347,ar_venues_batch_v4,2026-05-25T00:11:57.816491+00:00,osm_import_terminal_v4,{},venue
Brusco café & Bar,2483 Concepción Arenal,Ciudad Autónoma de Buenos Aires,,C1426,,,,-34.5750632,-58.4382996,2026-05-25T00:11:57.816491+00:00,approved,active,Argentina,community,osm_venues_ar_v4,ar_00348,ar_venues_batch_v4,2026-05-25T00:11:57.816491+00:00,osm_import_terminal_v4,{},venue
A Punto - Parrilla Resto Bar,,,,,,,,-38.0827282,-57.5392466,2026-05-25T00:11:57.816491+00:00,approved,active,Argentina,community,osm_venues_ar_v4,ar_00349,ar_venues_batch_v4,2026-05-25T00:11:57.816491+00:00,osm_import_terminal_v4,{},venue
Los Jardines De Las Barquin,,,,,,,,-34.5906362,-58.3805651,2026-05-25T00:11:57.816491+00:00,approved,active,Argentina,community,osm_venues_ar_v4,ar_00350,ar_venues_batch_v4,2026-05-25T00:11:57.816491+00:00,osm_import_terminal_v4,{},venue
Crabs Bar,222 bis Los Olmos,,,,,,,-32.9242638,-60.7867178,2026-05-25T00:11:57.816491+00:00,approved,active,Argentina,community,osm_venues_ar_v4,ar_00351,ar_venues_batch_v4,2026-05-25T00:11:57.816491+00:00,osm_import_terminal_v4,{},venue
Barragán,177 Roseti,,,C1427,,,,-34.5858234,-58.447119,2026-05-25T00:11:57.816491+00:00,approved,active,Argentina,community,osm_venues_ar_v4,ar_00352,ar_venues_batch_v4,2026-05-25T00:11:57.816491+00:00,osm_import_terminal_v4,{},venue
Ambar,,,,,,,,-34.5727168,-58.4331906,2026-05-25T00:11:57.816491+00:00,approved,active,Argentina,community,osm_venues_ar_v4,ar_00353,ar_venues_batch_v4,2026-05-25T00:11:57.816491+00:00,osm_import_terminal_v4,{},venue
Albur - Bar,435 Avenida Callao,,,,,https://alburrestaurantconcert.com.ar/,,-34.604098,-58.3921548,2026-05-25T00:11:57.816491+00:00,approved,active,Argentina,community,osm_venues_ar_v4,ar_00354,ar_venues_batch_v4,2026-05-25T00:11:57.816491+00:00,osm_import_terminal_v4,{},venue
Arena - Bar y café,,,,,,,,-32.8939286,-68.8306605,2026-05-25T00:11:57.816491+00:00,approved,active,Argentina,community,osm_venues_ar_v4,ar_00355,ar_venues_batch_v4,2026-05-25T00:11:57.816491+00:00,osm_import_terminal_v4,{},venue
Café de Barrio,,,,,,,,-31.4188414,-64.1896894,2026-05-25T00:11:57.816491+00:00,approved,active,Argentina,community,osm_venues_ar_v4,ar_00356,ar_venues_batch_v4,2026-05-25T00:11:57.816491+00:00,osm_import_terminal_v4,{},venue
El Nido Bar,5709 Costa Rica,,,,,,,-34.581723,-58.4357124,2026-05-25T00:11:57.816491+00:00,approved,active,Argentina,community,osm_venues_ar_v4,ar_00357,ar_venues_batch_v4,2026-05-25T00:11:57.816491+00:00,osm_import_terminal_v4,{},venue
Bestial Fly Bar,2491 Humboldt,,,,0111531263490,http://bestialflybar.com.ar,,-34.5781084,-58.4274049,2026-05-25T00:11:57.816491+00:00,approved,active,Argentina,community,osm_venues_ar_v4,ar_00358,ar_venues_batch_v4,2026-05-25T00:11:57.816491+00:00,osm_import_terminal_v4,{},venue
Barine,2610 Juncal,,,,,,,-34.5902979,-58.4035626,2026-05-25T00:11:57.816491+00:00,approved,active,Argentina,community,osm_venues_ar_v4,ar_00359,ar_venues_batch_v4,2026-05-25T00:11:57.816491+00:00,osm_import_terminal_v4,{},venue
Barine,,,,,,,,-34.5870813,-58.424909,2026-05-25T00:11:57.816491+00:00,approved,active,Argentina,community,osm_venues_ar_v4,ar_00360,ar_venues_batch_v4,2026-05-25T00:11:57.816491+00:00,osm_import_terminal_v4,{},venue
"Jobs Núñez - Bowling, Scaletrix, Fono-bar",2453 Juana Azurduy,,,,+5491139060146,https://www.jobsbares.com/,,-34.5511584,-58.4674398,2026-05-25T00:11:57.816491+00:00,approved,active,Argentina,community,osm_venues_ar_v4,ar_00361,ar_venues_batch_v4,2026-05-25T00:11:57.816491+00:00,osm_import_terminal_v4,{},venue
Swell Sport Bar,,,,,,,,-38.0778367,-57.5421255,2026-05-25T00:11:57.816491+00:00,approved,active,Argentina,community,osm_venues_ar_v4,ar_00362,ar_venues_batch_v4,2026-05-25T00:11:57.816491+00:00,osm_import_terminal_v4,{},venue
El Desembarco,Avenida Forest,,,,,,,-34.5866538,-58.4523956,2026-05-25T00:11:57.816491+00:00,approved,active,Argentina,community,osm_venues_ar_v4,ar_00363,ar_venues_batch_v4,2026-05-25T00:11:57.816491+00:00,osm_import_terminal_v4,{},venue
Othila bar vikingo,567 Ituzaingó,,,,,,,-31.4237135,-64.1841919,2026-05-25T00:11:57.816491+00:00,approved,active,Argentina,community,osm_venues_ar_v4,ar_00364,ar_venues_batch_v4,2026-05-25T00:11:57.816491+00:00,osm_import_terminal_v4,{},venue
Bar 46,,,,,,,,-32.9151926,-60.680529,2026-05-25T00:11:57.816491+00:00,approved,active,Argentina,community,osm_venues_ar_v4,ar_00365,ar_venues_batch_v4,2026-05-25T00:11:57.816491+00:00,osm_import_terminal_v4,{},venue
Barakus,752 Avenida de Mayo,,,,,,,-34.608895,-58.3770027,2026-05-25T00:11:57.816491+00:00,approved,active,Argentina,community,osm_venues_ar_v4,ar_00366,ar_venues_batch_v4,2026-05-25T00:11:57.816491+00:00,osm_import_terminal_v4,{},venue
Desarmadero Bar/Session,4295 Gorriti,,,,01167376903,desarmadero.com.ar,,-34.5942802,-58.4244392,2026-05-25T00:11:57.816491+00:00,approved,active,Argentina,community,osm_venues_ar_v4,ar_00367,ar_venues_batch_v4,2026-05-25T00:11:57.816491+00:00,osm_import_terminal_v4,{},venue
El Paso Sport,,,,,,,,-32.9564985,-60.6467187,2026-05-25T00:11:57.816491+00:00,approved,active,Argentina,community,osm_venues_ar_v4,ar_00368,ar_venues_batch_v4,2026-05-25T00:11:57.816491+00:00,osm_import_terminal_v4,{},venue
La Casita Bar de Tenis,3200 Avenida Intendente Cantilo,,,,,,,-34.5386148,-58.4559962,2026-05-25T00:11:57.816491+00:00,approved,active,Argentina,community,osm_venues_ar_v4,ar_00369,ar_venues_batch_v4,2026-05-25T00:11:57.816491+00:00,osm_import_terminal_v4,{},venue
IT! Italy Ristorante & Café & Bar,3856 Avenida Rafael Núñez,Córdoba,,5009,,https://ititaly.com.ar/,,-31.3731067,-64.2286637,2026-05-25T00:11:57.816491+00:00,approved,active,Argentina,community,osm_venues_ar_v4,ar_00370,ar_venues_batch_v4,2026-05-25T00:11:57.816491+00:00,osm_import_terminal_v4,{},venue
Restobar Deja Vú,,,,,,http://dejavuparador.com.ar/,,-32.9686313,-60.6020209,2026-05-25T00:11:57.816491+00:00,approved,active,Argentina,community,osm_venues_ar_v4,ar_00371,ar_venues_batch_v4,2026-05-25T00:11:57.816491+00:00,osm_import_terminal_v4,{},venue
AnfiBar,,,,,,,,-32.9584619,-60.6227918,2026-05-25T00:11:57.816491+00:00,approved,active,Argentina,community,osm_venues_ar_v4,ar_00372,ar_venues_batch_v4,2026-05-25T00:11:57.816491+00:00,osm_import_terminal_v4,{},venue
Punta wiki bar,,,,,,,,-32.9592755,-60.6027988,2026-05-25T00:11:57.816491+00:00,approved,active,Argentina,community,osm_venues_ar_v4,ar_00373,ar_venues_batch_v4,2026-05-25T00:11:57.816491+00:00,osm_import_terminal_v4,{},venue
Tifosi Fútbol 5,,,,,,,,-32.9054994,-60.7940593,2026-05-25T00:11:57.816491+00:00,approved,active,Argentina,community,osm_venues_ar_v4,ar_00374,ar_venues_batch_v4,2026-05-25T00:11:57.816491+00:00,osm_import_terminal_v4,{},venue
Stream Bar,,,,,,,,-38.0184698,-57.5444936,2026-05-25T00:11:57.816491+00:00,approved,active,Argentina,community,osm_venues_ar_v4,ar_00375,ar_venues_batch_v4,2026-05-25T00:11:57.816491+00:00,osm_import_terminal_v4,{},venue
Bar Vane,Avenida Bartolomé Mitre,,,,,,,-34.5428453,-58.5049966,2026-05-25T00:11:57.816491+00:00,approved,active,Argentina,community,osm_venues_ar_v4,ar_00376,ar_venues_batch_v4,2026-05-25T00:11:57.816491+00:00,osm_import_terminal_v4,{},venue
Bartolo,Avenida Bartolomé Mitre,,,,,,,-34.5353558,-58.5085885,2026-05-25T00:11:57.816491+00:00,approved,active,Argentina,community,osm_venues_ar_v4,ar_00377,ar_venues_batch_v4,2026-05-25T00:11:57.816491+00:00,osm_import_terminal_v4,{},venue
Orange Bar,3300 Avenida 64 - Presidente Juan Domingo Perón,General San Martín,,B1650,,,,-34.5694045,-58.5396683,2026-05-25T00:11:57.816491+00:00,approved,active,Argentina,community,osm_venues_ar_v4,ar_00378,ar_venues_batch_v4,2026-05-25T00:11:57.816491+00:00,osm_import_terminal_v4,{},venue
Codigos Resto Bar,Avenida La Plata,Ciudad Autónoma de Buenos Aires,,,,,,-34.6370129,-58.4240908,2026-05-25T00:11:57.816491+00:00,approved,active,Argentina,community,osm_venues_ar_v4,ar_00379,ar_venues_batch_v4,2026-05-25T00:11:57.816491+00:00,osm_import_terminal_v4,{},venue
Le Crem Café Bar,,,,,,,,-34.5368752,-58.510427,2026-05-25T00:11:57.816491+00:00,approved,active,Argentina,community,osm_venues_ar_v4,ar_00380,ar_venues_batch_v4,2026-05-25T00:11:57.816491+00:00,osm_import_terminal_v4,{},venue
Bar La Cueva,Avenida de Mayo,,,,,,,-34.5227938,-58.5454272,2026-05-25T00:11:57.816491+00:00,approved,active,Argentina,community,osm_venues_ar_v4,ar_00381,ar_venues_batch_v4,2026-05-25T00:11:57.816491+00:00,osm_import_terminal_v4,{},venue
Alegori Bar - Cervecería,3400 Avenida 64 - Presidente Juan Domingo Perón,General San Martín,,,,,,-34.5701544,-58.5405873,2026-05-25T00:11:57.816491+00:00,approved,active,Argentina,community,osm_venues_ar_v4,ar_00382,ar_venues_batch_v4,2026-05-25T00:11:57.816491+00:00,osm_import_terminal_v4,{},venue
Bar José Ingenieros,3502 Avenida Maipú,Olivos,,B1636,+54 11 4794-3488,,,-34.503561,-58.4949846,2026-05-25T00:11:57.816491+00:00,approved,active,Argentina,community,osm_venues_ar_v4,ar_00383,ar_venues_batch_v4,2026-05-25T00:11:57.816491+00:00,osm_import_terminal_v4,{},venue
Unaghi SushiBar,Avenida Olazábal,Ciudad Autónoma de Buenos Aires,,,,,,-34.5742216,-58.4814506,2026-05-25T00:11:57.816491+00:00,approved,active,Argentina,community,osm_venues_ar_v4,ar_00384,ar_venues_batch_v4,2026-05-25T00:11:57.816491+00:00,osm_import_terminal_v4,{},venue
Bar Guevara,,,,,,,,-34.5871339,-58.4501008,2026-05-25T00:11:57.816491+00:00,approved,active,Argentina,community,osm_venues_ar_v4,ar_00385,ar_venues_batch_v4,2026-05-25T00:11:57.816491+00:00,osm_import_terminal_v4,{},venue
Bar Sammy,5750 Avenida Francisco Beiró,Ciudad Autónoma de Buenos Aires,,,+54 11 4642-9932,,,-34.6176117,-58.5294313,2026-05-25T00:11:57.816491+00:00,approved,active,Argentina,community,osm_venues_ar_v4,ar_00386,ar_venues_batch_v4,2026-05-25T00:11:57.816491+00:00,osm_import_terminal_v4,{},venue
Resto Bar,,Ciudad Autónoma de Buenos Aires,,,,,,-34.614612,-58.5119014,2026-05-25T00:11:57.816491+00:00,approved,active,Argentina,community,osm_venues_ar_v4,ar_00387,ar_venues_batch_v4,2026-05-25T00:11:57.816491+00:00,osm_import_terminal_v4,{},venue
Bar Alemán,5992 Avenida San Martín,Ciudad Autónoma de Buenos Aires,,,,,,-34.595714,-58.5007741,2026-05-25T00:11:57.816491+00:00,approved,active,Argentina,community,osm_venues_ar_v4,ar_00388,ar_venues_batch_v4,2026-05-25T00:11:57.816491+00:00,osm_import_terminal_v4,{},venue
Simona Bar,Allende,Ciudad Autónoma de Buenos Aires,,,,,,-34.6200221,-58.5059933,2026-05-25T00:11:57.816491+00:00,approved,active,Argentina,community,osm_venues_ar_v4,ar_00389,ar_venues_batch_v4,2026-05-25T00:11:57.816491+00:00,osm_import_terminal_v4,{},venue
Cao Bar,3122 Avenida Maipú,Olivos,,1636,,,,-34.5072096,-58.4930325,2026-05-25T00:11:57.816491+00:00,approved,active,Argentina,community,osm_venues_ar_v4,ar_00390,ar_venues_batch_v4,2026-05-25T00:11:57.816491+00:00,osm_import_terminal_v4,{},venue
Bar La Esperanza,1302 Mariscal Antonio José de Sucre,Ciudad Autónoma de Buenos Aires,,,,,,-34.5574439,-58.4439222,2026-05-25T00:11:57.816491+00:00,approved,active,Argentina,community,osm_venues_ar_v4,ar_00391,ar_venues_batch_v4,2026-05-25T00:11:57.816491+00:00,osm_import_terminal_v4,{},venue
L'aperó Bar,1800 Ibera,Ciudad Autónoma de Buenos Aires,,,+54 9 11 6004-0025,https://www.instagram.com/lapero.ba/,,-34.550222,-58.4578627,2026-05-25T00:11:57.816491+00:00,approved,active,Argentina,community,osm_venues_ar_v4,ar_00392,ar_venues_batch_v4,2026-05-25T00:11:57.816491+00:00,osm_import_terminal_v4,{},venue
Rodney Bar,,,,,,,,-34.5912241,-58.4532179,2026-05-25T00:11:57.816491+00:00,approved,active,Argentina,community,osm_venues_ar_v4,ar_00393,ar_venues_batch_v4,2026-05-25T00:11:57.816491+00:00,osm_import_terminal_v4,{},venue
1310 Bar,Thames,Ciudad Aurónoma de Buenos Aires,,,,,,-34.5899737,-58.4343162,2026-05-25T00:11:57.816491+00:00,approved,active,Argentina,community,osm_venues_ar_v4,ar_00394,ar_venues_batch_v4,2026-05-25T00:11:57.816491+00:00,osm_import_terminal_v4,{},venue
Barrilito,Avenida Combatientes de Malvinas,Ciudad Autónoma de Buenos Aires,,,,,,-34.5795804,-58.4756012,2026-05-25T00:11:57.816491+00:00,approved,active,Argentina,community,osm_venues_ar_v4,ar_00395,ar_venues_batch_v4,2026-05-25T00:11:57.816491+00:00,osm_import_terminal_v4,{},venue
