name,sport,place_type,latitude,longitude,address,city,state,zip,indoor,outdoor,verified,source
Agassiz Field,football,pitch,47.2474478,-88.4492222,,,MI,,false,true,false,openstreetmap
Alvin Hossack Memorial Field,football,pitch,45.9977553,-84.3569777,,,MI,,false,true,false,openstreetmap
Andrae Field,football,pitch,43.1314049,-82.8021172,,,MI,,false,true,false,openstreetmap
Angell Field,football,pitch,42.2870329,-85.6076083,,,MI,,false,true,false,openstreetmap
BHS Stadium,football,pitch,42.5263599,-83.7990214,,,MI,,false,true,false,openstreetmap
Bellaire High School Football Field,football,pitch,44.9801123,-85.223244,,,MI,,false,true,false,openstreetmap
Bentley Field,football,pitch,42.3960043,-83.359631,,,MI,,false,true,false,openstreetmap
Black Field,football,pitch,43.1732987,-85.2556758,,,MI,,false,true,false,openstreetmap
Bob Hayes Athletic Field,football,pitch,43.181327,-83.8838769,,,MI,,false,true,false,openstreetmap
Bourdo Field,football,pitch,44.744772,-85.6486213,,,MI,,false,true,false,openstreetmap
Brigham Stadium,football,pitch,42.6681346,-84.0688298,,,MI,,false,true,false,openstreetmap
CHS Football Practice Field,football,pitch,42.7998667,-85.5213056,,,MI,,false,true,false,openstreetmap
Calvin Football Stadium,football,pitch,42.9359445,-85.5909174,,,MI,,false,true,false,openstreetmap
Carson Rizor Athletic Field,football,pitch,42.3257303,-85.1942016,,,MI,,false,true,false,openstreetmap
Cass Technical High School Athletic Field,football,pitch,42.3384164,-83.0617839,,,MI,,false,true,false,openstreetmap
Charlie Chircop Field,football,pitch,42.2749167,-83.258368,,,MI,,false,true,false,openstreetmap
Charlotte Junior Orioles athletic Field,football,pitch,42.5474783,-84.8341775,,,MI,,false,true,false,openstreetmap
Collins Field,football,pitch,43.0245443,-83.5216969,,,MI,,false,true,false,openstreetmap
Concordia Cardinals Football,football,pitch,42.275741,-83.6795903,,,MI,,false,true,false,openstreetmap
Crestwood Football,football,pitch,42.3222971,-83.295462,,,MI,,false,true,false,openstreetmap
Curtis Field,football,pitch,45.3574384,-84.9568189,,,MI,,false,true,false,openstreetmap
Davison Middle School Football Practice Field,football,pitch,43.0245716,-83.5249545,,,MI,,false,true,false,openstreetmap
Dearborn High School Football Field,football,pitch,42.3067195,-83.2625293,,,MI,,false,true,false,openstreetmap
Detroit Mercy Titan Field,football,pitch,42.4162437,-83.1359768,,,MI,,false,true,false,openstreetmap
Dickenson Stadium (St. Joseph High School),football,stadium,42.0889552,-86.4944437,,,MI,,false,true,false,openstreetmap
Divine Child Football,football,pitch,42.3188105,-83.2847724,,,MI,,false,true,false,openstreetmap
East Grand Rapids Football Stadium,football,pitch,42.9488538,-85.6125325,,,MI,,false,true,false,openstreetmap
Elbel Field,football,pitch,42.2732838,-83.7472557,,,MI,,false,true,false,openstreetmap
Falcon Stadium,football,pitch,42.8531063,-85.61674,,,MI,,false,true,false,openstreetmap
Fenton School's Football Field,football,pitch,42.7884899,-83.7338123,,,MI,,false,true,false,openstreetmap
Football Field,football,pitch,44.7485585,-85.0018721,,,MI,,false,true,false,openstreetmap
Football Practice Field,football,pitch,42.5949711,-83.3536711,,,MI,,false,true,false,openstreetmap
Ford Field,football,stadium,42.3399323,-83.0455749,,,MI,,false,true,false,openstreetmap
Fraser Public Schools,football,sports_centre,42.5474759,-82.9470426,,,MI,,false,true,false,openstreetmap
Fraser Public Schools,football,pitch,42.5516103,-82.948358,,,MI,,false,true,false,openstreetmap
Fraser Public Schools,football,pitch,42.5515884,-82.9474447,,,MI,,false,true,false,openstreetmap
Gaylord High School,football,pitch,45.0479053,-84.6689543,,,MI,,false,true,false,openstreetmap
Gilpin Memorial Field,football,pitch,45.4094167,-83.8079522,,,MI,,false,true,false,openstreetmap
Grand Blanc East Middle School Football Field,football,pitch,42.927718,-83.5879144,,,MI,,false,true,false,openstreetmap
Gwinn High School Stadium,football,pitch,46.2802504,-87.4307281,,,MI,,false,true,false,openstreetmap
HHS Football Practice Fields,football,pitch,43.4536542,-84.0186305,,,MI,,false,true,false,openstreetmap
Hartland - Eagles,football,pitch,42.6489619,-83.7525779,,,MI,,false,true,false,openstreetmap
Harvey Randall Wickes Memorial Stadium,football,stadium,43.5109312,-83.9544497,,,MI,,false,true,false,openstreetmap
Herbert Corey Athletic Complex,football,sports_centre,45.4223279,-87.6128927,,,MI,,false,true,false,openstreetmap
Heritage Junior High School,football,pitch,42.567493,-83.0093123,,,MI,,false,true,false,openstreetmap
Heritage Junior High School,football,pitch,42.5674802,-83.0080241,,,MI,,false,true,false,openstreetmap
Hillman High School Football Field,football,pitch,45.0453533,-83.9047344,,,MI,,false,true,false,openstreetmap
Hopkins Football Stadium,football,pitch,42.619372,-85.763119,,,MI,,false,true,false,openstreetmap
Hurley Field,football,pitch,42.4944844,-83.1898567,,,MI,,false,true,false,openstreetmap
Jamie Gent Stadium,football,stadium,42.7389522,-84.4038781,,,MI,,false,true,false,openstreetmap
Juillerat Field,football,pitch,43.6299423,-84.2727085,,,MI,,false,true,false,openstreetmap
Kelly/Shorts Stadium,football,stadium,43.5775699,-84.7710503,,,MI,,false,true,false,openstreetmap
Lake Fenton School's Football Field,football,pitch,42.8431338,-83.75459,,,MI,,false,true,false,openstreetmap
Lakeland Football Field,football,pitch,42.6247647,-83.5129104,,,MI,,false,true,false,openstreetmap
Linden School's Football Field,football,pitch,42.8054609,-83.8134503,,,MI,,false,true,false,openstreetmap
Loy Norrix High School Football Field,football,pitch,42.2415082,-85.5732365,,,MI,,false,true,false,openstreetmap
Lubber's Field,football,pitch,42.9688965,-85.8946813,,,MI,,false,true,false,openstreetmap
MSHS Football Field,football,pitch,46.554237,-87.4156589,,,MI,,false,true,false,openstreetmap
MSHS Practice Fields,football,pitch,46.5561037,-87.4164776,,,MI,,false,true,false,openstreetmap
McAfee field,football,stadium,47.1299679,-88.6019775,,,MI,,false,true,false,openstreetmap
McCamley-Knight Field,football,pitch,42.1972145,-85.5918626,,,MI,,false,true,false,openstreetmap
Memorial FIeld,football,pitch,42.480858,-83.0364737,,,MI,,false,true,false,openstreetmap
Memorial Field,football,pitch,41.8237087,-86.3697087,,,MI,,false,true,false,openstreetmap
Midland Community Stadium,football,pitch,43.6211201,-84.2156849,,,MI,,false,true,false,openstreetmap
Miner Stadium,football,pitch,46.5058782,-87.6102235,,,MI,,false,true,false,openstreetmap
Mott Corsairs Football Field,football,pitch,42.6573954,-83.3505661,,,MI,,false,true,false,openstreetmap
Msgr. Stanley E. Milewski Football Field & Track,football,pitch,42.5963031,-83.3543798,,,MI,,false,true,false,openstreetmap
Muddy Waters Field,football,pitch,41.9314946,-84.6260951,,,MI,,false,true,false,openstreetmap
Nelson Field,football,pitch,46.0816203,-88.6307068,,,MI,,false,true,false,openstreetmap
Newberry Highschool Football Field,football,pitch,46.3501679,-85.5183465,,,MI,,false,true,false,openstreetmap
Nouvel Football field,football,pitch,43.4456903,-84.0333663,,,MI,,false,true,false,openstreetmap
Oakview Football Field,football,pitch,42.7851372,-83.1729984,,,MI,,false,true,false,openstreetmap
Oxford High,football,pitch,42.8359193,-83.2616056,,,MI,,false,true,false,openstreetmap
Parchment High School Football Field,football,pitch,42.3293712,-85.5568938,,,MI,,false,true,false,openstreetmap
Practice Field,football,pitch,42.9680818,-85.6632214,,,MI,,false,true,false,openstreetmap
Practice Field,football,pitch,43.387906,-86.3182873,,,MI,,false,true,false,openstreetmap
Practice Field,football,pitch,44.6551428,-84.1436776,,,MI,,false,true,false,openstreetmap
Practice Football Field,football,pitch,42.2573376,-85.1551985,,,MI,,false,true,false,openstreetmap
Practice Football Field,football,pitch,42.256814,-85.1551883,,,MI,,false,true,false,openstreetmap
Practice Football Field,football,pitch,42.2570994,-85.156098,,,MI,,false,true,false,openstreetmap
Ralph Young Field,football,pitch,42.7268221,-84.4869625,,,MI,,false,true,false,openstreetmap
Ram Stadium,football,pitch,43.1239961,-85.5538378,,,MI,,false,true,false,openstreetmap
Ranger Field,football,pitch,42.945081,-85.5216106,,,MI,,false,true,false,openstreetmap
Rich Hulkow Field at MCCU Stadium,football,pitch,42.2845667,-84.95567,,,MI,,false,true,false,openstreetmap
Ring Lardner football field,football,pitch,41.8348177,-86.2325,,,MI,,false,true,false,openstreetmap
Rodes Field,football,pitch,44.5785039,-85.5406267,,,MI,,false,true,false,openstreetmap
Rynearson Stadium,football,stadium,42.2558533,-83.6473742,,,MI,,false,true,false,openstreetmap
SLHS Football field,football,pitch,42.4717454,-83.6483074,,,MI,,false,true,false,openstreetmap
Saber Stadium,football,pitch,44.2336604,-86.3182848,,,MI,,false,true,false,openstreetmap
Saline High School 2nd Football Field,football,pitch,42.1878916,-83.7551241,,,MI,,false,true,false,openstreetmap
Saline High School Football Field,football,pitch,42.1879236,-83.7536599,,,MI,,false,true,false,openstreetmap
Schoolcraft's Roy Davis Field,football,pitch,42.1204084,-85.6282122,,,MI,,false,true,false,openstreetmap
Scots Alma,football,pitch,43.3820265,-84.6700053,,,MI,,false,true,false,openstreetmap
Shelby Township Lions Field,football,pitch,42.6738349,-83.0309344,,,MI,,false,true,false,openstreetmap
Sherman Field,football,pitch,47.1101961,-88.5500287,,,MI,,false,true,false,openstreetmap
Skyline Football Field,football,pitch,42.3035421,-83.7767281,,,MI,,false,true,false,openstreetmap
Skyline Practice Field,football,pitch,42.3064922,-83.7801055,,,MI,,false,true,false,openstreetmap
Sprankle-Sprandel Stadium,football,pitch,42.2409203,-84.7408024,,,MI,,false,true,false,openstreetmap
St Clair High School practice field/track,football,pitch,42.8240509,-82.5145605,,,MI,,false,true,false,openstreetmap
Stockbridge High School Football Field,football,pitch,42.4583802,-84.1827003,,,MI,,false,true,false,openstreetmap
Streidl Field,football,pitch,42.437226,-85.6563127,,,MI,,false,true,false,openstreetmap
Swan Valley Stadium,football,pitch,43.411934,-84.078283,,,MI,,false,true,false,openstreetmap
The Oval,football,pitch,42.5677885,-83.2553923,,,MI,,false,true,false,openstreetmap
Thirlby Field,football,pitch,44.7527902,-85.6279737,,,MI,,false,true,false,openstreetmap
Tom Adams Field,football,pitch,42.3558015,-83.0783584,,,MI,,false,true,false,openstreetmap
Top Taggart Field,football,pitch,43.6848691,-85.4802681,,,MI,,false,true,false,openstreetmap
Unionville-Sebewaing Area Football Practice Field,football,pitch,43.6957609,-83.4629774,,,MI,,false,true,false,openstreetmap
Unionville-Sebewaing Area High School Football Field,football,pitch,43.6955957,-83.4639678,,,MI,,false,true,false,openstreetmap
University of Michigan,football,pitch,42.2658788,-83.7487304,,,MI,,false,true,false,openstreetmap
Veteran's Memorial Field,football,pitch,43.0101153,-84.3746419,,,MI,,false,true,false,openstreetmap
Walt Baurns Football Stadium,football,stadium,42.9134393,-82.4785913,,,MI,,false,true,false,openstreetmap
Wildcat Stadium,football,pitch,45.0601003,-83.467103,,,MI,,false,true,false,openstreetmap
Will Carleton Middle School,football,pitch,42.5486446,-83.0203438,,,MI,,false,true,false,openstreetmap
Willard K. Walker Stadium,football,pitch,42.6885756,-84.5841956,,,MI,,false,true,false,openstreetmap
Willman Field,football,pitch,42.9950419,-84.1619877,,,MI,,false,true,false,openstreetmap
Wisner Stadium,football,pitch,42.6482659,-83.3068102,,,MI,,false,true,false,openstreetmap
Woodard Field,football,pitch,43.4095511,-82.8257144,,,MI,,false,true,false,openstreetmap
Youth Football Fields,football,pitch,43.179427,-83.7142165,,,MI,,false,true,false,openstreetmap
Youth Football Fields,football,pitch,43.1794299,-83.7136804,,,MI,,false,true,false,openstreetmap
Zimmerman Field at LCN,football,pitch,42.6391554,-82.8677466,,,MI,,false,true,false,openstreetmap
Spartan Stadium,football,stadium,42.7281807,-84.4850447,325 West Shaw Lane,East Lansing,MI,48824,false,true,false,openstreetmap
Ray and Sue Smith Stadium,football,stadium,42.7857013,-86.0894282,313 Fairbanks Avenue,Holland,MI,49423,false,true,false,openstreetmap
