name,sport,place_type,latitude,longitude,address,city,state,zip,indoor,outdoor,verified,source
"""R"" Field",football,pitch,34.0676356,-117.1635498,,,CA,,false,true,false,openstreetmap
ARC Stadium,football,pitch,38.6466955,-121.3477913,,,CA,,false,true,false,openstreetmap
Admiral Prout Field,football,pitch,32.6791158,-117.1126364,,,CA,,false,true,false,openstreetmap
Antelope High School -Titans Field,football,pitch,38.712491,-121.3545395,,,CA,,false,true,false,openstreetmap
Aragon High School Football Field,football,pitch,37.5505898,-122.3277624,,,CA,,false,true,false,openstreetmap
Arnold Field,football,pitch,40.4152938,-120.6574395,,,CA,,false,true,false,openstreetmap
Arthur N. Wheelock Field,football,pitch,33.9726815,-117.3803636,,,CA,,false,true,false,openstreetmap
Ayala Park Stadium,football,stadium,33.9960772,-117.6791843,,,CA,,false,true,false,openstreetmap
Bailey Field,football,pitch,38.4539462,-122.7190885,,,CA,,false,true,false,openstreetmap
Banning Football Field,football,pitch,33.9320994,-116.8756513,,,CA,,false,true,false,openstreetmap
Berean Christian,football,pitch,37.9127582,-122.0316355,,,CA,,false,true,false,openstreetmap
Big Pine High School Football Field,football,pitch,37.1620507,-118.2877333,,,CA,,false,true,false,openstreetmap
Bison Liberty,football,pitch,33.6513459,-117.122024,,,CA,,false,true,false,openstreetmap
Blue Devils Practice Field,football,pitch,38.0089275,-122.0515765,,,CA,,false,true,false,openstreetmap
Bob Jacob Memorial Stadium,football,pitch,34.2750606,-118.6839412,,,CA,,false,true,false,openstreetmap
Bobcat Stadium,football,pitch,33.1582534,-117.2862765,,,CA,,false,true,false,openstreetmap
Boron High School Football Stadium,football,stadium,35.0068505,-117.653588,,,CA,,false,true,false,openstreetmap
Boswell Field,football,pitch,33.7531165,-118.0117231,,,CA,,false,true,false,openstreetmap
Bradford Stadium,football,pitch,33.8792878,-117.8666166,,,CA,,false,true,false,openstreetmap
Bradly Field,football,pitch,37.4450006,-122.2332678,,,CA,,false,true,false,openstreetmap
Breniman Field,football,pitch,34.1953675,-118.6037,,,CA,,false,true,false,openstreetmap
Bulldog Football Field,football,pitch,37.5371189,-122.3313707,,,CA,,false,true,false,openstreetmap
Bulldog Stadium,football,pitch,33.9919209,-117.7305989,,,CA,,false,true,false,openstreetmap
Burbank Memorial Field,football,pitch,34.1673781,-118.3265665,,,CA,,false,true,false,openstreetmap
Burroughs High School,football,pitch,35.6354747,-117.6559499,,,CA,,false,true,false,openstreetmap
CVHS Football,football,pitch,34.2212312,-118.2431247,,,CA,,false,true,false,openstreetmap
California Memorial Stadium,football,stadium,37.8709975,-122.2507394,,,CA,,false,true,false,openstreetmap
Carlmont High School Football Field,football,pitch,37.5063607,-122.2885716,,,CA,,false,true,false,openstreetmap
Cartan Football Field,football,pitch,37.4585534,-122.1946861,,,CA,,false,true,false,openstreetmap
Cesar Chavez High School football field,football,pitch,38.0115055,-121.2705711,,,CA,,false,true,false,openstreetmap
Chaparral High School Puma Country Stadium,football,pitch,33.5366894,-117.149326,,,CA,,false,true,false,openstreetmap
Chapman Stadium,football,stadium,33.7941934,-117.8509838,,,CA,,false,true,false,openstreetmap
Chick Embrey Field,football,pitch,33.1476315,-117.0916828,,,CA,,false,true,false,openstreetmap
Community Stadium,football,pitch,36.5879946,-121.8848867,,,CA,,false,true,false,openstreetmap
Corbus Field,football,pitch,38.1146613,-122.2464877,,,CA,,false,true,false,openstreetmap
Coronado Islanders,football,pitch,32.6924187,-117.1805248,,,CA,,false,true,false,openstreetmap
Corsair Stadium,football,pitch,34.0154646,-118.4715404,,,CA,,false,true,false,openstreetmap
Cougar Canyon Stadium,football,pitch,38.6531997,-121.3092749,,,CA,,false,true,false,openstreetmap
Cougar Stadium,football,pitch,33.5443359,-117.6706229,,,CA,,false,true,false,openstreetmap
Cougar Stadium,football,pitch,34.4070469,-118.5712453,,,CA,,false,true,false,openstreetmap
Courage Field,football,pitch,33.8449327,-117.9487431,,,CA,,false,true,false,openstreetmap
Dana Hills Dollphins football field,football,pitch,33.4785425,-117.7017665,,,CA,,false,true,false,openstreetmap
Dave Boyd Field,football,pitch,34.9395032,-120.4395319,,,CA,,false,true,false,openstreetmap
David Burcham Field,football,pitch,33.7870905,-118.1813997,,,CA,,false,true,false,openstreetmap
Deran Koligian Stadium,football,pitch,36.7974729,-119.9145645,,,CA,,false,true,false,openstreetmap
Diamond Bar High School Football FIeld,football,pitch,33.9803785,-117.8401748,,,CA,,false,true,false,openstreetmap
Dublin High School Football field,football,pitch,37.7205161,-121.9219363,,,CA,,false,true,false,openstreetmap
E M Geiser Field,football,pitch,36.9120008,-121.7485851,,,CA,,false,true,false,openstreetmap
East Union Football Field,football,pitch,37.822356,-121.2316568,,,CA,,false,true,false,openstreetmap
Ed Burke Field,football,pitch,32.9589895,-117.2233026,,,CA,,false,true,false,openstreetmap
Edward R. Monahan Memorial Stadium,football,pitch,38.4917771,-122.7398861,,,CA,,false,true,false,openstreetmap
FB 1,football,pitch,37.6838291,-121.8846299,,,CA,,false,true,false,openstreetmap
FB 2,football,pitch,37.6842081,-121.8849979,,,CA,,false,true,false,openstreetmap
Falcon Field,football,pitch,33.8857062,-118.0902616,,,CA,,false,true,false,openstreetmap
Fall River Football Field,football,pitch,41.0450449,-121.4009182,,,CA,,false,true,false,openstreetmap
Father Frank Ribotta Field,football,pitch,33.9054717,-118.1245182,,,CA,,false,true,false,openstreetmap
Folsom Bulldogs Stadium,football,stadium,38.6460291,-121.1577903,,,CA,,false,true,false,openstreetmap
Folsom High School football field,football,pitch,38.6453921,-121.1570736,,,CA,,false,true,false,openstreetmap
Football Field,football,pitch,39.1906433,-123.2303416,,,CA,,false,true,false,openstreetmap
Football Field,football,pitch,33.7919332,-116.4437074,,,CA,,false,true,false,openstreetmap
Football Field,football,pitch,38.791469,-121.2068446,,,CA,,false,true,false,openstreetmap
Football Field,football,pitch,34.1484038,-118.0163506,,,CA,,false,true,false,openstreetmap
Football Field,football,pitch,37.7154962,-122.4301089,,,CA,,false,true,false,openstreetmap
"Football Field, Baseball Fields 2 & 3",football,pitch,36.98357,-122.0366075,,,CA,,false,true,false,openstreetmap
Football Practice Field,football,pitch,34.1451217,-117.5656667,,,CA,,false,true,false,openstreetmap
Football Turf,football,pitch,37.1271838,-121.6271091,,,CA,,false,true,false,openstreetmap
"Football, Track",football,pitch,37.9127675,-122.0316323,,,CA,,false,true,false,openstreetmap
Football/Soccer Field,football,pitch,38.8485694,-120.8548344,,,CA,,false,true,false,openstreetmap
Football/Soccer Field,football,pitch,34.080104,-117.9025599,,,CA,,false,true,false,openstreetmap
Frank Youell Athletic Field,football,pitch,37.7943859,-122.2585387,,,CA,,false,true,false,openstreetmap
Friedman Field,football,pitch,34.1947664,-118.1812676,,,CA,,false,true,false,openstreetmap
GBHS Football Field,football,pitch,38.7310698,-121.2114745,,,CA,,false,true,false,openstreetmap
Gene Beck Stadium,football,pitch,35.7790557,-119.2374513,,,CA,,false,true,false,openstreetmap
Ghiorso Field,football,pitch,37.3433101,-121.9177016,,,CA,,false,true,false,openstreetmap
Glover Stadium,football,pitch,33.848101,-117.9214329,,,CA,,false,true,false,openstreetmap
Goetten Field,football,pitch,34.1692352,-118.5735576,,,CA,,false,true,false,openstreetmap
Graber Field,football,pitch,34.0801437,-117.655006,,,CA,,false,true,false,openstreetmap
Great Oak High School Wolfpack Stadium,football,pitch,33.4499436,-117.0942735,,,CA,,false,true,false,openstreetmap
Harry R. LeBard Stadium,football,stadium,33.6728048,-117.91057,,,CA,,false,true,false,openstreetmap
Helm Field,football,pitch,37.2246217,-121.9750246,,,CA,,false,true,false,openstreetmap
Holy Cross Field,football,pitch,36.9793193,-122.0308493,,,CA,,false,true,false,openstreetmap
Hornet Stadium,football,pitch,38.5556698,-121.4229536,,,CA,,false,true,false,openstreetmap
Hurd Field,football,pitch,33.9572744,-118.209557,,,CA,,false,true,false,openstreetmap
Jackie Robinson Stadium,football,stadium,34.022559,-118.3527775,,,CA,,false,true,false,openstreetmap
Jaguar Stadium,football,pitch,33.7010939,-117.8996438,,,CA,,false,true,false,openstreetmap
Jay Will Stadium,football,pitch,34.8821635,-120.4158202,,,CA,,false,true,false,openstreetmap
Jayden Daniels Stadium,football,pitch,34.176475,-117.3128869,,,CA,,false,true,false,openstreetmap
Jim Scott Stadium,football,pitch,33.6603503,-117.9375007,,,CA,,false,true,false,openstreetmap
Jim Sweeney Field,football,pitch,36.8144115,-119.7580676,,,CA,,false,true,false,openstreetmap
John Allen Memorial Football Field,football,pitch,38.8088399,-123.0215904,,,CA,,false,true,false,openstreetmap
John Elway Stadium,football,sports_centre,34.2597222,-118.5247222,,,CA,,false,true,false,openstreetmap
John Silva Football Field,football,pitch,34.0789655,-117.3663839,,,CA,,false,true,false,openstreetmap
Justin-Siena Stadium,football,stadium,38.330393,-122.3195496,,,CA,,false,true,false,openstreetmap
Kennedy Field,football,pitch,34.0225175,-118.2892792,,,CA,,false,true,false,openstreetmap
La Playa Field,football,pitch,34.4042543,-119.6960232,,,CA,,false,true,false,openstreetmap
Laguna Beach Breakers,football,pitch,33.5406101,-117.7761574,,,CA,,false,true,false,openstreetmap
Leland Stadium,football,pitch,37.2148272,-121.843644,,,CA,,false,true,false,openstreetmap
Leopards,football,pitch,34.0998207,-117.7740352,,,CA,,false,true,false,openstreetmap
Liberty High School Football Field,football,pitch,35.3654788,-119.1322172,,,CA,,false,true,false,openstreetmap
Linfield Christian,football,pitch,33.5019767,-117.1109841,,,CA,,false,true,false,openstreetmap
Los Angeles Rams Practice Field,football,pitch,34.2303563,-118.8781182,,,CA,,false,true,false,openstreetmap
Loyalton High School Football,football,pitch,39.6798383,-120.2467851,,,CA,,false,true,false,openstreetmap
MacKain Feild,football,pitch,33.9301964,-117.878023,,,CA,,false,true,false,openstreetmap
Manchester Valley Field,football,pitch,32.7767743,-117.1829741,,,CA,,false,true,false,openstreetmap
Manteca High Football,football,pitch,37.7939064,-121.2080922,,,CA,,false,true,false,openstreetmap
Marauders Field,football,pitch,32.9104142,-117.1433957,,,CA,,false,true,false,openstreetmap
Mater Dei High School Football Field,football,pitch,33.7239269,-117.8840752,,,CA,,false,true,false,openstreetmap
Memorial Stadium,football,stadium,38.3144301,-122.2999561,,,CA,,false,true,false,openstreetmap
Memorial Stadium Football Field,football,pitch,40.6296705,-122.3166293,,,CA,,false,true,false,openstreetmap
Memorial Stadium Football Field,football,pitch,40.629723,-122.3154449,,,CA,,false,true,false,openstreetmap
Merrill Douglas Stadium,football,pitch,32.8055462,-117.1655114,,,CA,,false,true,false,openstreetmap
Merritt Football Field,football,pitch,34.0991502,-117.7104782,,,CA,,false,true,false,openstreetmap
Milpitas High Football Field,football,pitch,37.4504384,-121.90326,,,CA,,false,true,false,openstreetmap
Monarch Stadium,football,pitch,34.1748356,-118.4159768,,,CA,,false,true,false,openstreetmap
Moreno Valley High School Football Field,football,pitch,33.9271732,-117.2533342,,,CA,,false,true,false,openstreetmap
Mount Shasta Bears,football,pitch,41.3235933,-122.3044076,,,CA,,false,true,false,openstreetmap
Moyse Stadium,football,pitch,34.1440821,-118.2317655,,,CA,,false,true,false,openstreetmap
Nevada Union High School,football,pitch,39.2405082,-121.0517347,,,CA,,false,true,false,openstreetmap
Newman Field,football,pitch,33.9784605,-118.024861,,,CA,,false,true,false,openstreetmap
Oak Ridge High School football stadium,football,pitch,38.6791936,-121.0690781,,,CA,,false,true,false,openstreetmap
Palatella Field,football,pitch,37.4490972,-122.1942777,,,CA,,false,true,false,openstreetmap
Panther Stadium,football,pitch,34.9558649,-120.4012675,,,CA,,false,true,false,openstreetmap
Panthers Football Field,football,pitch,33.8701176,-117.5855403,,,CA,,false,true,false,openstreetmap
Patriots Field,football,pitch,33.737741,-117.1379866,,,CA,,false,true,false,openstreetmap
Patterson Community Stadium,football,stadium,37.473417,-121.1395153,,,CA,,false,true,false,openstreetmap
Phil Stennes Stadium,football,pitch,37.2554413,-121.8210851,,,CA,,false,true,false,openstreetmap
Pirate Stadium,football,pitch,33.90305,-118.1544561,,,CA,,false,true,false,openstreetmap
Practice Field,football,pitch,33.9722783,-117.3817344,,,CA,,false,true,false,openstreetmap
Rabobank Stadium,football,pitch,36.6964368,-121.6474341,,,CA,,false,true,false,openstreetmap
Rancho Christian Eagles Field,football,pitch,33.4770129,-117.1179052,,,CA,,false,true,false,openstreetmap
Ray Field,football,stadium,37.4356929,-122.153422,,,CA,,false,true,false,openstreetmap
Rio Americano Raiders,football,pitch,38.5780253,-121.3530625,,,CA,,false,true,false,openstreetmap
Rod Marinelli Stadium,football,stadium,34.0865082,-118.0707053,,,CA,,false,true,false,openstreetmap
Sage Hill Soccer,football,pitch,33.6184974,-117.8243,,,CA,,false,true,false,openstreetmap
Saints (St Anthony) Stadium,football,pitch,33.8449835,-118.1328869,,,CA,,false,true,false,openstreetmap
San Mateo High football field,football,pitch,37.578805,-122.3305918,,,CA,,false,true,false,openstreetmap
San Ysidro Cougars,football,pitch,32.5649294,-117.0196394,,,CA,,false,true,false,openstreetmap
Sartoris Field,football,pitch,34.1656755,-118.2305007,,,CA,,false,true,false,openstreetmap
Scott O'Leary Stadium,football,stadium,34.4377139,-119.8770521,,,CA,,false,true,false,openstreetmap
Sea Hawks Stadium,football,pitch,33.846599,-118.3804634,,,CA,,false,true,false,openstreetmap
Seahawk Stadium,football,pitch,33.7817567,-118.2831988,,,CA,,false,true,false,openstreetmap
Sentinel Field,football,pitch,33.9578563,-118.3630949,,,CA,,false,true,false,openstreetmap
Shafter High School,football,pitch,35.5079917,-119.2661469,,,CA,,false,true,false,openstreetmap
Shapell Stadium,football,pitch,33.8987499,-117.7930653,,,CA,,false,true,false,openstreetmap
Shepard Stadium,football,pitch,34.1810219,-118.5773387,,,CA,,false,true,false,openstreetmap
Sherbeck Field,football,pitch,33.8777183,-117.9153967,,,CA,,false,true,false,openstreetmap
Sheue Field,football,pitch,33.6781722,-118.0029483,,,CA,,false,true,false,openstreetmap
Silverado Hawks,football,pitch,34.5053826,-117.3740181,,,CA,,false,true,false,openstreetmap
Spartan Football Practice Fields,football,sports_centre,37.3214348,-121.8691599,,,CA,,false,true,false,openstreetmap
Spartan Stadium,football,pitch,33.8137189,-118.36463,,,CA,,false,true,false,openstreetmap
Spaulding Field,football,pitch,34.0692047,-118.4468593,,,CA,,false,true,false,openstreetmap
Stevenson Football Field,football,pitch,36.5831565,-121.9462438,,,CA,,false,true,false,openstreetmap
Temecula Valley High School Golden Bears Stadium,football,pitch,33.5021039,-117.1141703,,,CA,,false,true,false,openstreetmap
Tesoro High School Football Field,football,pitch,33.5787202,-117.6131209,,,CA,,false,true,false,openstreetmap
Tiger Stadium,football,pitch,37.5940191,-122.4728976,,,CA,,false,true,false,openstreetmap
Titan Football Field,football,pitch,34.1273395,-118.0987412,,,CA,,false,true,false,openstreetmap
Titans,football,pitch,34.0221331,-117.3302049,,,CA,,false,true,false,openstreetmap
Tom Burt Field,football,pitch,37.3866119,-122.1101836,,,CA,,false,true,false,openstreetmap
Town Center Field 4,football,pitch,32.8484604,-116.9797273,,,CA,,false,true,false,openstreetmap
Turlock High School Football Field,football,pitch,37.4972805,-120.8326277,,,CA,,false,true,false,openstreetmap
Turner Field,football,pitch,34.2799106,-119.2638979,,,CA,,false,true,false,openstreetmap
UC Davis Health Stadium,football,pitch,38.5365573,-121.7627705,,,CA,,false,true,false,openstreetmap
Valley Children's Stadium,football,stadium,36.8143529,-119.7580422,,,CA,,false,true,false,openstreetmap
Varsity Football Field,football,pitch,33.815343,-117.8192219,,,CA,,false,true,false,openstreetmap
Veterans Park Football Fields,football,pitch,35.4936614,-119.2886036,,,CA,,false,true,false,openstreetmap
Veterans Park Football Fields,football,pitch,35.4936995,-119.2889978,,,CA,,false,true,false,openstreetmap
Veterans Stadium,football,pitch,37.2905292,-120.4484958,,,CA,,false,true,false,openstreetmap
Viking Field (VF),football,pitch,37.9670272,-122.068904,,,CA,,false,true,false,openstreetmap
Waller Football Stadium,football,stadium,33.8760248,-118.3889594,,,CA,,false,true,false,openstreetmap
Warrior Stadium,football,pitch,34.8861818,-120.4218429,,,CA,,false,true,false,openstreetmap
West Valley Eagles,football,pitch,40.3989883,-122.4034696,,,CA,,false,true,false,openstreetmap
Wilson Field,football,pitch,33.7943126,-117.8508396,,,CA,,false,true,false,openstreetmap
Zinda Field,football,pitch,34.1001889,-117.7049114,,,CA,,false,true,false,openstreetmap
SoFi Stadium,football,stadium,33.9534013,-118.3390045,1001 South Stadium Drive,Inglewood,CA,90301,false,true,false,openstreetmap
Los Angeles Memorial Coliseum,football,stadium,34.0139985,-118.28782,3911 South Figueroa Street,Los Angeles,CA,90037,false,true,false,openstreetmap
Ted Runner Stadium,football,pitch,34.0676171,-117.1650047,1211 East Brockton Avenue,Redlands,CA,92374,false,true,false,openstreetmap
Gabrielino High School Football Stadium,football,stadium,34.0823149,-118.092615,1327 S San Gabriel Blvd,San Gabriel,CA,91776,false,true,false,openstreetmap
Levi’s Stadium,football,stadium,37.4029927,-121.9700565,4900 Marie P. DeBartolo Way,Santa Clara,CA,95054,false,true,false,openstreetmap
SAP Performance Facility,football,sports_centre,37.40339,-121.9667583,4949 Marie P. DeBartolo Way,Santa Clara,CA,95054,false,true,false,openstreetmap
Stanford Stadium,football,stadium,37.4345296,-122.1610919,625 Nelson Road,Stanford,CA,,false,true,false,openstreetmap
