name,sport,place_type,latitude,longitude,address,city,state,zip,indoor,outdoor,verified,source
1,baseball,pitch,40.6612062,-73.9762814,,,NY,,false,true,false,openstreetmap
1,baseball,pitch,40.8005796,-73.925307,,,NY,,false,true,false,openstreetmap
1,baseball,pitch,40.8183027,-73.8778759,,,NY,,false,true,false,openstreetmap
1,baseball,pitch,42.7066171,-73.9662574,,,NY,,false,true,false,openstreetmap
2,baseball,pitch,40.6620566,-73.9747857,,,NY,,false,true,false,openstreetmap
2,baseball,pitch,40.8010423,-73.924651,,,NY,,false,true,false,openstreetmap
2,baseball,pitch,42.7060471,-73.9666786,,,NY,,false,true,false,openstreetmap
3,baseball,pitch,40.6623098,-73.9741937,,,NY,,false,true,false,openstreetmap
3,baseball,pitch,40.8010324,-73.9240721,,,NY,,false,true,false,openstreetmap
3,baseball,pitch,42.7062613,-73.9674533,,,NY,,false,true,false,openstreetmap
4,baseball,pitch,40.6619058,-73.9728157,,,NY,,false,true,false,openstreetmap
4,baseball,pitch,40.8008301,-73.9229668,,,NY,,false,true,false,openstreetmap
4,baseball,pitch,42.7055972,-73.9678033,,,NY,,false,true,false,openstreetmap
5,baseball,pitch,40.6612733,-73.97335,,,NY,,false,true,false,openstreetmap
5,baseball,pitch,40.8001185,-73.9225663,,,NY,,false,true,false,openstreetmap
5,baseball,pitch,42.7063493,-73.9687881,,,NY,,false,true,false,openstreetmap
5 Tool Baseball Academy,baseball,pitch,40.5384702,-74.2327807,,,NY,,false,true,false,openstreetmap
6,baseball,pitch,40.6611235,-73.9739876,,,NY,,false,true,false,openstreetmap
6,baseball,pitch,42.7064436,-73.9681163,,,NY,,false,true,false,openstreetmap
7,baseball,pitch,40.6609234,-73.9749087,,,NY,,false,true,false,openstreetmap
7,baseball,pitch,40.6493976,-73.9697068,,,NY,,false,true,false,openstreetmap
7,baseball,pitch,42.7069452,-73.9684238,,,NY,,false,true,false,openstreetmap
77th Street Baseball Fields,baseball,pitch,40.7845578,-73.9857606,,,NY,,false,true,false,openstreetmap
8,baseball,pitch,42.7070411,-73.9672785,,,NY,,false,true,false,openstreetmap
9,baseball,pitch,40.8000318,-73.9212724,,,NY,,false,true,false,openstreetmap
A Diamond,baseball,pitch,42.797512,-73.9089177,,,NY,,false,true,false,openstreetmap
A. J. Snyder Field,baseball,pitch,41.8396103,-74.101763,,,NY,,false,true,false,openstreetmap
Ackley Field,baseball,pitch,43.0857973,-77.5091316,,,NY,,false,true,false,openstreetmap
Adventure Landing Batting Cages,baseball,sports_centre,43.2123909,-77.7166487,,,NY,,false,true,false,openstreetmap
Albertson Park Baseball Diamond 1,baseball,pitch,40.7645699,-73.6505772,,,NY,,false,true,false,openstreetmap
Albertson Park Baseball Diamond 2,baseball,pitch,40.7640603,-73.6495757,,,NY,,false,true,false,openstreetmap
Alken Avenue Baseball Fields,baseball,pitch,40.6969324,-73.4907231,,,NY,,false,true,false,openstreetmap
All 4 Fun Batting Cages,baseball,batting_cage,42.7641284,-73.8091415,,,NY,,false,true,false,openstreetmap
Allen Terjesen Batting Cage,baseball,pitch,40.6442259,-74.1058208,,,NY,,false,true,false,openstreetmap
American Legion Memorial Field,baseball,pitch,42.6357914,-73.7728294,,,NY,,false,true,false,openstreetmap
Angelo Lorenzo Memorial Baseball Feild,baseball,pitch,40.8093464,-73.6017769,,,NY,,false,true,false,openstreetmap
Anthony Varvaro Memorial Complex,baseball,sports_centre,40.6433819,-74.1054087,,,NY,,false,true,false,openstreetmap
Ashby Field,baseball,pitch,42.5391262,-73.7255866,,,NY,,false,true,false,openstreetmap
Ashby Field,baseball,pitch,42.5395163,-73.7246789,,,NY,,false,true,false,openstreetmap
B Diamond,baseball,pitch,42.7955767,-73.9102765,,,NY,,false,true,false,openstreetmap
Babe Ruth Field,baseball,pitch,41.2044471,-73.9711727,,,NY,,false,true,false,openstreetmap
Babe Ruth Field,baseball,pitch,41.7917535,-74.0665597,,,NY,,false,true,false,openstreetmap
Bachman Field,baseball,pitch,43.1611798,-77.4413682,,,NY,,false,true,false,openstreetmap
Bahoshy Field,baseball,pitch,40.863343,-73.8847948,,,NY,,false,true,false,openstreetmap
Ballfield 5,baseball,pitch,40.8407251,-73.8929517,,,NY,,false,true,false,openstreetmap
Barasch Field,baseball,pitch,40.6532142,-73.6552964,,,NY,,false,true,false,openstreetmap
Barney Road Park Baseball Diamond,baseball,pitch,42.8436671,-73.8079587,,,NY,,false,true,false,openstreetmap
Baseball Diamond,baseball,pitch,40.8226317,-73.8131256,,,NY,,false,true,false,openstreetmap
Baseball Diamond,baseball,pitch,43.481196,-75.3374844,,,NY,,false,true,false,openstreetmap
Baseball Field,baseball,pitch,43.1958394,-76.8326223,,,NY,,false,true,false,openstreetmap
Baseball Field #1,baseball,pitch,43.0584882,-77.5159543,,,NY,,false,true,false,openstreetmap
Baseball Field #2,baseball,pitch,43.0579948,-77.5156633,,,NY,,false,true,false,openstreetmap
Baseball Field 13,baseball,pitch,40.7283421,-73.8351005,,,NY,,false,true,false,openstreetmap
Baseball Field 14,baseball,pitch,40.7279161,-73.8363552,,,NY,,false,true,false,openstreetmap
Baseball Field 15,baseball,pitch,40.7330807,-73.842643,,,NY,,false,true,false,openstreetmap
Baseball Field 16,baseball,pitch,40.7344421,-73.8428708,,,NY,,false,true,false,openstreetmap
Baseball Park,baseball,pitch,41.0698926,-71.8704981,,,NY,,false,true,false,openstreetmap
Baseball batting cages,baseball,pitch,40.7809193,-73.9873841,,,NY,,false,true,false,openstreetmap
Baseball/Softball Field 5,baseball,pitch,40.8396608,-73.6916328,,,NY,,false,true,false,openstreetmap
Basher Field,baseball,pitch,41.0729898,-73.8664625,,,NY,,false,true,false,openstreetmap
Basket Road Stadium,baseball,pitch,43.227564,-77.3948441,,,NY,,false,true,false,openstreetmap
Bassball Field,baseball,pitch,43.4049311,-76.0391106,,,NY,,false,true,false,openstreetmap
Batting Cage,baseball,sports_centre,43.0330079,-78.974648,,,NY,,false,true,false,openstreetmap
Batting Cage,baseball,pitch,42.1592359,-78.7348067,,,NY,,false,true,false,openstreetmap
Batting Cage,baseball,pitch,42.158703,-78.7339378,,,NY,,false,true,false,openstreetmap
Batting Cage,baseball,pitch,42.1681095,-76.8563831,,,NY,,false,true,false,openstreetmap
Batting Cages,baseball,pitch,42.6404276,-74.9589736,,,NY,,false,true,false,openstreetmap
Batting cage,baseball,yes,42.8737558,-73.772935,,,NY,,false,true,false,openstreetmap
Batting cage,baseball,pitch,42.1234898,-76.8956763,,,NY,,false,true,false,openstreetmap
Batting cages,baseball,pitch,42.7070369,-73.9668794,,,NY,,false,true,false,openstreetmap
Baxter Field,baseball,pitch,43.161564,-77.4426221,,,NY,,false,true,false,openstreetmap
Bayville Elementary School Baseball Field,baseball,pitch,40.9059541,-73.5641307,,,NY,,false,true,false,openstreetmap
Beauter Field,baseball,pitch,42.1133835,-76.2764534,,,NY,,false,true,false,openstreetmap
"Binghamton Area Girls' Softball Association, Inc. (BAGSAI)",baseball,pitch,42.1311373,-75.9129827,,,NY,,false,true,false,openstreetmap
Bligh Field,baseball,pitch,40.6519768,-73.6552939,,,NY,,false,true,false,openstreetmap
Bob Bellizzi Field,baseball,pitch,42.6379358,-73.7751499,,,NY,,false,true,false,openstreetmap
Bob Jones Softball Field,baseball,pitch,40.7382727,-73.059537,,,NY,,false,true,false,openstreetmap
Bob Moore Stadium,baseball,pitch,42.8242722,-73.9540661,,,NY,,false,true,false,openstreetmap
Bobby Donovan Diamond at Elmwood Park,baseball,pitch,43.0187112,-76.1633371,,,NY,,false,true,false,openstreetmap
Brighton 1,baseball,pitch,43.0037538,-78.8418292,,,NY,,false,true,false,openstreetmap
Brighton 2,baseball,pitch,43.0034989,-78.8406121,,,NY,,false,true,false,openstreetmap
Brooklyn College - Bulldogs,baseball,pitch,40.6309416,-73.95543,,,NY,,false,true,false,openstreetmap
Brooklyn Cyclones,baseball,pitch,40.5741768,-73.9838279,,,NY,,false,true,false,openstreetmap
Brooklyn Sluggers,baseball,sports_centre,40.679541,-74.0089218,80A Verona Street,,NY,11231,false,true,false,openstreetmap
Broxmeyer Baseball Field,baseball,pitch,40.8686922,-73.5852181,,,NY,,false,true,false,openstreetmap
Brunswick Baseball,baseball,pitch,42.7427004,-73.5757055,,,NY,,false,true,false,openstreetmap
Buddy Corr Field,baseball,pitch,40.6928258,-73.2918837,,,NY,,false,true,false,openstreetmap
Buddy's Lakeside Field,baseball,pitch,41.229524,-74.0513316,,,NY,,false,true,false,openstreetmap
Bullpen,baseball,pitch,42.9423144,-76.5852227,,,NY,,false,true,false,openstreetmap
Bullpen,baseball,pitch,42.9414622,-76.5843356,,,NY,,false,true,false,openstreetmap
Burke Estate,baseball,pitch,40.9915775,-73.8757407,,,NY,,false,true,false,openstreetmap
C Diamond,baseball,pitch,42.7976855,-73.9137975,,,NY,,false,true,false,openstreetmap
C.J. Piccoli Field,baseball,pitch,41.0482346,-73.8244778,,,NY,,false,true,false,openstreetmap
Camden Yards,baseball,pitch,40.7378868,-73.058571,,,NY,,false,true,false,openstreetmap
Capobianco Field,baseball,pitch,40.7627363,-73.9480567,,,NY,,false,true,false,openstreetmap
Castle Baseball Diamond,baseball,pitch,43.0935973,-73.8059836,,,NY,,false,true,false,openstreetmap
Challenger Baseball Field,baseball,pitch,40.775301,-73.4920929,,,NY,,false,true,false,openstreetmap
Cheresnowsky Field,baseball,pitch,42.1121193,-76.2768742,,,NY,,false,true,false,openstreetmap
Chip Cummings Field,baseball,pitch,44.681269,-73.4792037,,,NY,,false,true,false,openstreetmap
City of Hornell,baseball,pitch,42.3351851,-77.6640907,,,NY,,false,true,false,openstreetmap
Clement Field,baseball,pitch,43.1035416,-77.5855562,,,NY,,false,true,false,openstreetmap
Clipper Baseball Field,baseball,pitch,40.9435959,-73.8199939,,,NY,,false,true,false,openstreetmap
Clover Stadium,baseball,stadium,41.1702691,-74.0385751,1 Phil Tisi Way,,NY,10970,false,true,false,openstreetmap
Coach Rosado Field,baseball,pitch,40.6516785,-73.8912867,,,NY,,false,true,false,openstreetmap
Cohoes Intermediate Baseball Field,baseball,pitch,42.7699799,-73.686141,,,NY,,false,true,false,openstreetmap
Coleman Field,baseball,pitch,40.7112711,-73.9936673,,,NY,,false,true,false,openstreetmap
Connors Park,baseball,pitch,42.7185993,-73.7500158,,,NY,,false,true,false,openstreetmap
Cooperstown All Star Village,baseball,pitch,42.4631809,-75.1032126,,,NY,,false,true,false,openstreetmap
Cooperstown Dreams Park Field #1,baseball,pitch,42.6395986,-74.9616916,,,NY,,false,true,false,openstreetmap
Cooperstown Dreams Park Field #10,baseball,pitch,42.6392587,-74.9602349,,,NY,,false,true,false,openstreetmap
Cooperstown Dreams Park Field #11,baseball,pitch,42.6401242,-74.9564261,,,NY,,false,true,false,openstreetmap
Cooperstown Dreams Park Field #12,baseball,pitch,42.640135,-74.9553301,,,NY,,false,true,false,openstreetmap
Cooperstown Dreams Park Field #13,baseball,pitch,42.6409422,-74.9553495,,,NY,,false,true,false,openstreetmap
Cooperstown Dreams Park Field #14,baseball,pitch,42.6409295,-74.9564393,,,NY,,false,true,false,openstreetmap
Cooperstown Dreams Park Field #15,baseball,pitch,42.6430966,-74.9601234,,,NY,,false,true,false,openstreetmap
Cooperstown Dreams Park Field #16,baseball,pitch,42.6439052,-74.9601277,,,NY,,false,true,false,openstreetmap
Cooperstown Dreams Park Field #17,baseball,pitch,42.6439073,-74.9612153,,,NY,,false,true,false,openstreetmap
Cooperstown Dreams Park Field #18,baseball,pitch,42.643099,-74.9612176,,,NY,,false,true,false,openstreetmap
Cooperstown Dreams Park Field #19,baseball,pitch,42.6449023,-74.9601109,,,NY,,false,true,false,openstreetmap
Cooperstown Dreams Park Field #2,baseball,pitch,42.6396917,-74.9626312,,,NY,,false,true,false,openstreetmap
Cooperstown Dreams Park Field #20,baseball,pitch,42.645711,-74.9601174,,,NY,,false,true,false,openstreetmap
Cooperstown Dreams Park Field #21,baseball,pitch,42.6457121,-74.9612101,,,NY,,false,true,false,openstreetmap
Cooperstown Dreams Park Field #22,baseball,pitch,42.6449047,-74.9612126,,,NY,,false,true,false,openstreetmap
Cooperstown Dreams Park Field #4,baseball,pitch,42.638013,-74.9622411,,,NY,,false,true,false,openstreetmap
Cooperstown Dreams Park Field #5,baseball,pitch,42.6375807,-74.9616815,,,NY,,false,true,false,openstreetmap
Cooperstown Dreams Park Field #6,baseball,pitch,42.6378768,-74.9609619,,,NY,,false,true,false,openstreetmap
Cooperstown Dreams Park Field #7,baseball,pitch,42.6384489,-74.9603082,,,NY,,false,true,false,openstreetmap
Cooperstown Dreams Park Field #8,baseball,pitch,42.6383993,-74.9592072,,,NY,,false,true,false,openstreetmap
Cooperstown Dreams Park Field #9,baseball,pitch,42.6392062,-74.9591478,,,NY,,false,true,false,openstreetmap
Copenhagen Baseball Field,baseball,pitch,43.8910651,-75.6788079,,,NY,,false,true,false,openstreetmap
Corning Painted Post Little League,baseball,pitch,42.1347791,-77.034208,,,NY,,false,true,false,openstreetmap
Corning Painted Post Little League,baseball,pitch,42.1353579,-77.0344762,,,NY,,false,true,false,openstreetmap
Corning Painted Post Little League,baseball,pitch,42.135274,-77.0334142,,,NY,,false,true,false,openstreetmap
Damaschke Field,baseball,pitch,42.451285,-75.0588454,,,NY,,false,true,false,openstreetmap
Dave Leonard Field,baseball,pitch,42.0479062,-76.0324787,,,NY,,false,true,false,openstreetmap
David Rotondo Memorial Field,baseball,pitch,43.1092738,-77.4744759,,,NY,,false,true,false,openstreetmap
Delano Hitch Stadium,baseball,pitch,41.4984197,-74.0247672,,,NY,,false,true,false,openstreetmap
Delfino Field,baseball,pitch,41.0387083,-73.7551318,,,NY,,false,true,false,openstreetmap
Doc Knapp Field,baseball,pitch,42.4421893,-75.0733996,,,NY,,false,true,false,openstreetmap
Doubleday Field,baseball,pitch,41.3925939,-73.9547321,,,NY,,false,true,false,openstreetmap
Doubleday Field,baseball,bleachers,42.6991326,-74.9268711,,,NY,,false,true,false,openstreetmap
Ducks Stadium,baseball,pitch,40.7403604,-73.0578959,,,NY,,false,true,false,openstreetmap
Dugan Yard,baseball,pitch,43.1103181,-77.5108235,,,NY,,false,true,false,openstreetmap
Dutchess Stadium,baseball,stadium,41.5280263,-73.9607252,,,NY,,false,true,false,openstreetmap
Dutchmen Field,baseball,pitch,42.7066929,-73.9706045,,,NY,,false,true,false,openstreetmap
Dwyer Stadium,baseball,stadium,43.0095243,-78.1790127,,,NY,,false,true,false,openstreetmap
E.J. Pilholski Memorial Field,baseball,pitch,40.9484693,-73.8883249,,,NY,,false,true,false,openstreetmap
East Ballfield,baseball,pitch,40.5942462,-73.5174974,,,NY,,false,true,false,openstreetmap
East Shore Little League,baseball,sports_centre,40.6061229,-74.0644307,,,NY,,false,true,false,openstreetmap
Ehlers Field,baseball,pitch,43.1620885,-77.4413489,,,NY,,false,true,false,openstreetmap
Elmira Heights Little League,baseball,pitch,42.1217793,-76.8130833,,,NY,,false,true,false,openstreetmap
Eugene McCabe Field,baseball,pitch,40.8023874,-73.9415868,,,NY,,false,true,false,openstreetmap
Everett Buckey Wainwright Memorial Field,baseball,park,42.1594794,-77.0578468,,,NY,,false,true,false,openstreetmap
Expressway Diamond 1,baseball,pitch,42.9909198,-78.90369,,,NY,,false,true,false,openstreetmap
Expressway Diamond 2,baseball,pitch,42.9904141,-78.9051912,,,NY,,false,true,false,openstreetmap
Expressway Diamond 3,baseball,pitch,42.9895953,-78.9056018,,,NY,,false,true,false,openstreetmap
Expressway Diamond 4,baseball,pitch,42.9892993,-78.9065212,,,NY,,false,true,false,openstreetmap
Expressway Diamond 5,baseball,pitch,42.9892443,-78.9077805,,,NY,,false,true,false,openstreetmap
Farm To Market Road,baseball,pitch,42.1249825,-76.0227277,,,NY,,false,true,false,openstreetmap
Fasulo Memorial Field,baseball,pitch,43.0832577,-73.7687598,,,NY,,false,true,false,openstreetmap
Father Carroll Field,baseball,pitch,41.9974014,-73.8866661,,,NY,,false,true,false,openstreetmap
Fedele Field,baseball,pitch,42.644126,-73.7368502,,,NY,,false,true,false,openstreetmap
Fenway Park,baseball,pitch,40.7395044,-73.0580244,,,NY,,false,true,false,openstreetmap
Ficke Softball Field,baseball,pitch,40.7222983,-73.6546265,,,NY,,false,true,false,openstreetmap
Field #1,baseball,pitch,43.210047,-77.4563895,,,NY,,false,true,false,openstreetmap
Field #1,baseball,pitch,40.6068611,-73.9372874,,,NY,,false,true,false,openstreetmap
Field #1,baseball,pitch,43.0950191,-77.446593,,,NY,,false,true,false,openstreetmap
Field #10,baseball,pitch,40.6075865,-73.9361646,,,NY,,false,true,false,openstreetmap
Field #11,baseball,pitch,40.6072402,-73.933784,,,NY,,false,true,false,openstreetmap
Field #12,baseball,pitch,40.6064151,-73.9328907,,,NY,,false,true,false,openstreetmap
Field #13,baseball,pitch,40.6058669,-73.9325431,,,NY,,false,true,false,openstreetmap
Field #2,baseball,pitch,40.6059294,-73.9369737,,,NY,,false,true,false,openstreetmap
Field #2,baseball,pitch,43.0950202,-77.4460787,,,NY,,false,true,false,openstreetmap
Field #3,baseball,pitch,43.2116803,-77.4563348,,,NY,,false,true,false,openstreetmap
Field #3,baseball,pitch,40.6052328,-73.9361902,,,NY,,false,true,false,openstreetmap
Field #3,baseball,pitch,43.0954499,-77.4460816,,,NY,,false,true,false,openstreetmap
Field #4,baseball,pitch,43.2123594,-77.456601,,,NY,,false,true,false,openstreetmap
Field #4,baseball,pitch,40.6044937,-73.9353339,,,NY,,false,true,false,openstreetmap
Field #4,baseball,pitch,43.0954561,-77.4465955,,,NY,,false,true,false,openstreetmap
Field #5,baseball,pitch,43.2130397,-77.457411,,,NY,,false,true,false,openstreetmap
Field #5,baseball,pitch,40.8018186,-73.97287,,,NY,,false,true,false,openstreetmap
Field #5,baseball,pitch,40.6040836,-73.9341668,,,NY,,false,true,false,openstreetmap
Field #6,baseball,pitch,43.2137802,-77.4574016,,,NY,,false,true,false,openstreetmap
Field #6,baseball,pitch,40.604799,-73.9330741,,,NY,,false,true,false,openstreetmap
Field #7,baseball,pitch,43.2137748,-77.4563875,,,NY,,false,true,false,openstreetmap
Field #7,baseball,pitch,40.6057419,-73.9333916,,,NY,,false,true,false,openstreetmap
Field #8,baseball,pitch,43.213035,-77.4563977,,,NY,,false,true,false,openstreetmap
Field #8,baseball,pitch,40.6065019,-73.9342637,,,NY,,false,true,false,openstreetmap
Field #9,baseball,pitch,40.6071891,-73.9350056,,,NY,,false,true,false,openstreetmap
Field #9,baseball,pitch,43.2137201,-77.4581946,,,NY,,false,true,false,openstreetmap
Field 1,baseball,pitch,43.1544335,-76.347765,,,NY,,false,true,false,openstreetmap
Field 1,baseball,pitch,43.0459517,-78.8370496,,,NY,,false,true,false,openstreetmap
Field 1,baseball,pitch,42.0845182,-73.9533651,,,NY,,false,true,false,openstreetmap
Field 1,baseball,pitch,43.0391421,-78.8654222,,,NY,,false,true,false,openstreetmap
Field 1,baseball,pitch,40.6455455,-73.511805,,,NY,,false,true,false,openstreetmap
Field 1,baseball,pitch,40.7470639,-73.8116469,,,NY,,false,true,false,openstreetmap
Field 10,baseball,pitch,43.0410232,-78.9618491,,,NY,,false,true,false,openstreetmap
Field 10,baseball,pitch,42.0867245,-73.9525178,,,NY,,false,true,false,openstreetmap
Field 11,baseball,pitch,42.0856858,-73.9526149,,,NY,,false,true,false,openstreetmap
Field 2,baseball,pitch,43.046159,-78.8364931,,,NY,,false,true,false,openstreetmap
Field 2,baseball,pitch,43.0397205,-78.8657969,,,NY,,false,true,false,openstreetmap
Field 2,baseball,pitch,40.7464897,-73.8126759,,,NY,,false,true,false,openstreetmap
Field 3,baseball,pitch,43.1535746,-76.3484124,,,NY,,false,true,false,openstreetmap
Field 3,baseball,pitch,43.0472485,-78.8354604,,,NY,,false,true,false,openstreetmap
Field 3,baseball,pitch,42.0847787,-73.954803,,,NY,,false,true,false,openstreetmap
Field 3,baseball,pitch,43.0386343,-78.8670522,,,NY,,false,true,false,openstreetmap
Field 3,baseball,pitch,40.7461462,-73.8110198,,,NY,,false,true,false,openstreetmap
Field 4,baseball,pitch,43.1546543,-76.3486432,,,NY,,false,true,false,openstreetmap
Field 4,baseball,pitch,43.046105,-78.8352756,,,NY,,false,true,false,openstreetmap
Field 4,baseball,pitch,42.0847847,-73.9555749,,,NY,,false,true,false,openstreetmap
Field 4,baseball,pitch,43.0393058,-78.8671599,,,NY,,false,true,false,openstreetmap
Field 4,baseball,pitch,40.746245,-73.8118679,,,NY,,false,true,false,openstreetmap
Field 5,baseball,pitch,42.0856661,-73.9549738,,,NY,,false,true,false,openstreetmap
Field 5,baseball,pitch,40.7433988,-73.8130722,,,NY,,false,true,false,openstreetmap
Field 6,baseball,pitch,42.0858317,-73.9543081,,,NY,,false,true,false,openstreetmap
Field 6,baseball,pitch,40.7440003,-73.8105,,,NY,,false,true,false,openstreetmap
Field 7,baseball,pitch,42.0865104,-73.9546547,,,NY,,false,true,false,openstreetmap
Field 7,baseball,pitch,40.7430473,-73.8106502,,,NY,,false,true,false,openstreetmap
Field 7,baseball,pitch,40.7267908,-73.6961834,,,NY,,false,true,false,openstreetmap
Field 8,baseball,pitch,42.0873704,-73.9544049,,,NY,,false,true,false,openstreetmap
Field 8,baseball,pitch,40.7432667,-73.8118142,,,NY,,false,true,false,openstreetmap
Field 9,baseball,pitch,43.0410335,-78.9598993,,,NY,,false,true,false,openstreetmap
Field 9,baseball,pitch,42.0881143,-73.9537039,,,NY,,false,true,false,openstreetmap
Field 9,baseball,pitch,40.7441771,-73.8115801,,,NY,,false,true,false,openstreetmap
Field of Dreams,baseball,pitch,40.7866482,-73.9437756,,,NY,,false,true,false,openstreetmap
Firefighter Louis Valentino Jr. Ballfield,baseball,pitch,40.6813408,-73.9959757,,,NY,,false,true,false,openstreetmap
Fireman's Field,baseball,pitch,41.6099963,-75.0579678,,,NY,,false,true,false,openstreetmap
Flossie Field,baseball,pitch,42.5906797,-79.0448492,,,NY,,false,true,false,openstreetmap
Ford Field B,baseball,pitch,43.0852561,-77.5085539,,,NY,,false,true,false,openstreetmap
Foster Baseball Field,baseball,pitch,42.3593669,-73.818326,,,NY,,false,true,false,openstreetmap
Francis O'Rourke Memorial Field,baseball,pitch,40.9805087,-73.8121785,,,NY,,false,true,false,openstreetmap
Franz Field,baseball,pitch,42.1131654,-76.274912,,,NY,,false,true,false,openstreetmap
Fred Handler Park at McGraw-Jennings Field,baseball,pitch,42.078899,-78.4863945,,,NY,,false,true,false,openstreetmap
George H. Pickett Field,baseball,pitch,42.9068734,-73.6991798,,,NY,,false,true,false,openstreetmap
George W. Honsberger Field,baseball,pitch,42.9934902,-78.6382311,,,NY,,false,true,false,openstreetmap
Glen Cove YMCA Baseball Field,baseball,pitch,40.8797711,-73.6305385,,,NY,,false,true,false,openstreetmap
Granny Road Park Baseball Field,baseball,pitch,40.8499503,-72.959028,,,NY,,false,true,false,openstreetmap
Great Lawn Ball Field 1,baseball,pitch,40.7807531,-73.9674255,,,NY,,false,true,false,openstreetmap
Great Lawn Ball Field 2,baseball,pitch,40.7806171,-73.9662261,,,NY,,false,true,false,openstreetmap
Great Lawn Ball Field 3,baseball,pitch,40.7814378,-73.9672552,,,NY,,false,true,false,openstreetmap
Great Lawn Ball Field 4,baseball,pitch,40.7813838,-73.9658241,,,NY,,false,true,false,openstreetmap
Great Lawn Ball Field 5,baseball,pitch,40.7822007,-73.9666404,,,NY,,false,true,false,openstreetmap
Great Lawn Ball Field 6,baseball,pitch,40.7818936,-73.9654699,,,NY,,false,true,false,openstreetmap
Great Lawn Ball Field 7,baseball,pitch,40.7832787,-73.9654673,,,NY,,false,true,false,openstreetmap
Great Lawn Ball Field 8,baseball,pitch,40.7826018,-73.9651404,,,NY,,false,true,false,openstreetmap
Gregg Alfano Athletic Field,baseball,pitch,40.7769301,-73.0246738,,,NY,,false,true,false,openstreetmap
Grenville Baker Boys & Girls Club Baseball Field,baseball,pitch,40.8740423,-73.6003108,,,NY,,false,true,false,openstreetmap
Habecker Field C,baseball,pitch,43.0743779,-77.4976248,,,NY,,false,true,false,openstreetmap
Habecker Field D,baseball,pitch,43.0735406,-77.4977384,,,NY,,false,true,false,openstreetmap
Half Hollow Hills High School West Baseball Field,baseball,pitch,40.81144,-73.3715496,,,NY,,false,true,false,openstreetmap
Hansen Aggregates Field,baseball,pitch,43.4799693,-75.3185821,,,NY,,false,true,false,openstreetmap
Harris Field,baseball,pitch,40.6677523,-73.6712423,,,NY,,false,true,false,openstreetmap
Hassenfuss Field,baseball,pitch,42.9603821,-74.1756625,,,NY,,false,true,false,openstreetmap
Hawks Baseball Field,baseball,pitch,41.1316842,-74.0918446,,,NY,,false,true,false,openstreetmap
Healy Field,baseball,pitch,40.9010337,-73.8706543,,,NY,,false,true,false,openstreetmap
Heckscher Ballfield 1,baseball,pitch,40.7698602,-73.9761059,,,NY,,false,true,false,openstreetmap
Heckscher Ballfield 2,baseball,pitch,40.7695532,-73.976894,,,NY,,false,true,false,openstreetmap
Heckscher Ballfield 3,baseball,pitch,40.7697544,-73.978403,,,NY,,false,true,false,openstreetmap
Heckscher Ballfield 4,baseball,pitch,40.7699888,-73.9777782,,,NY,,false,true,false,openstreetmap
Heckscher Ballfield 5,baseball,pitch,40.7706594,-73.9774054,,,NY,,false,true,false,openstreetmap
Heckscher Ballfield 6,baseball,pitch,40.7703826,-73.9766228,,,NY,,false,true,false,openstreetmap
Hector Duquette Field,baseball,pitch,44.7065545,-73.4628891,,,NY,,false,true,false,openstreetmap
Hees Park,baseball,pitch,42.4111169,-77.4252412,,,NY,,false,true,false,openstreetmap
Henrietta Acampora Field #1,baseball,pitch,40.7538873,-73.040164,,,NY,,false,true,false,openstreetmap
Henrietta Acampora Field #2,baseball,pitch,40.7538686,-73.0413187,,,NY,,false,true,false,openstreetmap
Heritage Field,baseball,pitch,40.8270194,-73.9278205,,,NY,,false,true,false,openstreetmap
Heritage Park,baseball,pitch,42.7404938,-73.8165486,,,NY,,false,true,false,openstreetmap
Hickey Field,baseball,pitch,40.6575487,-73.6400492,,,NY,,false,true,false,openstreetmap
Hicksville High School Baseball Field,baseball,pitch,40.7578485,-73.5288293,,,NY,,false,true,false,openstreetmap
Hofstra Baseball stadium,baseball,pitch,40.720737,-73.5984794,,,NY,,false,true,false,openstreetmap
Hofstra Softball stadium,baseball,pitch,40.7204545,-73.5963363,,,NY,,false,true,false,openstreetmap
Honey Field,baseball,pitch,42.0234949,-73.9122634,,,NY,,false,true,false,openstreetmap
Hoover Beach,baseball,pitch,42.7793676,-78.8582874,,,NY,,false,true,false,openstreetmap
Houlihan Park,baseball,pitch,40.86111,-73.8824307,,,NY,,false,true,false,openstreetmap
Immaculate Conception Youth Program,baseball,pitch,40.7790386,-73.9034642,,,NY,,false,true,false,openstreetmap
Irondequoit Youth Ballpark Complex,baseball,sports_centre,43.2141635,-77.5794488,,,NY,,false,true,false,openstreetmap
J Edaward Fox Field,baseball,pitch,41.2149378,-73.724055,,,NY,,false,true,false,openstreetmap
JFK Baseball Field,baseball,pitch,40.6529735,-73.5263584,,,NY,,false,true,false,openstreetmap
JFK Baseball Field,baseball,pitch,40.6503489,-73.5256062,,,NY,,false,true,false,openstreetmap
Jack Phillips Field,baseball,pitch,44.6663221,-75.0019294,,,NY,,false,true,false,openstreetmap
Jaime M. Adams Field,baseball,pitch,42.6063116,-73.6608595,,,NY,,false,true,false,openstreetmap
Jeff Adams Field,baseball,pitch,40.9252492,-73.1307412,,,NY,,false,true,false,openstreetmap
Jerry Chapel Ball Field,baseball,pitch,40.6349649,-73.6602506,,,NY,,false,true,false,openstreetmap
Jim King Baseball Field,baseball,pitch,43.0820248,-73.768223,,,NY,,false,true,false,openstreetmap
Joe Nathan Field,baseball,pitch,40.9235867,-73.122422,,,NY,,false,true,false,openstreetmap
Joe and Pete Memorial Field,baseball,pitch,43.6956863,-73.5046281,,,NY,,false,true,false,openstreetmap
John J. Errigo Field,baseball,pitch,41.0201641,-73.6870012,,,NY,,false,true,false,openstreetmap
John Jay Baseball Field,baseball,pitch,41.2717232,-73.6093486,,,NY,,false,true,false,openstreetmap
Johnny Podres Field,baseball,pitch,44.0459897,-73.480666,,,NY,,false,true,false,openstreetmap
Joseph L Bruno Stadium,baseball,pitch,42.6957144,-73.6799592,,,NY,,false,true,false,openstreetmap
Junior Field,baseball,pitch,43.1625588,-77.4462717,,,NY,,false,true,false,openstreetmap
Kelleher Field,baseball,pitch,40.7654567,-73.6415088,,,NY,,false,true,false,openstreetmap
Kelts Stadium,baseball,pitch,42.8033956,-73.68423,,,NY,,false,true,false,openstreetmap
Kickball Field,baseball,pitch,42.5698691,-77.697396,,,NY,,false,true,false,openstreetmap
Kiwanis Memorial Park,baseball,pitch,43.0502944,-75.3703039,,,NY,,false,true,false,openstreetmap
Kostrinsky Field,baseball,pitch,42.4166707,-76.4990594,,,NY,,false,true,false,openstreetmap
Lagana Field,baseball,pitch,41.0601027,-73.8546852,,,NY,,false,true,false,openstreetmap
Lagoe Field,baseball,pitch,43.4642141,-76.5057408,,,NY,,false,true,false,openstreetmap
Larry De Young Field,baseball,pitch,40.5074149,-74.2326934,,,NY,,false,true,false,openstreetmap
Lefty Wilson Memorial Baseball Field,baseball,pitch,44.707639,-73.4624625,,,NY,,false,true,false,openstreetmap
Levittown Memorial Field 2,baseball,pitch,40.7166218,-73.5122571,,,NY,,false,true,false,openstreetmap
Liberty Elementary School,baseball,pitch,41.1312214,-73.9270923,,,NY,,false,true,false,openstreetmap
Line Drive Baseball Academy,baseball,pitch,40.5972296,-74.1826297,,,NY,,false,true,false,openstreetmap
Little League Field,baseball,pitch,43.48092,-75.3178446,,,NY,,false,true,false,openstreetmap
Little League Field,baseball,pitch,43.4819067,-75.3179393,,,NY,,false,true,false,openstreetmap
Little Majors Stadium,baseball,pitch,42.6389754,-74.9627033,,,NY,,false,true,false,openstreetmap
Locust Lane Field,baseball,pitch,42.8574092,-73.8098923,,,NY,,false,true,false,openstreetmap
Long Island Ducks,baseball,pitch,40.7655645,-73.1924238,,,NY,,false,true,false,openstreetmap
Loop Road Baseball Complex,baseball,pitch,43.0580145,-75.4090782,,,NY,,false,true,false,openstreetmap
Loren Campbell Baseball Field,baseball,pitch,41.740821,-74.0888254,,,NY,,false,true,false,openstreetmap
Losurdo Field,baseball,pitch,43.4656734,-76.5047723,,,NY,,false,true,false,openstreetmap
Louisville Recreation Department Baseball Fields,baseball,pitch,44.8940501,-75.0137948,,,NY,,false,true,false,openstreetmap
Lower Roosevelt Field,baseball,pitch,40.8139029,-73.7562087,,,NY,,false,true,false,openstreetmap
Lt. Charles Margiotta Field,baseball,pitch,40.6285434,-74.1182635,,,NY,,false,true,false,openstreetmap
Madison Firemen's Field Baseball Field,baseball,pitch,42.9013924,-75.5104354,,,NY,,false,true,false,openstreetmap
Magnano Park,baseball,playground,42.067624,-78.427857,,,NY,,false,true,false,openstreetmap
Maimonides Park,baseball,stadium,40.5743399,-73.9840782,,,NY,,false,true,false,openstreetmap
Mang Field #1,baseball,pitch,42.9624666,-78.8807215,,,NY,,false,true,false,openstreetmap
Mang Field #4,baseball,pitch,42.9624142,-78.8872975,,,NY,,false,true,false,openstreetmap
Marge Bryant Softball Field,baseball,pitch,40.7407563,-73.0572415,,,NY,,false,true,false,openstreetmap
Marty DeMeo Ball Field,baseball,pitch,40.8235571,-73.0581639,,,NY,,false,true,false,openstreetmap
Mary Gray Deane Softball Field,baseball,pitch,41.7399759,-74.0893689,,,NY,,false,true,false,openstreetmap
Masino Field,baseball,pitch,40.7677721,-73.4942071,,,NY,,false,true,false,openstreetmap
McCann Baseball Field,baseball,pitch,41.7178516,-73.9338743,,,NY,,false,true,false,openstreetmap
McCrobie Field,baseball,pitch,43.4651814,-76.5056429,,,NY,,false,true,false,openstreetmap
McNickle Field,baseball,pitch,44.2070236,-75.8014826,,,NY,,false,true,false,openstreetmap
Meadow Lakes #1,baseball,pitch,43.0146376,-78.6753384,,,NY,,false,true,false,openstreetmap
Meadow Lakes #2,baseball,pitch,43.0157429,-78.6745109,,,NY,,false,true,false,openstreetmap
Meadow Lakes #3,baseball,pitch,43.0150311,-78.6745023,,,NY,,false,true,false,openstreetmap
Meadow Lakes #4,baseball,pitch,43.0144958,-78.6745378,,,NY,,false,true,false,openstreetmap
Meco Ball Park,baseball,stadium,43.0621617,-74.3826907,,,NY,,false,true,false,openstreetmap
Michael Arciola Field,baseball,pitch,41.0480996,-73.8237766,,,NY,,false,true,false,openstreetmap
Mid Island Babe Ruth League,baseball,sports_centre,40.599735,-74.1801559,,,NY,,false,true,false,openstreetmap
Mid-Atlantic,baseball,pitch,43.160709,-77.4443208,,,NY,,false,true,false,openstreetmap
Mid-Woods,baseball,pitch,43.1616769,-77.4443464,,,NY,,false,true,false,openstreetmap
Middle Field,baseball,pitch,43.1611927,-77.444356,,,NY,,false,true,false,openstreetmap
Mitchell Field,baseball,pitch,42.663736,-73.7541907,,,NY,,false,true,false,openstreetmap
Murmane Field,baseball,pitch,43.0906589,-75.2613457,,,NY,,false,true,false,openstreetmap
NYIT Softball Complex,baseball,pitch,40.808378,-73.6026375,,,NY,,false,true,false,openstreetmap
New Polaris Field,baseball,park,40.7365569,-73.510766,,,NY,,false,true,false,openstreetmap
North Field,baseball,pitch,40.6528897,-73.5628741,,,NY,,false,true,false,openstreetmap
North Hornell School,baseball,pitch,42.3506313,-77.6650903,,,NY,,false,true,false,openstreetmap
North Meadow Baseball Field 1,baseball,pitch,40.7929854,-73.9605181,,,NY,,false,true,false,openstreetmap
North Meadow Baseball Field 10,baseball,pitch,40.7920439,-73.9565836,,,NY,,false,true,false,openstreetmap
North Meadow Baseball Field 11,baseball,pitch,40.7916771,-73.9578441,,,NY,,false,true,false,openstreetmap
North Meadow Baseball Field 3,baseball,pitch,40.7918795,-73.9608458,,,NY,,false,true,false,openstreetmap
North Meadow Baseball Field 4,baseball,pitch,40.7923028,-73.9597218,,,NY,,false,true,false,openstreetmap
North Meadow Baseball Field 5,baseball,pitch,40.7930571,-73.9587738,,,NY,,false,true,false,openstreetmap
North Meadow Baseball Field 6,baseball,pitch,40.7928637,-73.957603,,,NY,,false,true,false,openstreetmap
North Meadow Softball Field 12,baseball,pitch,40.7913024,-73.957993,,,NY,,false,true,false,openstreetmap
North Meadow Softball Field 2,baseball,pitch,40.7922477,-73.9610701,,,NY,,false,true,false,openstreetmap
North Meadow Softball Field 7,baseball,pitch,40.7928306,-73.9569882,,,NY,,false,true,false,openstreetmap
North Meadow Softball Field 8,baseball,pitch,40.7930945,-73.9557772,,,NY,,false,true,false,openstreetmap
North Meadow Softball Field 9,baseball,pitch,40.7922919,-73.9561519,,,NY,,false,true,false,openstreetmap
Nyack Central School District,baseball,pitch,41.0955769,-73.924599,,,NY,,false,true,false,openstreetmap
O'Rourke Field,baseball,pitch,43.1040632,-77.5839793,,,NY,,false,true,false,openstreetmap
Odenbach Field,baseball,pitch,43.1619448,-77.4434878,,,NY,,false,true,false,openstreetmap
Old Baseball Field,baseball,pitch,42.7950212,-73.6388493,,,NY,,false,true,false,openstreetmap
Old Time Baseball Field,baseball,pitch,40.7691486,-73.4436858,,,NY,,false,true,false,openstreetmap
Optimist Field,baseball,pitch,43.0445809,-76.2994659,,,NY,,false,true,false,openstreetmap
Original Galway Baseball Field,baseball,pitch,43.0267594,-74.0339524,,,NY,,false,true,false,openstreetmap
Oyster Bay Memorial Stadium Baseball Field,baseball,pitch,40.874107,-73.535872,,,NY,,false,true,false,openstreetmap
P3 Batting Cage,baseball,sports_centre,40.7284133,-74.0130056,,,NY,,false,true,false,openstreetmap
PDS Baseball Field,baseball,pitch,41.6573187,-73.8889305,,,NY,,false,true,false,openstreetmap
Pat Cummings Memorial Field,baseball,pitch,40.6439033,-74.1055816,,,NY,,false,true,false,openstreetmap
Pavalion,baseball,pitch,43.4921255,-74.3530994,,,NY,,false,true,false,openstreetmap
Picken Field,baseball,pitch,40.6902186,-73.480215,,,NY,,false,true,false,openstreetmap
Playground Sixty-Two,baseball,pitch,40.7361411,-73.8532757,,,NY,,false,true,false,openstreetmap
Polaris Field,baseball,park,40.7365959,-73.5135312,,,NY,,false,true,false,openstreetmap
Polo Grounds,baseball,pitch,40.7386296,-73.0578566,,,NY,,false,true,false,openstreetmap
Pony Field,baseball,pitch,40.7678681,-73.9439686,,,NY,,false,true,false,openstreetmap
Portledge School Softball Field,baseball,pitch,40.868902,-73.5839856,,,NY,,false,true,false,openstreetmap
Queens College Baseball Field,baseball,pitch,40.7386805,-73.8221608,,,NY,,false,true,false,openstreetmap
RIT Baseball Field,baseball,pitch,43.0873501,-77.6703989,,,NY,,false,true,false,openstreetmap
Raftis Field,baseball,pitch,42.1127488,-76.2767791,,,NY,,false,true,false,openstreetmap
Red Dragon Baseball Field,baseball,pitch,42.472829,-75.0626229,,,NY,,false,true,false,openstreetmap
Red Hook Ball Field 9,baseball,pitch,40.6716893,-74.0051548,,,NY,,false,true,false,openstreetmap
Reds Field,baseball,pitch,42.7163647,-73.7053741,,,NY,,false,true,false,openstreetmap
Redstorm Field,baseball,park,40.7185928,-73.7976603,,,NY,,false,true,false,openstreetmap
Reinhard Baseball Field,baseball,pitch,40.6537947,-73.5251367,,,NY,,false,true,false,openstreetmap
Richard S. Camp Field,baseball,pitch,40.7589209,-73.639364,,,NY,,false,true,false,openstreetmap
Richmond County Bank Ballpark at Saint George,baseball,stadium,40.6454476,-74.0764242,,,NY,,false,true,false,openstreetmap
Richmond County Youth Complex,baseball,sports_centre,40.6006455,-74.1832973,,,NY,,false,true,false,openstreetmap
Robison Field,baseball,pitch,42.7358519,-73.673018,,,NY,,false,true,false,openstreetmap
Rotary Field,baseball,pitch,42.5692155,-77.6963616,,,NY,,false,true,false,openstreetmap
Sagamore Baseball Field,baseball,pitch,40.7542245,-73.6380538,,,NY,,false,true,false,openstreetmap
Saint Columbanus Little League Field,baseball,pitch,41.3143316,-73.9067735,,,NY,,false,true,false,openstreetmap
Sal Maglie Stadium,baseball,stadium,43.1007741,-79.0247415,,,NY,,false,true,false,openstreetmap
Saw Mill Road School Baseball Field,baseball,pitch,40.6900335,-73.5290721,,,NY,,false,true,false,openstreetmap
Saw Mill Road School Baseball Field,baseball,pitch,40.6906354,-73.5303517,,,NY,,false,true,false,openstreetmap
Saw Mill Road School Baseball Field,baseball,pitch,40.6910109,-73.5294633,,,NY,,false,true,false,openstreetmap
Scenic Hudson field 1,baseball,pitch,41.0370961,-73.8745241,,,NY,,false,true,false,openstreetmap
Scenic Hudson field 2,baseball,pitch,41.0359533,-73.874982,,,NY,,false,true,false,openstreetmap
School 6 Baseball field,baseball,pitch,40.6452882,-73.6361073,,,NY,,false,true,false,openstreetmap
School House Field,baseball,pitch,40.8328457,-73.5046395,,,NY,,false,true,false,openstreetmap
Seither Stadium,baseball,pitch,40.7073053,-73.8578533,,,NY,,false,true,false,openstreetmap
Senator Ralph J. Marino Memorial Park North Baseball Field,baseball,pitch,40.8643281,-73.5310785,,,NY,,false,true,false,openstreetmap
Senator Ralph J. Marino Memorial Park South Baseball Field,baseball,pitch,40.8638322,-73.5305423,,,NY,,false,true,false,openstreetmap
Seneca Falls Little League,baseball,pitch,42.9062279,-76.814648,,,NY,,false,true,false,openstreetmap
Senior Field,baseball,pitch,43.1626131,-77.447683,,,NY,,false,true,false,openstreetmap
Sharpe Field,baseball,pitch,42.2043045,-79.4614781,,,NY,,false,true,false,openstreetmap
Shuttleworth Park,baseball,pitch,42.959422,-74.1714221,,,NY,,false,true,false,openstreetmap
Shwonke Field,baseball,pitch,43.2854209,-77.8004105,,,NY,,false,true,false,openstreetmap
Sid Jacobs Ball Field (I),baseball,pitch,40.8527201,-73.8705521,,,NY,,false,true,false,openstreetmap
Sid Jacobs Ball Field (II),baseball,pitch,40.8520075,-73.8703784,,,NY,,false,true,false,openstreetmap
Smith Field E,baseball,pitch,43.0729295,-77.4977933,,,NY,,false,true,false,openstreetmap
Softball Field A,baseball,pitch,42.5712054,-77.6964451,,,NY,,false,true,false,openstreetmap
Softball Field B,baseball,pitch,42.5706289,-77.6974852,,,NY,,false,true,false,openstreetmap
South Field,baseball,pitch,40.652378,-73.56246,,,NY,,false,true,false,openstreetmap
South Shore Babe Ruth,baseball,sports_centre,40.506819,-74.2286923,,,NY,,false,true,false,openstreetmap
South Shore Little League,baseball,sports_centre,40.5086811,-74.2321253,,,NY,,false,true,false,openstreetmap
Southside Fields,baseball,pitch,43.1178439,-77.6330488,,,NY,,false,true,false,openstreetmap
Southside Fields,baseball,pitch,43.1188424,-77.6324479,,,NY,,false,true,false,openstreetmap
Split Rock FIeld,baseball,pitch,40.8334885,-73.5050007,,,NY,,false,true,false,openstreetmap
Staten Island Little League,baseball,sports_centre,40.5839388,-74.0971826,,,NY,,false,true,false,openstreetmap
Strawtown Road Fields (Field #1),baseball,pitch,41.1553783,-73.9655366,,,NY,,false,true,false,openstreetmap
Strawtown Road Fields (Field #2),baseball,pitch,41.1557064,-73.9656455,,,NY,,false,true,false,openstreetmap
Sunset Park Baseball Field,baseball,pitch,40.652299,-73.4611675,,,NY,,false,true,false,openstreetmap
T-Ball Field #1,baseball,pitch,40.7370229,-73.058172,,,NY,,false,true,false,openstreetmap
T-Ball Field #10,baseball,pitch,40.7409566,-73.0579604,,,NY,,false,true,false,openstreetmap
T-Ball Field #6,baseball,pitch,40.7386655,-73.0582452,,,NY,,false,true,false,openstreetmap
T-Ball Field #6,baseball,pitch,40.7381381,-73.0602691,,,NY,,false,true,false,openstreetmap
Taormina Field,baseball,pitch,43.4666148,-76.505316,,,NY,,false,true,false,openstreetmap
Tatascore Field,baseball,pitch,42.4595137,-76.4994889,,,NY,,false,true,false,openstreetmap
Tee-Ball Field,baseball,pitch,42.1131255,-76.2756268,,,NY,,false,true,false,openstreetmap
Teener Field,baseball,pitch,42.1139752,-76.2759649,,,NY,,false,true,false,openstreetmap
Temple Field,baseball,pitch,43.0701464,-76.0685438,,,NY,,false,true,false,openstreetmap
Terry King Ball Field,baseball,pitch,40.977904,-72.1554563,,,NY,,false,true,false,openstreetmap
The Ballpark at Saint John's,baseball,pitch,40.7236767,-73.7916205,,,NY,,false,true,false,openstreetmap
The Battery,baseball,sports_centre,43.1755169,-77.731462,,,NY,,false,true,false,openstreetmap
The Bobby Rogowicz Memorial Field,baseball,pitch,42.7056504,-73.8338945,,,NY,,false,true,false,openstreetmap
The Dome Fields,baseball,pitch,42.7244617,-73.7025807,,,NY,,false,true,false,openstreetmap
The Greenbelt Field of Dreams,baseball,pitch,40.5718191,-74.1667123,,,NY,,false,true,false,openstreetmap
Theodore Roosevelt Memorial Park Baseball Field,baseball,pitch,40.8763781,-73.5333437,,,NY,,false,true,false,openstreetmap
Theodore Roosevelt Memorial Park Baseball Field,baseball,pitch,40.875799,-73.5333629,,,NY,,false,true,false,openstreetmap
Tolhurst Field,baseball,pitch,43.0693009,-76.0688625,,,NY,,false,true,false,openstreetmap
Tom Fay Baseball Field,baseball,pitch,44.5843113,-75.1644407,,,NY,,false,true,false,openstreetmap
Tomás D. Morales Baseball Field,baseball,pitch,40.6024796,-74.1518916,,,NY,,false,true,false,openstreetmap
Towers Field,baseball,pitch,43.131248,-77.6274076,,,NY,,false,true,false,openstreetmap
Tullar Field,baseball,pitch,42.1181486,-77.9435285,,,NY,,false,true,false,openstreetmap
Tuller Field,baseball,pitch,42.1292448,-77.0324471,,,NY,,false,true,false,openstreetmap
Tuller Field,baseball,pitch,42.1288482,-77.0335096,,,NY,,false,true,false,openstreetmap
Uniondale Ave. Park Ballfields,baseball,pitch,40.6971443,-73.5965648,,,NY,,false,true,false,openstreetmap
University of Albany Baseball Field,baseball,pitch,42.6785135,-73.8236138,,,NY,,false,true,false,openstreetmap
VFW Batting Cage,baseball,pitch,40.7327854,-73.5211271,,,NY,,false,true,false,openstreetmap
Valentino Field,baseball,pitch,42.4217357,-76.5312377,,,NY,,false,true,false,openstreetmap
Verrazano Babe Ruth League,baseball,sports_centre,40.5936006,-74.1362289,,,NY,,false,true,false,openstreetmap
Vets 1,baseball,pitch,43.0091492,-78.9021483,,,NY,,false,true,false,openstreetmap
Vets 4,baseball,pitch,43.0085505,-78.9033909,,,NY,,false,true,false,openstreetmap
Village of Kinderhook,baseball,pitch,42.3967377,-73.7039364,,,NY,,false,true,false,openstreetmap
Village of Kinderhook,baseball,pitch,42.3954583,-73.7049091,,,NY,,false,true,false,openstreetmap
Village of Kinderhook,baseball,pitch,42.3962481,-73.7046759,,,NY,,false,true,false,openstreetmap
Vito Locascio Ballfield,baseball,pitch,40.6700505,-73.8434497,,,NY,,false,true,false,openstreetmap
WSHS Baseball,baseball,pitch,42.9680617,-78.7303389,,,NY,,false,true,false,openstreetmap
WSHS Baseball Diamond,baseball,pitch,42.9690729,-78.7301953,,,NY,,false,true,false,openstreetmap
Wallace Field,baseball,pitch,42.5919006,-76.1979411,,,NY,,false,true,false,openstreetmap
Walter P. Sabbat Baseball Field,baseball,pitch,40.9826536,-72.5334577,,,NY,,false,true,false,openstreetmap
Walton School Baseball field,baseball,pitch,42.1594702,-75.1302151,,,NY,,false,true,false,openstreetmap
Wasserman Field,baseball,pitch,43.1034547,-77.5845432,,,NY,,false,true,false,openstreetmap
Wayne Brown Field,baseball,pitch,43.1386253,-77.28191,,,NY,,false,true,false,openstreetmap
West Ballfield,baseball,pitch,40.5934802,-73.5242425,,,NY,,false,true,false,openstreetmap
West Harbor Beach Baseball Field #1,baseball,pitch,40.9048871,-73.5416063,,,NY,,false,true,false,openstreetmap
West Harbor Beach Baseball Field #2,baseball,pitch,40.9054702,-73.5414327,,,NY,,false,true,false,openstreetmap
West Harbor Beach Baseball Field #3,baseball,pitch,40.9052863,-73.5420121,,,NY,,false,true,false,openstreetmap
West Harbor Beach Baseball Field #4,baseball,pitch,40.9048909,-73.5411236,,,NY,,false,true,false,openstreetmap
Whitesboro Fire Department Memorial Field,baseball,pitch,43.1267308,-75.301936,,,NY,,false,true,false,openstreetmap
William J. Bonomo Field,baseball,pitch,40.7206225,-73.6535554,,,NY,,false,true,false,openstreetmap
Williams Field,baseball,pitch,43.1616442,-77.4452011,,,NY,,false,true,false,openstreetmap
Wilson Raymond Field,baseball,pitch,44.3249267,-74.1390752,,,NY,,false,true,false,openstreetmap
Woodward Field,baseball,pitch,42.8156178,-73.8624913,,,NY,,false,true,false,openstreetmap
Worcester Little League Field,baseball,pitch,42.5888722,-74.7571688,,,NY,,false,true,false,openstreetmap
Wrigley Field,baseball,pitch,40.7371335,-73.0586546,,,NY,,false,true,false,openstreetmap
Zakbar Field,baseball,pitch,43.161172,-77.4435253,,,NY,,false,true,false,openstreetmap
former Orleans County Fairgrounds,baseball,pitch,43.2443444,-78.2050489,,,NY,,false,true,false,openstreetmap
shaner field,baseball,pitch,42.0630756,-78.1721184,,,NY,,false,true,false,openstreetmap
World of Discovery Summer Day Camp,baseball,pitch,40.7738594,-73.7698936,32nd Avenue & 215th Place,Bayside,NY,11360,false,true,false,openstreetmap
Mirabito Stadium,baseball,stadium,42.1029315,-75.9047753,211 Henry Street,Binghamton,NY,13901,false,true,false,openstreetmap
Yankee Stadium,baseball,stadium,40.829616,-73.9264973,1 East 161st Street,Bronx,NY,10451,false,true,false,openstreetmap
Our Lady of Grace Baseball Field,baseball,pitch,40.5946401,-73.9714196,98 Gravesend Neck Road,Brooklyn,NY,11223,false,true,false,openstreetmap
Sahlen Field,baseball,stadium,42.880522,-78.8737925,1 James D. Griffin Plaza,Buffalo,NY,14203,false,true,false,openstreetmap
Diamond Pro Baseball,baseball,pitch,43.1149349,-77.4798165,160 Despatch Drive,East Rochester,NY,14445,false,true,false,openstreetmap
Team PAC Baseball,baseball,pitch,43.1175382,-77.4959165,465 West Commercial Street,East Rochester,NY,14445,false,true,false,openstreetmap
McDonough,baseball,sports_centre,42.8682826,-77.0009326,180 Lyceum Street,Geneva,NY,14456,false,true,false,openstreetmap
East Field Stadium,baseball,pitch,43.3164247,-73.627178,65 Haskell Avenue,Glens Falls,NY,12801,false,true,false,openstreetmap
Field 1,baseball,pitch,43.3160303,-73.6291607,,Glens Falls,NY,12801,false,true,false,openstreetmap
Field 2,baseball,pitch,43.3153753,-73.6290879,,Glens Falls,NY,12801,false,true,false,openstreetmap
Field 3,baseball,pitch,43.3154924,-73.6282231,,Glens Falls,NY,12801,false,true,false,openstreetmap
Field 4,baseball,pitch,43.3160197,-73.6283287,,Glens Falls,NY,12801,false,true,false,openstreetmap
Parkhurst Field,baseball,sports_centre,43.0313924,-74.3549212,50 Harrison Street,Gloversville,NY,12078,false,true,false,openstreetmap
"Russell E. Diethrick, Jr. Park",baseball,pitch,42.1132283,-79.2193327,485 Falconer Street,Jamestown,NY,14701,false,true,false,openstreetmap
New York Empire Baseball,baseball,fitness_centre,40.7720938,-73.9893831,251 West 60th Street,New York,NY,10023,false,true,false,openstreetmap
The Baseball Center NYC,baseball,sports_hall,40.780007,-73.9811781,202 West 74th Street,New York,NY,10023,false,true,false,openstreetmap
Colburn Park,baseball,stadium,43.0476535,-77.0740974,1160 East Union Street,Newark,NY,14513,false,true,false,openstreetmap
Citi Field,baseball,stadium,40.7570377,-73.8458582,41 Seaver Way,Queens,NY,11368,false,true,false,openstreetmap
Field A,baseball,pitch,43.3370814,-73.6906295,Aviation Road,Queensbury,NY,12804,false,true,false,openstreetmap
Field B,baseball,pitch,43.3364055,-73.6905794,Aviation Road,Queensbury,NY,12804,false,true,false,openstreetmap
Field C,baseball,pitch,43.3364453,-73.6914386,Aviation Road,Queensbury,NY,12804,false,true,false,openstreetmap
Field D,baseball,pitch,43.3373141,-73.6919136,Aviation Road,Queensbury,NY,12804,false,true,false,openstreetmap
Field T,baseball,pitch,43.3376909,-73.6908605,Aviation Road,Queensbury,NY,12804,false,true,false,openstreetmap
Greece Little League,baseball,sports_centre,43.2515446,-77.7361695,3641 Latta Road,Rochester,NY,14612,false,true,false,openstreetmap
Innovative Field,baseball,stadium,43.1582882,-77.6196493,333 North Plymouth Avenue,Rochester,NY,14614,false,true,false,openstreetmap
Red Wings Performance Center,baseball,sports_centre,43.1572569,-77.6208084,1 Morrie Silver Way,Rochester,NY,14608,false,true,false,openstreetmap
Stony Point Little League,baseball,pitch,41.227404,-74.0257355,1 Turkey Hollow Road,Stony Point,NY,10980,false,true,false,openstreetmap
Bombers Bunker Training Facility,baseball,sports_centre,42.7548256,-73.6772352,70 102nd Street,Troy,NY,12180,false,true,false,openstreetmap
D'Amico Park,baseball,pitch,43.2356353,-77.4225154,605 Phillips Road,Webster,NY,14580,false,true,false,openstreetmap
D'Amico Park,baseball,pitch,43.2345866,-77.4223942,605 Phillips Road,Webster,NY,14580,false,true,false,openstreetmap
Chelsea Park,baseball,park,41.307563,-73.7905603,2900 Gomer Street,Yorktown Heights,NY,10598,false,true,false,openstreetmap
Harrison Apar Field of Dreams,baseball,park,41.2922204,-73.7847254,330 Benjamin Blvd,Yorktown Heights,NY,10598,false,true,false,openstreetmap
