name,sport,place_type,latitude,longitude,address,city,state,zip,indoor,outdoor,verified,source
Appalachian Power Park,baseball,pitch,38.3490051,-81.6249573,,,WV,,false,true,false,openstreetmap
Barboursville Little League Baseball Fields,baseball,sports_centre,38.3936194,-82.3014449,,,WV,,false,true,false,openstreetmap
Batting Cage,baseball,pitch,38.8158921,-81.698993,,,WV,,false,true,false,openstreetmap
Batting Cage,baseball,pitch,38.8123506,-81.7026618,,,WV,,false,true,false,openstreetmap
Batting Cage,baseball,pitch,38.6076154,-81.9940543,,,WV,,false,true,false,openstreetmap
Batting Cage,baseball,pitch,40.4045384,-80.5750324,,,WV,,false,true,false,openstreetmap
Batting Cage,baseball,pitch,38.4294513,-82.2087772,,,WV,,false,true,false,openstreetmap
Batting Cages,baseball,pitch,38.2522033,-81.5708902,,,WV,,false,true,false,openstreetmap
Batting Cages,baseball,pitch,37.8525449,-81.9961648,,,WV,,false,true,false,openstreetmap
Ben Morris Baseball Field,baseball,pitch,38.2517925,-81.5704704,,,WV,,false,true,false,openstreetmap
Berkeley Springs High School Baseball Field,baseball,pitch,39.618862,-78.2316446,,,WV,,false,true,false,openstreetmap
Bethany Park,baseball,pitch,40.202344,-80.5530426,,,WV,,false,true,false,openstreetmap
Boys and Girls Club of Parkersburg,baseball,pitch,39.261133,-81.5440671,,,WV,,false,true,false,openstreetmap
Braxton County High School Field,baseball,pitch,38.6848961,-80.6564955,,,WV,,false,true,false,openstreetmap
Buffalo High School Baseball Field,baseball,pitch,38.6076545,-81.993273,,,WV,,false,true,false,openstreetmap
Bullpen,baseball,pitch,38.6079084,-81.993769,,,WV,,false,true,false,openstreetmap
Bullpen,baseball,pitch,38.6080391,-81.9930916,,,WV,,false,true,false,openstreetmap
Bullpen,baseball,pitch,38.4294632,-82.2090773,,,WV,,false,true,false,openstreetmap
Bullpen,baseball,pitch,38.4300124,-82.2096806,,,WV,,false,true,false,openstreetmap
Calvin L. Bailey Baseball Field,baseball,pitch,38.3767048,-81.7678443,,,WV,,false,true,false,openstreetmap
Davis Field,baseball,pitch,39.1330136,-79.4743481,,,WV,,false,true,false,openstreetmap
Dunlop Hollow Ball Field,baseball,pitch,38.2567334,-81.6675524,,,WV,,false,true,false,openstreetmap
Ellis Field,baseball,pitch,39.6125285,-79.9574174,,,WV,,false,true,false,openstreetmap
Field 1,baseball,pitch,38.4095462,-82.4318496,,,WV,,false,true,false,openstreetmap
Field 2,baseball,pitch,38.4105931,-82.431891,,,WV,,false,true,false,openstreetmap
Fort Ashby Little League,baseball,pitch,39.5089214,-78.7716697,,,WV,,false,true,false,openstreetmap
Fort Ashby Little League,baseball,pitch,39.508634,-78.7709283,,,WV,,false,true,false,openstreetmap
Frank Loria Memorial Baseball Field,baseball,pitch,39.257789,-80.3195888,,,WV,,false,true,false,openstreetmap
George Ogden Field,baseball,pitch,39.6139888,-79.9584677,,,WV,,false,true,false,openstreetmap
Golden Park,baseball,pitch,39.4383847,-78.988917,,,WV,,false,true,false,openstreetmap
Hampshire Little League,baseball,pitch,39.3453818,-78.7516032,,,WV,,false,true,false,openstreetmap
Hampshire Little League,baseball,pitch,39.3451832,-78.7508408,,,WV,,false,true,false,openstreetmap
Hank Greenburg Field,baseball,pitch,39.2555921,-81.5417406,,,WV,,false,true,false,openstreetmap
Hawley Field,baseball,pitch,39.6507879,-79.9850811,,,WV,,false,true,false,openstreetmap
Holloway Field,baseball,pitch,40.0750851,-80.697093,,,WV,,false,true,false,openstreetmap
Island Creek Baseball Field,baseball,pitch,38.3217844,-80.6468288,,,WV,,false,true,false,openstreetmap
Jack Cook Field,baseball,sports_centre,38.4284482,-82.42028,,,WV,,false,true,false,openstreetmap
Jack Funk Field (Alderson Broaddus College),baseball,pitch,39.1626608,-80.0477849,,,WV,,false,true,false,openstreetmap
Joni Smith Softball Field,baseball,pitch,38.936999,-79.843605,,,WV,,false,true,false,openstreetmap
Kanawha Valley YMCA Baseball Field,baseball,pitch,38.3439655,-81.6038876,,,WV,,false,true,false,openstreetmap
Kenny Greenlief Field,baseball,pitch,38.9422678,-80.8161483,,,WV,,false,true,false,openstreetmap
Kirk Field,baseball,pitch,38.3809453,-81.8225539,,,WV,,false,true,false,openstreetmap
Knights of Columbus Field,baseball,pitch,39.1404164,-79.492586,,,WV,,false,true,false,openstreetmap
Libertore Field,baseball,pitch,39.6117112,-79.9589504,,,WV,,false,true,false,openstreetmap
Liberty High Baseball Field,baseball,pitch,37.7975253,-81.3320305,,,WV,,false,true,false,openstreetmap
Liberty High Baseball Field,baseball,pitch,37.7981819,-81.3330417,,,WV,,false,true,false,openstreetmap
Linda K. Epling Stadium,baseball,pitch,37.8157124,-81.1655099,,,WV,,false,true,false,openstreetmap
Lion's Club Little League Baseball Field,baseball,pitch,38.4067861,-82.2938658,,,WV,,false,true,false,openstreetmap
Little League Field,baseball,pitch,38.4328942,-82.20587,,,WV,,false,true,false,openstreetmap
Little League Field,baseball,pitch,38.4332826,-82.2048363,,,WV,,false,true,false,openstreetmap
Major League Field,baseball,pitch,38.4322879,-82.2054572,,,WV,,false,true,false,openstreetmap
Mid State Little League Field,baseball,pitch,38.682284,-80.6549885,Holly Gray Park Drive,,WV,,false,true,false,openstreetmap
Mitch Stadium,baseball,pitch,38.3956685,-82.5650778,,,WV,,false,true,false,openstreetmap
Monongalia County Ballpark,baseball,pitch,39.6441536,-79.9963622,,,WV,,false,true,false,openstreetmap
Outfield A,baseball,pitch,38.375175,-81.7619775,,,WV,,false,true,false,openstreetmap
Outfield B,baseball,pitch,38.3756696,-81.7632601,,,WV,,false,true,false,openstreetmap
Outfield C,baseball,pitch,38.3746666,-81.7638862,,,WV,,false,true,false,openstreetmap
Outfield D,baseball,pitch,38.374172,-81.7626077,,,WV,,false,true,false,openstreetmap
Pam Berry Field,baseball,pitch,39.6122551,-79.9596563,,,WV,,false,true,false,openstreetmap
Roane County Little League,baseball,pitch,38.7995638,-81.3485144,,,WV,,false,true,false,openstreetmap
Segra Field,baseball,pitch,38.3351049,-81.6223054,,,WV,,false,true,false,openstreetmap
Softball Field,baseball,pitch,39.4720795,-80.1270887,,,WV,,false,true,false,openstreetmap
Softball Practice Field,baseball,pitch,39.6131343,-78.2370477,,,WV,,false,true,false,openstreetmap
T-Ball Field,baseball,pitch,38.4327785,-82.2045032,,,WV,,false,true,false,openstreetmap
Wahama Softball Field,baseball,pitch,39.0072888,-81.9942069,,,WV,,false,true,false,openstreetmap
Women's Softball Field,baseball,pitch,37.4256479,-81.0022413,,,WV,,false,true,false,openstreetmap
Wright Field,baseball,pitch,38.9512505,-81.7602235,,,WV,,false,true,false,openstreetmap
base ball,baseball,pitch,39.3004622,-78.79876,,,WV,,false,true,false,openstreetmap
Kenton Meadows Field,baseball,pitch,38.6664971,-80.7788947,River Street,Gassaway,WV,26624,false,true,false,openstreetmap
Madison Little League,baseball,pitch,38.0609608,-81.8244424,75 Ohio Place,Madison,WV,25130,false,true,false,openstreetmap
Clay County High School Baseball Field,baseball,pitch,38.4965407,-81.0913183,2286 Upper Two Run Road,Maysel,WV,25133,false,true,false,openstreetmap
Fairfax Baseball Field,baseball,pitch,39.4340198,-77.8090652,305 West High Street,Shepherdstown,WV,25443,false,true,false,openstreetmap
